Timestamp,Yaw,Pitch,Roll,Depth,Depth Set,Depth Control,Water,Roll Control,Pitch Control,Thruster1,Thruster2,Thruster3,Thruster4,Thruster5,Thruster6,BCD1,BCD2,BCD3,BCD4,BCD1 Volt,BCD2 Volt,BCD3 Volt,BCD4 Volt,CPU
2024-04-02 23:53:23,360.0,1.5625,2.3125,-0.11562673909127459,0.0,0.0,-1.0,0.0,0.0,0.0,0.0,0.0,0.0,0.0,0.0,0.0,0.0,0.0,0.0,11.0,12.0,13.0,14.0,53.154
2024-04-02 23:53:23,360.0,1.5625,2.3125,-0.11562673909127459,0.0,0.0,-1.0,0.0,0.0,0.0,0.0,0.0,0.0,0.0,0.0,0.0,0.0,0.0,0.0,11.0,12.0,13.0,14.0,53.692
2024-04-02 23:53:23,360.0,1.5625,2.3125,-0.11562673909127459,0.0,0.0,210.0,0.0,0.0,0.0,0.0,0.0,0.0,0.0,0.0,0.0,0.0,0.0,0.0,11.0,12.0,13.0,14.0,53.692
2024-04-02 23:53:23,360.0,1.5625,2.3125,-0.11562673909127459,0.0,0.0,-1.0,0.0,0.0,0.0,0.0,0.0,0.0,0.0,0.0,0.0,0.0,0.0,0.0,11.0,12.0,13.0,14.0,53.692
2024-04-02 23:53:24,360.0,1.5625,2.3125,-0.11562673909127459,0.0,0.0,210.0,0.0,0.0,0.0,0.0,0.0,0.0,0.0,0.0,0.0,0.0,0.0,0.0,11.0,12.0,13.0,14.0,53.692
2024-04-02 23:53:24,360.0,1.5625,2.3125,-0.11481424716434792,0.0,0.0,-1.0,0.0,0.0,0.0,0.0,0.0,0.0,0.0,0.0,0.0,0.0,0.0,0.0,11.0,12.0,13.0,14.0,53.154
2024-04-02 23:53:24,360.0,1.5625,2.3125,-0.11481424716434792,0.0,0.0,-1.0,0.0,0.0,0.0,0.0,0.0,0.0,0.0,0.0,0.0,0.0,0.0,0.0,11.0,12.0,13.0,14.0,53.692
2024-04-02 23:53:24,360.0,1.5625,2.3125,-0.11481424716434792,0.0,0.0,211.0,0.0,0.0,0.0,0.0,0.0,0.0,0.0,0.0,0.0,0.0,0.0,0.0,11.0,12.0,13.0,14.0,53.692
2024-04-02 23:53:24,360.0,1.5625,2.3125,-0.11481424716434792,0.0,0.0,-1.0,0.0,0.0,0.0,0.0,0.0,0.0,0.0,0.0,0.0,0.0,0.0,0.0,11.0,12.0,13.0,14.0,53.692
2024-04-02 23:53:24,360.0,1.5625,2.3125,-0.11481424716434792,0.0,0.0,208.0,0.0,0.0,0.0,0.0,0.0,0.0,0.0,0.0,0.0,0.0,0.0,0.0,11.0,12.0,13.0,14.0,53.692
2024-04-02 23:53:24,360.0,1.5625,2.3125,-0.11481424716434792,0.0,0.0,-1.0,0.0,0.0,0.0,0.0,0.0,0.0,0.0,0.0,0.0,0.0,0.0,0.0,11.0,12.0,13.0,14.0,53.692
2024-04-02 23:53:24,360.0,1.5625,2.3125,-0.11481424716434792,0.0,0.0,-1.0,0.0,0.0,0.0,0.0,0.0,0.0,0.0,0.0,0.0,0.0,0.0,0.0,11.0,12.0,13.0,14.0,53.154
2024-04-02 23:53:24,360.0,1.5625,2.3125,-0.11481424716434792,0.0,0.0,-1.0,0.0,0.0,0.0,0.0,0.0,0.0,0.0,0.0,0.0,0.0,0.0,0.0,11.0,12.0,13.0,14.0,53.692
2024-04-02 23:53:24,360.0,1.5625,2.3125,-0.11481424716434792,0.0,0.0,-1.0,0.0,0.0,0.0,0.0,0.0,0.0,0.0,0.0,0.0,0.0,0.0,0.0,11.0,12.0,13.0,14.0,53.692
2024-04-02 23:53:24,360.0,1.5625,2.3125,-0.11481424716434792,0.0,0.0,209.0,0.0,0.0,0.0,0.0,0.0,0.0,0.0,0.0,0.0,0.0,0.0,0.0,11.0,12.0,13.0,14.0,53.692
2024-04-02 23:53:24,360.0,1.5625,2.3125,-0.11481424716434792,0.0,0.0,-1.0,0.0,0.0,0.0,0.0,0.0,0.0,0.0,0.0,0.0,0.0,0.0,0.0,11.0,12.0,13.0,14.0,53.692
2024-04-02 23:53:25,360.0,1.5625,2.3125,-0.11494150629964707,0.0,0.0,0.0,0.0,0.0,0.0,0.0,0.0,0.0,0.0,0.0,0.0,0.0,0.0,0.0,11.0,12.0,13.0,14.0,53.692
2024-04-02 23:53:25,360.0,1.5625,2.3125,-0.11494150629964707,0.0,0.0,-1.0,0.0,0.0,0.0,0.0,0.0,0.0,0.0,0.0,0.0,0.0,0.0,0.0,11.0,12.0,13.0,14.0,53.154
2024-04-02 23:53:25,360.0,1.5625,2.3125,-0.11494150629964707,0.0,0.0,-1.0,0.0,0.0,0.0,0.0,0.0,0.0,0.0,0.0,0.0,0.0,0.0,0.0,11.0,12.0,13.0,14.0,53.692
2024-04-02 23:53:25,360.0,1.5625,2.3125,-0.11494150629964707,0.0,0.0,-1.0,0.0,0.0,0.0,0.0,0.0,0.0,0.0,0.0,0.0,0.0,0.0,0.0,11.0,12.0,13.0,14.0,53.692
2024-04-02 23:53:25,360.0,1.5625,2.3125,-0.11494150629964707,0.0,0.0,-1.0,0.0,0.0,0.0,0.0,0.0,0.0,0.0,0.0,0.0,0.0,0.0,0.0,11.0,12.0,13.0,14.0,53.692
2024-04-02 23:53:25,360.0,1.5625,2.3125,-0.11494150629964707,0.0,0.0,-1.0,0.0,0.0,0.0,0.0,0.0,0.0,0.0,0.0,0.0,0.0,0.0,0.0,11.0,12.0,13.0,14.0,53.692
2024-04-02 23:53:25,360.0,1.5625,2.3125,-0.11494150629964707,0.0,0.0,-1.0,0.0,0.0,0.0,0.0,0.0,0.0,0.0,0.0,0.0,0.0,0.0,0.0,11.0,12.0,13.0,14.0,53.692
2024-04-02 23:53:25,360.0,1.5625,2.3125,-0.11494150629964707,0.0,0.0,-1.0,0.0,0.0,0.0,0.0,0.0,0.0,0.0,0.0,0.0,0.0,0.0,0.0,11.0,12.0,13.0,14.0,53.692
2024-04-02 23:53:25,360.0,1.5625,2.3125,-0.11494150629964707,0.0,0.0,205.0,0.0,0.0,0.0,0.0,0.0,0.0,0.0,0.0,0.0,0.0,0.0,0.0,11.0,12.0,13.0,14.0,53.692
2024-04-02 23:53:25,360.0,1.5625,2.3125,-0.11494150629964707,0.0,0.0,-1.0,0.0,0.0,0.0,0.0,0.0,0.0,0.0,0.0,0.0,0.0,0.0,0.0,11.0,12.0,13.0,14.0,53.692
2024-04-02 23:53:25,360.0,1.5625,2.3125,-0.11494150629964707,0.0,0.0,-1.0,0.0,0.0,0.0,0.0,0.0,0.0,0.0,0.0,0.0,0.0,0.0,0.0,11.0,12.0,13.0,14.0,53.692
2024-04-02 23:53:25,360.0,1.5625,2.3125,-0.11494150629964707,0.0,0.0,206.0,0.0,0.0,0.0,0.0,0.0,0.0,0.0,0.0,0.0,0.0,0.0,0.0,11.0,12.0,13.0,14.0,53.154
2024-04-02 23:53:25,360.0,1.5625,2.3125,-0.11494150629964707,0.0,0.0,-1.0,0.0,0.0,0.0,0.0,0.0,0.0,0.0,0.0,0.0,0.0,0.0,0.0,11.0,12.0,13.0,14.0,53.692
2024-04-02 23:53:26,360.0,1.5625,2.3125,-0.11326397811170978,0.0,0.0,-1.0,0.0,0.0,0.0,0.0,0.0,0.0,0.0,0.0,0.0,0.0,0.0,0.0,11.0,12.0,13.0,14.0,53.692
2024-04-02 23:53:26,360.0,1.5625,2.3125,-0.11326397811170978,0.0,0.0,-1.0,0.0,0.0,0.0,0.0,0.0,0.0,0.0,0.0,0.0,0.0,0.0,0.0,11.0,12.0,13.0,14.0,53.692
2024-04-02 23:53:26,360.0,1.5625,2.3125,-0.11326397811170978,0.0,0.0,-1.0,0.0,0.0,0.0,0.0,0.0,0.0,0.0,0.0,0.0,0.0,0.0,0.0,11.0,12.0,13.0,14.0,53.692
2024-04-02 23:53:26,360.0,1.5625,2.3125,-0.11326397811170978,0.0,0.0,-1.0,0.0,0.0,0.0,0.0,0.0,0.0,0.0,0.0,0.0,0.0,0.0,0.0,11.0,12.0,13.0,14.0,53.692
2024-04-02 23:53:26,360.0,1.5625,2.3125,-0.11326397811170978,0.0,0.0,-1.0,0.0,0.0,0.0,0.0,0.0,0.0,0.0,0.0,0.0,0.0,0.0,0.0,11.0,12.0,13.0,14.0,53.692
2024-04-02 23:53:26,360.0,1.5625,2.3125,-0.11326397811170978,0.0,0.0,-1.0,0.0,0.0,0.0,0.0,0.0,0.0,0.0,0.0,0.0,0.0,0.0,0.0,11.0,12.0,13.0,14.0,53.692
2024-04-02 23:53:26,360.0,1.5625,2.3125,-0.11326397811170978,0.0,0.0,-1.0,0.0,0.0,-0.05875,0.05875,0.05875,-0.05875,0.0,0.0,0.0,0.0,0.0,0.0,11.0,12.0,13.0,14.0,53.692
2024-04-02 23:53:26,360.0,1.5625,2.3125,-0.11326397811170978,0.0,0.0,-1.0,0.0,0.0,-0.6072256097560975,0.6072256097560975,0.6072256097560975,-0.6072256097560975,0.9441463414634146,0.9441463414634146,0.0,0.0,0.0,0.0,11.0,12.0,13.0,14.0,53.692
2024-04-02 23:53:26,360.0,1.5625,2.3125,-0.11326397811170978,0.0,0.0,-1.0,0.0,0.0,-0.5288719512195122,0.5288719512195122,0.5288719512195122,-0.5288719512195122,0.18411585365853658,0.18411585365853658,0.0,0.0,0.0,0.0,11.0,12.0,13.0,14.0,53.154
2024-04-02 23:53:26,360.0,1.5625,2.3125,-0.11326397811170978,0.0,0.0,-1.0,0.0,0.0,-0.16060975609756098,0.16060975609756098,0.16060975609756098,-0.16060975609756098,-0.9989939024390244,-0.9989939024390244,0.0,0.0,0.0,0.0,11.0,12.0,13.0,14.0,53.692
2024-04-02 23:53:26,360.0,1.5625,2.3125,-0.11326397811170978,0.0,0.0,0.0,0.0,0.0,-0.4426829268292683,0.4426829268292683,0.4426829268292683,-0.4426829268292683,0.9989939024390244,0.9989939024390244,0.0,0.0,0.0,0.0,11.0,12.0,13.0,14.0,53.154
2024-04-02 23:53:26,360.0,1.5625,2.3125,-0.11326397811170978,0.0,0.0,-1.0,0.0,0.0,0.12143292682926829,-0.12143292682926829,-0.12143292682926829,0.12143292682926829,-0.9989939024390244,-0.9989939024390244,0.0,0.0,0.0,0.0,11.0,12.0,13.0,14.0,53.692
2024-04-02 23:53:26,360.0,1.5625,2.3125,-0.11614545703948705,0.0,0.0,205.0,0.0,0.0,0.0,0.0,0.0,0.0,-0.0,0.0,0.0,0.0,0.0,0.0,11.0,12.0,13.0,14.0,53.692
2024-04-02 23:53:26,360.0,1.5625,2.3125,-0.11614545703948705,0.0,0.0,-1.0,0.0,0.0,0.0,0.0,0.0,0.0,-0.0,0.0,0.0,0.0,0.0,0.0,11.0,12.0,13.0,14.0,53.154
2024-04-02 23:53:26,360.0,1.5625,2.3125,-0.11614545703948705,0.0,0.0,-1.0,0.0,0.0,0.0,0.0,0.0,0.0,-0.0,0.0,0.0,0.0,0.0,0.0,11.0,12.0,13.0,14.0,53.154
2024-04-02 23:53:27,360.0,1.5625,2.3125,-0.11614545703948705,0.0,0.0,205.0,0.0,0.0,0.0,0.0,0.0,0.0,-0.0,0.0,0.0,0.0,0.0,0.0,11.0,12.0,13.0,14.0,53.692
2024-04-02 23:53:27,360.0,1.5625,2.3125,-0.11614545703948705,0.0,0.0,-1.0,0.0,0.0,0.0,0.0,0.0,0.0,-0.0,0.0,0.0,0.0,0.0,0.0,11.0,12.0,13.0,14.0,53.154
2024-04-02 23:53:27,360.0,1.5625,2.3125,-0.11614545703948705,0.0,0.0,-1.0,0.0,0.0,0.0,0.0,0.0,0.0,-0.0,0.0,0.0,0.0,0.0,0.0,11.0,12.0,13.0,14.0,53.692
2024-04-02 23:53:27,360.0,1.5625,2.3125,-0.11614545703948705,0.0,0.0,206.0,0.0,0.0,0.0,0.0,0.0,0.0,-0.0,0.0,0.0,0.0,0.0,0.0,11.0,12.0,13.0,14.0,53.692
2024-04-02 23:53:27,360.0,1.5625,2.3125,-0.11614545703948705,0.0,0.0,-1.0,0.0,0.0,0.0,0.0,0.0,0.0,-0.0,0.0,0.0,0.0,0.0,0.0,11.0,12.0,13.0,14.0,53.154
2024-04-02 23:53:27,360.0,1.5625,2.3125,-0.11614545703948705,0.0,0.0,0.0,0.0,0.0,0.0,0.0,0.0,0.0,-0.0,0.0,0.0,0.0,0.0,0.0,11.0,12.0,13.0,14.0,53.154
2024-04-02 23:53:27,360.0,1.5625,2.3125,-0.11614545703948705,0.0,0.0,-1.0,0.0,0.0,0.0,0.0,0.0,0.0,-0.0,0.0,0.0,0.0,0.0,0.0,11.0,12.0,13.0,14.0,53.692
2024-04-02 23:53:27,360.0,1.5625,2.3125,-0.11614545703948705,0.0,0.0,-1.0,0.0,0.0,0.0,0.0,0.0,0.0,-0.0,0.0,0.0,0.0,0.0,0.0,11.0,12.0,13.0,14.0,53.692
2024-04-02 23:53:27,360.0,1.5625,2.3125,-0.11614545703948705,0.0,0.0,-1.0,0.0,0.0,0.0,0.0,0.0,0.0,-0.0,0.0,0.0,0.0,0.0,0.0,11.0,12.0,13.0,14.0,53.154
2024-04-02 23:53:27,360.0,1.5625,2.3125,-0.11399545598854197,0.0,0.0,-1.0,0.0,0.0,0.0,0.0,0.0,0.0,-0.0,0.0,0.0,0.0,0.0,0.0,11.0,12.0,13.0,14.0,53.154
2024-04-02 23:53:27,360.0,1.5625,2.3125,-0.11399545598854197,0.0,0.0,-1.0,0.0,0.0,0.0,0.0,0.0,0.0,-0.0,0.0,0.0,0.0,0.0,0.0,11.0,12.0,13.0,14.0,53.692
2024-04-02 23:53:27,360.0,1.5625,2.3125,-0.11399545598854197,0.0,0.0,-1.0,0.0,0.0,0.0,0.0,0.0,0.0,-0.0,0.0,0.0,0.0,0.0,0.0,11.0,12.0,13.0,14.0,53.692
2024-04-02 23:53:27,360.0,1.5625,2.3125,-0.11399545598854197,0.0,0.0,-1.0,0.0,0.0,0.0,0.0,0.0,0.0,-0.0,0.0,0.0,0.0,0.0,0.0,11.0,12.0,13.0,14.0,53.692
2024-04-02 23:53:28,360.0,1.5625,2.3125,-0.11399545598854197,0.0,0.0,205.0,0.0,0.0,0.0,0.0,0.0,0.0,-0.0,0.0,0.0,0.0,0.0,0.0,11.0,12.0,13.0,14.0,53.692
2024-04-02 23:53:28,360.0,1.5625,2.3125,-0.11399545598854197,0.0,0.0,-1.0,0.0,0.0,0.0,0.0,0.0,0.0,-0.0,0.0,0.0,0.0,0.0,0.0,11.0,12.0,13.0,14.0,53.692
2024-04-02 23:53:28,360.0,1.5625,2.3125,-0.11399545598854197,0.0,0.0,-1.0,0.0,0.0,0.0,0.0,0.0,0.0,-0.0,0.0,0.0,0.0,0.0,0.0,11.0,12.0,13.0,14.0,52.616
2024-04-02 23:53:28,360.0,1.5625,2.3125,-0.11399545598854197,0.0,0.0,-1.0,0.0,0.0,0.0,0.0,0.0,0.0,-0.0,0.0,0.0,0.0,0.0,0.0,11.0,12.0,13.0,14.0,52.616
2024-04-02 23:53:28,360.0,1.5625,2.3125,-0.11399545598854197,0.0,0.0,-1.0,0.0,0.0,0.0,0.0,0.0,0.0,-0.0,0.0,0.0,0.0,0.0,0.0,11.0,12.0,13.0,14.0,53.154
2024-04-02 23:53:28,360.0,1.5625,2.3125,-0.11399545598854197,0.0,0.0,-1.0,0.0,0.0,0.0,0.0,0.0,0.0,-0.0,0.0,0.0,0.0,0.0,0.0,11.0,12.0,13.0,14.0,53.692
2024-04-02 23:53:28,360.0,1.5625,2.3125,-0.11399545598854197,0.0,0.0,205.0,0.0,0.0,0.0,0.0,0.0,0.0,-0.0,0.0,0.0,0.0,0.0,0.0,11.0,12.0,13.0,14.0,53.692
2024-04-02 23:53:28,360.0,1.5625,2.3125,-0.11399545598854197,0.0,0.0,-1.0,0.0,0.0,0.0,0.0,0.0,0.0,-0.0,0.0,0.0,0.0,0.0,0.0,11.0,12.0,13.0,14.0,53.692
2024-04-02 23:53:28,360.0,1.5625,2.3125,-0.11327153967322451,0.0,0.0,-1.0,0.0,0.0,0.0,0.0,0.0,0.0,-0.0,0.0,0.0,0.0,0.0,0.0,11.0,12.0,13.0,14.0,53.154
2024-04-02 23:53:28,360.0,1.5625,2.3125,-0.11327153967322451,0.0,0.0,206.0,0.0,0.0,0.0,0.0,0.0,0.0,-0.0,0.0,0.0,0.0,0.0,0.0,11.0,12.0,13.0,14.0,53.692
2024-04-02 23:53:28,360.0,1.5625,2.3125,-0.11327153967322451,0.0,0.0,-1.0,0.0,0.0,0.0,0.0,0.0,0.0,-0.0,0.0,0.0,0.0,0.0,0.0,11.0,12.0,13.0,14.0,53.692
2024-04-02 23:53:28,360.0,1.5625,2.3125,-0.11327153967322451,0.0,0.0,-1.0,0.0,0.0,0.0,0.0,0.0,0.0,-0.0,0.0,0.0,0.0,0.0,0.0,11.0,12.0,13.0,14.0,53.154
2024-04-02 23:53:28,360.0,1.5625,2.3125,-0.11327153967322451,0.0,0.0,205.0,0.0,0.0,0.0,0.0,0.0,0.0,-0.0,0.0,0.0,0.0,0.0,0.0,11.0,12.0,13.0,14.0,53.154
2024-04-02 23:53:28,360.0,1.5625,2.3125,-0.11327153967322451,0.0,0.0,-1.0,0.0,0.0,0.0,0.0,0.0,0.0,-0.0,0.0,0.0,0.0,0.0,0.0,11.0,12.0,13.0,14.0,53.692
2024-04-02 23:53:29,360.0,1.5625,2.3125,-0.11327153967322451,0.0,0.0,-1.0,0.0,0.0,0.0,0.0,0.0,0.0,-0.0,0.0,0.0,0.0,0.0,0.0,11.0,12.0,13.0,14.0,53.692
2024-04-02 23:53:29,360.0,1.5625,2.3125,-0.11327153967322451,0.0,0.0,-1.0,0.0,0.0,0.0,0.0,0.0,0.0,-0.0,0.0,0.0,0.0,0.0,0.0,11.0,12.0,13.0,14.0,53.154
2024-04-02 23:53:29,360.0,1.5625,2.3125,-0.11327153967322451,0.0,0.0,-1.0,0.0,0.0,0.0,0.0,0.0,0.0,-0.0,0.0,0.0,0.0,0.0,0.0,11.0,12.0,13.0,14.0,52.616
2024-04-02 23:53:29,360.0,1.5625,2.3125,-0.11327153967322451,0.0,0.0,-1.0,0.0,0.0,0.0,0.0,0.0,0.0,-0.0,0.0,0.0,0.0,0.0,0.0,11.0,12.0,13.0,14.0,53.692
2024-04-02 23:53:29,360.0,1.5625,2.3125,-0.11327153967322451,0.0,0.0,-1.0,0.0,0.0,0.0,0.0,0.0,0.0,-0.0,0.0,0.0,0.0,0.0,0.0,11.0,12.0,13.0,14.0,53.692
2024-04-02 23:53:29,360.0,1.5625,2.3125,-0.11327153967322451,0.0,0.0,-1.0,0.0,0.0,0.0,0.0,0.0,0.0,-0.0,0.0,0.0,0.0,0.0,0.0,11.0,12.0,13.0,14.0,53.154
2024-04-02 23:53:29,360.0,1.5625,2.3125,-0.11327153967322451,0.0,0.0,206.0,0.0,0.0,0.0,0.0,0.0,0.0,-0.0,0.0,0.0,0.0,0.0,0.0,11.0,12.0,13.0,14.0,53.692
2024-04-02 23:53:29,360.0,1.5625,2.3125,-0.11475556914939669,0.0,0.0,-1.0,0.0,0.0,0.0,0.0,0.0,0.0,-0.0,0.0,0.0,0.0,0.0,0.0,11.0,12.0,13.0,14.0,53.692
2024-04-02 23:53:29,360.0,1.5625,2.3125,-0.11475556914939669,0.0,0.0,-1.0,0.0,0.0,0.0,0.0,0.0,0.0,-0.0,0.0,0.0,0.0,0.0,0.0,11.0,12.0,13.0,14.0,53.692
2024-04-02 23:53:29,360.0,1.5625,2.3125,-0.11475556914939669,0.0,0.0,205.0,0.0,0.0,0.0,0.0,0.0,0.0,-0.0,0.0,0.0,0.0,0.0,0.0,11.0,12.0,13.0,14.0,53.154
2024-04-02 23:53:29,360.0,1.5625,2.3125,-0.11475556914939669,0.0,0.0,-1.0,0.0,0.0,0.0,0.0,0.0,0.0,-0.0,0.0,0.0,0.0,0.0,0.0,11.0,12.0,13.0,14.0,53.154
2024-04-02 23:53:29,360.0,1.5625,2.3125,-0.11475556914939669,0.0,0.0,-1.0,0.0,0.0,0.0,0.0,0.0,0.0,-0.0,0.0,0.0,0.0,0.0,0.0,11.0,12.0,13.0,14.0,53.692
2024-04-02 23:53:29,360.0,1.5625,2.3125,-0.11475556914939669,0.0,0.0,206.0,0.0,0.0,0.0,0.0,0.0,0.0,-0.0,0.0,0.0,0.0,0.0,0.0,11.0,12.0,13.0,14.0,53.692
2024-04-02 23:53:29,360.0,1.5625,2.3125,-0.11475556914939669,0.0,0.0,-1.0,0.0,0.0,0.0,0.0,0.0,0.0,-0.0,0.0,0.0,0.0,0.0,0.0,11.0,12.0,13.0,14.0,53.692
2024-04-02 23:53:29,360.0,1.5625,2.3125,-0.11475556914939669,0.0,0.0,-1.0,0.0,0.0,0.0,0.0,0.0,0.0,-0.0,0.0,0.0,0.0,0.0,0.0,11.0,12.0,13.0,14.0,53.692
2024-04-02 23:53:30,360.0,1.5625,2.3125,-0.11475556914939669,0.0,0.0,-1.0,0.0,0.0,0.0,0.0,0.0,0.0,-0.0,0.0,0.0,0.0,0.0,0.0,11.0,12.0,13.0,14.0,53.154
2024-04-02 23:53:30,360.0,1.5625,2.3125,-0.11475556914939669,0.0,0.0,-1.0,0.0,0.0,0.0,0.0,0.0,0.0,-0.0,0.0,0.0,0.0,0.0,0.0,11.0,12.0,13.0,14.0,53.692
2024-04-02 23:53:30,360.0,1.5625,2.3125,-0.11475556914939669,0.0,0.0,-1.0,0.0,0.0,0.0,0.0,0.0,0.0,-0.0,0.0,0.0,0.0,0.0,0.0,11.0,12.0,13.0,14.0,53.692
2024-04-02 23:53:30,360.0,1.5625,2.3125,-0.11475556914939669,0.0,0.0,206.0,0.0,0.0,0.0,0.0,0.0,0.0,-0.0,0.0,0.0,0.0,0.0,0.0,11.0,12.0,13.0,14.0,53.692
2024-04-02 23:53:30,360.0,1.5625,2.3125,-0.11475556914939669,0.0,0.0,-1.0,0.0,0.0,0.0,0.0,0.0,0.0,-0.0,0.0,0.0,0.0,0.0,0.0,11.0,12.0,13.0,14.0,53.692
2024-04-02 23:53:30,360.0,1.5625,2.3125,-0.11231313348771571,0.0,0.0,-1.0,0.0,0.0,0.0,0.0,0.0,0.0,-0.0,0.0,0.0,0.0,0.0,0.0,11.0,12.0,13.0,14.0,53.692
2024-04-02 23:53:30,360.0,1.5625,2.3125,-0.11231313348771571,0.0,0.0,-1.0,0.0,0.0,0.0,0.0,0.0,0.0,-0.0,0.0,0.0,0.0,0.0,0.0,11.0,12.0,13.0,14.0,53.692
2024-04-02 23:53:30,360.0,1.5625,2.3125,-0.11231313348771571,0.0,0.0,-1.0,0.0,0.0,0.0,0.0,0.0,0.0,-0.0,0.0,0.0,0.0,0.0,0.0,11.0,12.0,13.0,14.0,52.616
2024-04-02 23:53:30,360.0,1.5625,2.3125,-0.11231313348771571,0.0,0.0,0.0,0.0,0.0,0.0,0.0,0.0,0.0,-0.0,0.0,0.0,0.0,0.0,0.0,11.0,12.0,13.0,14.0,53.692
2024-04-02 23:53:30,360.0,1.5625,2.3125,-0.11231313348771571,0.0,0.0,-1.0,0.0,0.0,0.0,0.0,0.0,0.0,-0.0,0.0,0.0,0.0,0.0,0.0,11.0,12.0,13.0,14.0,53.692
2024-04-02 23:53:30,360.0,1.5625,2.3125,-0.11231313348771571,0.0,0.0,-1.0,0.0,0.0,0.0,0.0,0.0,0.0,-0.0,0.0,0.0,0.0,0.0,0.0,11.0,12.0,13.0,14.0,53.692
2024-04-02 23:53:30,360.0,1.5625,2.3125,-0.11231313348771571,0.0,0.0,-1.0,0.0,0.0,0.0,0.0,0.0,0.0,-0.0,0.0,0.0,0.0,0.0,0.0,11.0,12.0,13.0,14.0,53.692
2024-04-02 23:53:30,360.0,1.5625,2.3125,-0.11231313348771571,0.0,0.0,-1.0,0.0,0.0,0.0,0.0,0.0,0.0,-0.0,0.0,0.0,0.0,0.0,0.0,11.0,12.0,13.0,14.0,53.154
2024-04-02 23:53:31,360.0,1.5625,2.3125,-0.11231313348771571,0.0,0.0,0.0,0.0,0.0,0.0,0.0,0.0,0.0,-0.0,0.0,0.0,0.0,0.0,0.0,11.0,12.0,13.0,14.0,53.692
2024-04-02 23:53:31,360.0,1.5625,2.3125,-0.11231313348771571,0.0,0.0,-1.0,0.0,0.0,0.0,0.0,0.0,0.0,-0.0,0.0,0.0,0.0,0.0,0.0,11.0,12.0,13.0,14.0,53.692
2024-04-02 23:53:31,360.0,1.5625,2.3125,-0.11231313348771571,0.0,0.0,-1.0,0.0,0.0,0.0,0.0,0.0,0.0,-0.0,0.0,0.0,0.0,0.0,0.0,11.0,12.0,13.0,14.0,53.692
2024-04-02 23:53:31,360.0,1.5625,2.3125,-0.11231313348771571,0.0,0.0,-1.0,0.0,0.0,0.0,0.0,0.0,0.0,-0.0,0.0,0.0,0.0,0.0,0.0,11.0,12.0,13.0,14.0,53.692
2024-04-02 23:53:31,360.0,1.5625,2.3125,-0.11022960907202749,0.0,0.0,-1.0,0.0,0.0,0.0,0.0,0.0,0.0,-0.0,0.0,0.0,0.0,0.0,0.0,11.0,12.0,13.0,14.0,53.154
2024-04-02 23:53:31,360.0,1.5625,2.3125,-0.11022960907202749,0.0,0.0,-1.0,0.0,0.0,0.0,0.0,0.0,0.0,-0.0,0.0,0.0,0.0,0.0,0.0,11.0,12.0,13.0,14.0,53.154
2024-04-02 23:53:31,360.0,1.5625,2.3125,-0.11022960907202749,0.0,0.0,-1.0,0.0,0.0,0.0,0.0,0.0,0.0,-0.0,0.0,0.0,0.0,0.0,0.0,11.0,12.0,13.0,14.0,53.692
2024-04-02 23:53:31,360.0,1.5625,2.3125,-0.11022960907202749,0.0,0.0,-1.0,0.0,0.0,0.0,0.0,0.0,0.0,-0.0,0.0,0.0,0.0,0.0,0.0,11.0,12.0,13.0,14.0,53.692
2024-04-02 23:53:31,360.0,1.5625,2.3125,-0.11022960907202749,0.0,0.0,-1.0,0.0,0.0,0.0,0.0,0.0,0.0,-0.0,0.0,0.0,0.0,0.0,0.0,11.0,12.0,13.0,14.0,53.692
2024-04-02 23:53:31,360.0,1.5625,2.3125,-0.11022960907202749,0.0,0.0,-1.0,0.0,0.0,0.0,0.0,0.0,0.0,-0.0,0.0,0.0,0.0,0.0,0.0,11.0,12.0,13.0,14.0,53.692
2024-04-02 23:53:31,360.0,1.5625,2.3125,-0.11022960907202749,0.0,0.0,-1.0,0.0,0.0,0.0,0.0,0.0,0.0,-0.0,0.0,0.0,0.0,0.0,0.0,11.0,12.0,13.0,14.0,53.692
2024-04-02 23:53:31,360.0,1.5625,2.3125,-0.11022960907202749,0.0,0.0,-1.0,0.0,0.0,0.0,0.0,0.0,0.0,-0.0,0.0,0.0,0.0,0.0,0.0,11.0,12.0,13.0,14.0,53.692
2024-04-02 23:53:31,360.0,1.5625,2.3125,-0.11022960907202749,0.0,0.0,-1.0,0.0,0.0,0.0,0.0,0.0,0.0,-0.0,0.0,0.0,0.0,0.0,0.0,11.0,12.0,13.0,14.0,53.692
2024-04-02 23:53:31,360.0,1.5625,2.3125,-0.11022960907202749,0.0,0.0,-1.0,0.0,0.0,0.0,0.0,0.0,0.0,-0.0,0.0,0.0,0.0,0.0,0.0,11.0,12.0,13.0,14.0,53.692
2024-04-02 23:53:32,360.0,1.5625,2.3125,-0.11022960907202749,0.0,0.0,-1.0,0.0,0.0,0.0,0.0,0.0,0.0,-0.0,0.0,0.0,0.0,0.0,0.0,11.0,12.0,13.0,14.0,53.154
2024-04-02 23:53:32,360.0,1.5625,2.3125,-0.11022960907202749,0.0,0.0,-1.0,0.0,0.0,0.0,0.0,0.0,0.0,-0.0,0.0,0.0,0.0,0.0,0.0,11.0,12.0,13.0,14.0,53.692
2024-04-02 23:53:32,360.0,1.5625,2.3125,-0.11022960907202749,0.0,0.0,-1.0,0.0,0.0,0.0,0.0,0.0,0.0,-0.0,0.0,0.0,0.0,0.0,0.0,11.0,12.0,13.0,14.0,53.692
2024-04-02 23:53:32,360.0,1.5625,2.3125,-0.11529948526333463,0.0,0.0,-1.0,0.0,0.0,0.0,0.0,0.0,0.0,-0.0,0.0,0.0,0.0,0.0,0.0,11.0,12.0,13.0,14.0,53.692
2024-04-02 23:53:32,360.0,1.5625,2.3125,-0.11529948526333463,0.0,0.0,-1.0,0.0,0.0,0.0,0.0,0.0,0.0,-0.0,0.0,0.0,0.0,0.0,0.0,11.0,12.0,13.0,14.0,53.692
2024-04-02 23:53:32,360.0,1.5625,2.3125,-0.11529948526333463,0.0,0.0,-1.0,0.0,0.0,0.0,0.0,0.0,0.0,-0.0,0.0,0.0,0.0,0.0,0.0,11.0,12.0,13.0,14.0,53.692
2024-04-02 23:53:32,360.0,1.5625,2.3125,-0.11529948526333463,0.0,0.0,205.0,0.0,0.0,0.0,0.0,0.0,0.0,-0.0,0.0,0.0,0.0,0.0,0.0,11.0,12.0,13.0,14.0,53.154
2024-04-02 23:53:32,360.0,1.5625,2.3125,-0.11529948526333463,0.0,0.0,-1.0,0.0,0.0,0.0,0.0,0.0,0.0,-0.0,0.0,0.0,0.0,0.0,0.0,11.0,12.0,13.0,14.0,53.154
2024-04-02 23:53:32,360.0,1.5625,2.3125,-0.11529948526333463,0.0,0.0,-1.0,0.0,0.0,0.0,0.0,0.0,0.0,-0.0,0.0,0.0,0.0,0.0,0.0,11.0,12.0,13.0,14.0,53.154
2024-04-02 23:53:32,360.0,1.5625,2.3125,-0.11529948526333463,0.0,0.0,-1.0,0.0,0.0,0.0,0.0,0.0,0.0,-0.0,0.0,0.0,0.0,0.0,0.0,11.0,12.0,13.0,14.0,53.154
2024-04-02 23:53:32,360.0,1.5625,2.3125,-0.11529948526333463,0.0,0.0,-1.0,0.0,0.0,0.0,0.0,0.0,0.0,-0.0,0.0,0.0,0.0,0.0,0.0,11.0,12.0,13.0,14.0,53.154
2024-04-02 23:53:32,360.0,1.5625,2.3125,-0.11529948526333463,0.0,0.0,-1.0,0.0,0.0,0.0,0.0,0.0,0.0,-0.0,0.0,0.0,0.0,0.0,0.0,11.0,12.0,13.0,14.0,53.692
2024-04-02 23:53:32,360.0,1.5625,2.3125,-0.11529948526333463,0.0,0.0,-1.0,0.0,0.0,-0.96375,1.0,-1.0,0.96375,-0.0,0.0,0.0,0.0,0.0,0.0,11.0,12.0,13.0,14.0,53.692
2024-04-02 23:53:32,360.0,1.5625,2.3125,-0.11529948526333463,0.0,0.0,-1.0,0.0,0.0,0.0,0.0,0.0,0.0,-0.0,0.0,0.0,0.0,0.0,0.0,11.0,12.0,13.0,14.0,52.616
2024-04-02 23:53:33,360.0,1.5625,2.3125,-0.11529948526333463,0.0,0.0,205.0,0.0,0.0,0.0,0.0,0.0,0.0,-0.0,0.0,0.0,0.0,0.0,0.0,11.0,12.0,13.0,14.0,52.616
2024-04-02 23:53:33,360.0,1.5625,2.3125,-0.11286790447219511,0.0,0.0,-1.0,0.0,0.0,0.0,0.0,0.0,0.0,0.09792682926829269,0.09792682926829269,0.0,0.0,0.0,0.0,11.0,12.0,13.0,14.0,53.692
2024-04-02 23:53:33,360.0,1.5625,2.3125,-0.11286790447219511,0.0,0.0,203.0,0.0,0.0,0.16844512195121952,-0.16844512195121952,-0.16844512195121952,0.16844512195121952,0.9989939024390244,0.9989939024390244,0.0,0.0,0.0,0.0,11.0,12.0,13.0,14.0,53.692
2024-04-02 23:53:33,360.0,1.5625,2.3125,-0.11286790447219511,0.0,0.0,-1.0,0.0,0.0,0.0,0.0,0.0,0.0,-0.0,0.0,0.0,0.0,0.0,0.0,11.0,12.0,13.0,14.0,53.692
2024-04-02 23:53:33,360.0,1.5625,2.3125,-0.11286790447219511,0.0,0.0,-1.0,0.0,0.0,0.0,0.0,0.0,0.0,-0.0,0.0,0.0,0.0,0.0,0.0,11.0,12.0,13.0,14.0,53.692
2024-04-02 23:53:33,360.0,1.5625,2.3125,-0.11286790447219511,0.0,0.0,-1.0,0.0,0.0,0.0,0.0,0.0,0.0,-0.0,0.0,0.0,0.0,0.0,0.0,11.0,12.0,13.0,14.0,53.692
2024-04-02 23:53:33,360.0,1.5625,2.3125,-0.11286790447219511,0.0,0.0,-1.0,0.0,0.0,0.0,0.0,0.0,0.0,-0.0,0.0,0.0,0.0,0.0,0.0,11.0,12.0,13.0,14.0,53.692
2024-04-02 23:53:33,360.0,1.5625,2.3125,-0.11286790447219511,0.0,0.0,-1.0,0.0,0.0,0.0,0.0,0.0,0.0,-0.0,0.0,0.0,0.0,0.0,0.0,11.0,12.0,13.0,14.0,53.692
2024-04-02 23:53:33,360.0,1.5625,2.3125,-0.11286790447219511,0.0,0.0,-1.0,0.0,0.0,0.0,0.0,0.0,0.0,-0.0,0.0,0.0,0.0,0.0,0.0,11.0,12.0,13.0,14.0,53.692
2024-04-02 23:53:33,360.0,1.5625,2.3125,-0.11286790447219511,0.0,0.0,-1.0,0.0,0.0,0.0,0.0,0.0,0.0,-0.0,0.0,0.0,0.0,0.0,0.0,11.0,12.0,13.0,14.0,53.692
2024-04-02 23:53:33,360.0,1.5625,2.3125,-0.11286790447219511,0.0,0.0,-1.0,0.0,0.0,0.0,0.0,0.0,0.0,-0.0,0.0,0.0,0.0,0.0,0.0,11.0,12.0,13.0,14.0,53.692
2024-04-02 23:53:33,360.0,1.5625,2.3125,-0.11286790447219511,0.0,0.0,-1.0,0.0,0.0,0.0,0.0,0.0,0.0,-0.0,0.0,0.0,0.0,0.0,0.0,11.0,12.0,13.0,14.0,53.692
2024-04-02 23:53:33,360.0,1.5625,2.3125,-0.11286790447219511,0.0,0.0,-1.0,0.0,0.0,0.0,0.0,0.0,0.0,-0.0,0.0,0.0,0.0,0.0,0.0,11.0,12.0,13.0,14.0,53.692
2024-04-02 23:53:34,360.0,1.5625,2.3125,-0.11420592569486036,0.0,0.0,206.0,0.0,0.0,0.0,0.0,0.0,0.0,-0.0,0.0,0.0,0.0,0.0,0.0,11.0,12.0,13.0,14.0,53.154
2024-04-02 23:53:34,360.0,1.5625,2.3125,-0.11420592569486036,0.0,0.0,-1.0,0.0,0.0,0.0,0.0,0.0,0.0,-0.0,0.0,0.0,0.0,0.0,0.0,11.0,12.0,13.0,14.0,53.692
2024-04-02 23:53:34,360.0,1.5625,2.3125,-0.11420592569486036,0.0,0.0,-1.0,0.0,0.0,0.0,0.0,0.0,0.0,-0.0,0.0,0.0,0.0,0.0,0.0,11.0,12.0,13.0,14.0,53.692
2024-04-02 23:53:34,360.0,1.5625,2.3125,-0.11420592569486036,0.0,0.0,205.0,0.0,0.0,0.0,0.0,0.0,0.0,-0.0,0.0,0.0,0.0,0.0,0.0,11.0,12.0,13.0,14.0,53.692
2024-04-02 23:53:34,360.0,1.5625,2.3125,-0.11420592569486036,0.0,0.0,-1.0,0.0,0.0,0.0,0.0,0.0,0.0,-0.0,0.0,0.0,0.0,0.0,0.0,11.0,12.0,13.0,14.0,53.154
2024-04-02 23:53:34,360.0,1.5625,2.3125,-0.11420592569486036,0.0,0.0,205.0,0.0,0.0,0.0,0.0,0.0,0.0,-0.0,0.0,0.0,0.0,0.0,0.0,11.0,12.0,13.0,14.0,53.692
2024-04-02 23:53:34,360.0,1.5625,2.3125,-0.11420592569486036,0.0,0.0,-1.0,0.0,0.0,0.0,0.0,0.0,0.0,-0.0,0.0,0.0,0.0,0.0,0.0,11.0,12.0,13.0,14.0,53.154
2024-04-02 23:53:34,360.0,1.5625,2.3125,-0.11420592569486036,0.0,0.0,-1.0,0.0,0.0,0.0,0.0,0.0,0.0,-0.0,0.0,0.0,0.0,0.0,0.0,11.0,12.0,13.0,14.0,53.692
2024-04-02 23:53:34,360.0,1.5625,2.3125,-0.11420592569486036,0.0,0.0,0.0,0.0,0.0,0.0,0.0,0.0,0.0,-0.0,0.0,0.0,0.0,0.0,0.0,11.0,12.0,13.0,14.0,53.154
2024-04-02 23:53:34,360.0,1.5625,2.3125,-0.11420592569486036,0.0,0.0,-1.0,0.0,0.0,0.0,0.0,0.0,0.0,-0.0,0.0,0.0,0.0,0.0,0.0,11.0,12.0,13.0,14.0,53.154
2024-04-02 23:53:34,360.0,1.5625,2.3125,-0.11420592569486036,0.0,0.0,-1.0,0.0,0.0,0.0,0.0,0.0,0.0,-0.0,0.0,0.0,0.0,0.0,0.0,11.0,12.0,13.0,14.0,53.692
2024-04-02 23:53:34,360.0,1.5625,2.3125,-0.11420592569486036,0.0,0.0,205.0,0.0,0.0,0.0,0.0,0.0,0.0,-0.0,0.0,0.0,0.0,0.0,0.0,11.0,12.0,13.0,14.0,53.692
2024-04-02 23:53:34,360.0,1.5625,2.3125,-0.11420592569486036,0.0,0.0,-1.0,0.0,0.0,0.0,0.0,0.0,0.0,-0.0,0.0,0.0,0.0,0.0,0.0,11.0,12.0,13.0,14.0,53.692
2024-04-02 23:53:34,360.0,1.5625,2.3125,-0.11420592569486036,0.0,0.0,-1.0,0.0,0.0,0.0,0.0,0.0,0.0,-0.0,0.0,0.0,0.0,0.0,0.0,11.0,12.0,13.0,14.0,52.616
2024-04-02 23:53:35,360.0,1.5625,2.3125,-0.11084841472282712,0.0,0.0,-1.0,0.0,0.0,0.0,0.0,0.0,0.0,-0.0,0.0,0.0,0.0,0.0,0.0,11.0,12.0,13.0,14.0,53.692
2024-04-02 23:53:35,360.0,1.5625,2.3125,-0.11084841472282712,0.0,0.0,-1.0,0.0,0.0,0.0,0.0,0.0,0.0,-0.0,0.0,0.0,0.0,0.0,0.0,11.0,12.0,13.0,14.0,53.154
2024-04-02 23:53:35,360.0,1.5625,2.3125,-0.11084841472282712,0.0,0.0,-1.0,0.0,0.0,0.0,0.0,0.0,0.0,-0.0,0.0,0.0,0.0,0.0,0.0,11.0,12.0,13.0,14.0,53.692
2024-04-02 23:53:35,360.0,1.5625,2.3125,-0.11084841472282712,0.0,0.0,205.0,0.0,0.0,0.0,0.0,0.0,0.0,-0.0,0.0,0.0,0.0,0.0,0.0,11.0,12.0,13.0,14.0,52.616
2024-04-02 23:53:35,360.0,1.5625,2.3125,-0.11084841472282712,0.0,0.0,-1.0,0.0,0.0,0.0,0.0,0.0,0.0,-0.0,0.0,0.0,0.0,0.0,0.0,11.0,12.0,13.0,14.0,53.692
2024-04-02 23:53:35,360.0,1.5625,2.3125,-0.11084841472282712,0.0,0.0,-1.0,0.0,0.0,0.0,0.0,0.0,0.0,-0.0,0.0,0.0,0.0,0.0,0.0,11.0,12.0,13.0,14.0,53.154
2024-04-02 23:53:35,360.0,1.5625,2.3125,-0.11084841472282712,0.0,0.0,0.0,0.0,0.0,0.0,0.0,0.0,0.0,-0.0,0.0,0.0,0.0,0.0,0.0,11.0,12.0,13.0,14.0,53.154
2024-04-02 23:53:35,360.0,1.5625,2.3125,-0.11084841472282712,0.0,0.0,-1.0,0.0,0.0,0.0,0.0,0.0,0.0,-0.0,0.0,0.0,0.0,0.0,0.0,11.0,12.0,13.0,14.0,53.154
2024-04-02 23:53:35,360.0,1.5625,2.3125,-0.11084841472282712,0.0,0.0,-1.0,0.0,0.0,0.0,0.0,0.0,0.0,-0.0,0.0,0.0,0.0,0.0,0.0,11.0,12.0,13.0,14.0,53.692
2024-04-02 23:53:35,360.0,1.5625,2.3125,-0.11084841472282712,0.0,0.0,206.0,0.0,0.0,0.0,0.0,0.0,0.0,-0.0,0.0,0.0,0.0,0.0,0.0,11.0,12.0,13.0,14.0,53.154
2024-04-02 23:53:35,360.0,1.5625,2.3125,-0.11084841472282712,0.0,0.0,-1.0,0.0,0.0,0.0,0.0,0.0,0.0,-0.0,0.0,0.0,0.0,0.0,0.0,11.0,12.0,13.0,14.0,52.616
2024-04-02 23:53:35,360.0,1.5625,2.3125,-0.11084841472282712,0.0,0.0,-1.0,0.0,0.0,0.0,0.0,0.0,0.0,-0.0,0.0,0.0,0.0,0.0,0.0,11.0,12.0,13.0,14.0,53.692
2024-04-02 23:53:35,360.0,1.5625,2.3125,-0.11084841472282712,0.0,0.0,205.0,0.0,0.0,0.0,0.0,0.0,0.0,-0.0,0.0,0.0,0.0,0.0,0.0,11.0,12.0,13.0,14.0,53.692
2024-04-02 23:53:35,360.0,1.5625,2.3125,-0.10985564934134608,0.0,0.0,-1.0,0.0,0.0,0.0,0.0,0.0,0.0,-0.0,0.0,0.0,0.0,0.0,0.0,11.0,12.0,13.0,14.0,53.154
2024-04-02 23:53:36,360.0,1.5625,2.3125,-0.10985564934134608,0.0,0.0,-1.0,0.0,0.0,0.0,0.0,0.0,0.0,-0.0,0.0,0.0,0.0,0.0,0.0,11.0,12.0,13.0,14.0,53.154
2024-04-02 23:53:36,360.0,1.5625,2.3125,-0.10985564934134608,0.0,0.0,-1.0,0.0,0.0,0.0,0.0,0.0,0.0,-0.0,0.0,0.0,0.0,0.0,0.0,11.0,12.0,13.0,14.0,53.692
2024-04-02 23:53:36,360.0,1.5625,2.3125,-0.10985564934134608,0.0,0.0,-1.0,0.0,0.0,0.0,0.0,0.0,0.0,-0.0,0.0,0.0,0.0,0.0,0.0,11.0,12.0,13.0,14.0,53.692
2024-04-02 23:53:36,360.0,1.5625,2.3125,-0.10985564934134608,0.0,0.0,-1.0,0.0,0.0,0.0,0.0,0.0,0.0,-0.0,0.0,0.0,0.0,0.0,0.0,11.0,12.0,13.0,14.0,53.692
2024-04-02 23:53:36,360.0,1.5625,2.3125,-0.10985564934134608,0.0,0.0,-1.0,0.0,0.0,0.0,0.0,0.0,0.0,-0.0,0.0,0.0,0.0,0.0,0.0,11.0,12.0,13.0,14.0,53.692
2024-04-02 23:53:36,360.0,1.5625,2.3125,-0.10985564934134608,0.0,0.0,-1.0,0.0,0.0,0.0,0.0,0.0,0.0,-0.0,0.0,0.0,0.0,0.0,0.0,11.0,12.0,13.0,14.0,53.154
2024-04-02 23:53:36,360.0,1.5625,2.3125,-0.10985564934134608,0.0,0.0,206.0,0.0,0.0,0.0,0.0,0.0,0.0,-0.0,0.0,0.0,0.0,0.0,0.0,11.0,12.0,13.0,14.0,53.154
2024-04-02 23:53:36,360.0,1.5625,2.3125,-0.10985564934134608,0.0,0.0,-1.0,0.0,0.0,0.0,0.0,0.0,0.0,-0.0,0.0,0.0,0.0,0.0,0.0,11.0,12.0,13.0,14.0,53.154
2024-04-02 23:53:36,360.0,1.5625,2.3125,-0.10985564934134608,0.0,0.0,-1.0,0.0,0.0,0.0,0.0,0.0,0.0,-0.0,0.0,0.0,0.0,0.0,0.0,11.0,12.0,13.0,14.0,53.154
2024-04-02 23:53:36,360.0,1.5625,2.3125,-0.10985564934134608,0.0,0.0,-1.0,0.0,0.0,0.0,0.0,0.0,0.0,-0.0,0.0,0.0,0.0,0.0,0.0,11.0,12.0,13.0,14.0,52.616
2024-04-02 23:53:36,360.0,1.5625,2.3125,-0.10985564934134608,0.0,0.0,-1.0,0.0,0.0,0.0,0.0,0.0,0.0,-0.0,0.0,0.0,0.0,0.0,0.0,11.0,12.0,13.0,14.0,53.692
2024-04-02 23:53:36,360.0,1.5625,2.3125,-0.11247568711568424,0.0,0.0,207.0,0.0,0.0,0.0,0.0,0.0,0.0,-0.0,0.0,0.0,0.0,0.0,0.0,11.0,12.0,13.0,14.0,52.616
2024-04-02 23:53:36,360.0,1.5625,2.3125,-0.11247568711568424,0.0,0.0,-1.0,0.0,0.0,0.0,0.0,0.0,0.0,-0.0,0.0,0.0,0.0,0.0,0.0,11.0,12.0,13.0,14.0,54.23
2024-04-02 23:53:36,360.0,1.5625,2.3125,-0.11247568711568424,0.0,0.0,-1.0,0.0,0.0,0.0,0.0,0.0,0.0,-0.0,0.0,0.0,0.0,0.0,0.0,11.0,12.0,13.0,14.0,53.154
2024-04-02 23:53:37,360.0,1.5625,2.3125,-0.11247568711568424,0.0,0.0,206.0,0.0,0.0,0.0,0.0,0.0,0.0,-0.0,0.0,0.0,0.0,0.0,0.0,11.0,12.0,13.0,14.0,53.692
2024-04-02 23:53:37,360.0,1.5625,2.3125,-0.11247568711568424,0.0,0.0,-1.0,0.0,0.0,0.0,0.0,0.0,0.0,-0.0,0.0,0.0,0.0,0.0,0.0,11.0,12.0,13.0,14.0,53.692
2024-04-02 23:53:37,360.0,1.5625,2.3125,-0.11247568711568424,0.0,0.0,-1.0,0.0,0.0,0.0,0.0,0.0,0.0,-0.0,0.0,0.0,0.0,0.0,0.0,11.0,12.0,13.0,14.0,53.154
2024-04-02 23:53:37,360.0,1.5625,2.3125,-0.11247568711568424,0.0,0.0,207.0,0.0,0.0,0.0,0.0,0.0,0.0,-0.0,0.0,0.0,0.0,0.0,0.0,11.0,12.0,13.0,14.0,52.616
2024-04-02 23:53:37,360.0,1.5625,2.3125,-0.11247568711568424,0.0,0.0,-1.0,0.0,0.0,0.0,0.0,0.0,0.0,-0.0,0.0,0.0,0.0,0.0,0.0,11.0,12.0,13.0,14.0,53.692
2024-04-02 23:53:37,360.0,1.5625,2.3125,-0.11247568711568424,0.0,0.0,-1.0,0.0,0.0,0.0,0.0,0.0,0.0,-0.0,0.0,0.0,0.0,0.0,0.0,11.0,12.0,13.0,14.0,53.692
2024-04-02 23:53:37,360.0,1.5625,2.3125,-0.11247568711568424,0.0,0.0,0.0,0.0,0.0,0.0,0.0,0.0,0.0,-0.0,0.0,0.0,0.0,0.0,0.0,11.0,12.0,13.0,14.0,53.154
2024-04-02 23:53:37,360.0,1.5625,2.3125,-0.11247568711568424,0.0,0.0,-1.0,0.0,0.0,0.0,0.0,0.0,0.0,-0.0,0.0,0.0,0.0,0.0,0.0,11.0,12.0,13.0,14.0,53.692
2024-04-02 23:53:37,360.0,1.5625,2.3125,-0.11247568711568424,0.0,0.0,-1.0,0.0,0.0,0.0,0.0,0.0,0.0,-0.0,0.0,0.0,0.0,0.0,0.0,11.0,12.0,13.0,14.0,53.154
2024-04-02 23:53:37,360.0,1.5625,2.3125,-0.11247568711568424,0.0,0.0,206.0,0.0,0.0,0.0,0.0,0.0,0.0,-0.0,0.0,0.0,0.0,0.0,0.0,11.0,12.0,13.0,14.0,53.692
2024-04-02 23:53:37,360.0,1.5625,2.3125,-0.11018999230233717,0.0,0.0,-1.0,0.0,0.0,0.0,0.0,0.0,0.0,-0.0,0.0,0.0,0.0,0.0,0.0,11.0,12.0,13.0,14.0,53.154
2024-04-02 23:53:37,360.0,1.5625,2.3125,-0.11018999230233717,0.0,0.0,-1.0,0.0,0.0,0.0,0.0,0.0,0.0,-0.0,0.0,0.0,0.0,0.0,0.0,11.0,12.0,13.0,14.0,53.154
2024-04-02 23:53:37,360.0,1.5625,2.3125,-0.11018999230233717,0.0,0.0,205.0,0.0,0.0,0.0,0.0,0.0,0.0,-0.0,0.0,0.0,0.0,0.0,0.0,11.0,12.0,13.0,14.0,53.692
2024-04-02 23:53:37,360.0,1.5625,2.3125,-0.11018999230233717,0.0,0.0,-1.0,0.0,0.0,0.0,0.0,0.0,0.0,-0.0,0.0,0.0,0.0,0.0,0.0,11.0,12.0,13.0,14.0,53.692
2024-04-02 23:53:37,360.0,1.5625,2.3125,-0.11018999230233717,0.0,0.0,-1.0,0.0,0.0,0.0,0.0,0.0,0.0,-0.0,0.0,0.0,0.0,0.0,0.0,11.0,12.0,13.0,14.0,53.692
2024-04-02 23:53:38,360.0,1.5625,2.3125,-0.11018999230233717,0.0,0.0,204.0,0.0,0.0,0.0,0.0,0.0,0.0,-0.0,0.0,0.0,0.0,0.0,0.0,11.0,12.0,13.0,14.0,53.692
2024-04-02 23:53:38,360.0,1.5625,2.3125,-0.11018999230233717,0.0,0.0,-1.0,0.0,0.0,0.0,0.0,0.0,0.0,-0.0,0.0,0.0,0.0,0.0,0.0,11.0,12.0,13.0,14.0,53.692
2024-04-02 23:53:38,360.0,1.5625,2.3125,-0.11018999230233717,0.0,0.0,-1.0,0.0,0.0,0.0,0.0,0.0,0.0,-0.0,0.0,0.0,0.0,0.0,0.0,11.0,12.0,13.0,14.0,53.692
2024-04-02 23:53:38,360.0,1.5625,2.3125,-0.11018999230233717,0.0,0.0,-1.0,0.0,0.0,0.0,0.0,0.0,0.0,-0.0,0.0,0.0,0.0,0.0,0.0,11.0,12.0,13.0,14.0,53.692
2024-04-02 23:53:38,360.0,1.5625,2.3125,-0.11018999230233717,0.0,0.0,-1.0,0.0,0.0,0.0,0.0,0.0,0.0,-0.0,0.0,0.0,0.0,0.0,0.0,11.0,12.0,13.0,14.0,53.692
2024-04-02 23:53:38,360.0,1.5625,2.3125,-0.11018999230233717,0.0,0.0,-1.0,0.0,0.0,0.0,0.0,0.0,0.0,-0.0,0.0,0.0,0.0,0.0,0.0,11.0,12.0,13.0,14.0,53.154
2024-04-02 23:53:38,360.0,1.5625,2.3125,-0.11018999230233717,0.0,0.0,-1.0,0.0,0.0,0.0,0.0,0.0,0.0,-0.0,0.0,0.0,0.0,0.0,0.0,11.0,12.0,13.0,14.0,53.692
2024-04-02 23:53:38,360.0,1.5625,2.3125,-0.11018999230233717,0.0,0.0,-1.0,0.0,0.0,0.0,0.0,0.0,0.0,-0.0,0.0,0.0,0.0,0.0,0.0,11.0,12.0,13.0,14.0,53.154
2024-04-02 23:53:38,360.0,1.5625,2.3125,-0.11018999230233717,0.0,0.0,-1.0,0.0,0.0,0.0,0.0,0.0,0.0,-0.0,0.0,0.0,0.0,0.0,0.0,11.0,12.0,13.0,14.0,53.154
2024-04-02 23:53:38,360.0,1.5625,2.3125,-0.11133581666878466,0.0,0.0,0.0,0.0,0.0,0.0,0.0,0.0,0.0,-0.0,0.0,0.0,0.0,0.0,0.0,11.0,12.0,13.0,14.0,54.23
2024-04-02 23:53:38,360.0,1.5625,2.3125,-0.11133581666878466,0.0,0.0,-1.0,0.0,0.0,-0.26246951219512193,-0.26246951219512193,0.26246951219512193,0.26246951219512193,-0.0,0.0,0.0,0.0,0.0,0.0,11.0,12.0,13.0,14.0,53.692
2024-04-02 23:53:38,360.0,1.5625,2.3125,-0.11133581666878466,0.0,0.0,-1.0,0.0,0.0,-1.0,-0.8618902439024391,0.8618902439024391,1.0,-0.0,0.0,0.0,0.0,0.0,0.0,11.0,12.0,13.0,14.0,53.692
2024-04-02 23:53:38,360.0,1.5625,2.3125,-0.11133581666878466,0.0,0.0,-1.0,0.0,0.0,-1.0,-0.8540548780487806,0.8540548780487806,1.0,-0.0,0.0,0.0,0.0,0.0,0.0,11.0,12.0,13.0,14.0,53.692
2024-04-02 23:53:38,360.0,1.5625,2.3125,-0.11133581666878466,0.0,0.0,-1.0,0.0,0.0,-1.0,-0.9010670731707318,0.9010670731707318,1.0,-0.0,0.0,0.0,0.0,0.0,0.0,11.0,12.0,13.0,14.0,53.692
2024-04-02 23:53:39,360.0,1.5625,2.3125,-0.11133581666878466,0.0,0.0,212.0,0.0,0.0,0.0,0.0,0.0,0.0,-0.0,0.0,0.0,0.0,0.0,0.0,11.0,12.0,13.0,14.0,53.692
2024-04-02 23:53:39,360.0,1.5625,2.3125,-0.11133581666878466,0.0,0.0,-1.0,0.0,0.0,0.0,0.0,0.0,0.0,-0.0,0.0,0.0,0.0,0.0,0.0,11.0,12.0,13.0,14.0,53.692
2024-04-02 23:53:39,360.0,1.5625,2.3125,-0.11133581666878466,0.0,0.0,-1.0,0.0,0.0,0.0,0.0,0.0,0.0,-0.0,0.0,0.0,0.0,0.0,0.0,11.0,12.0,13.0,14.0,52.616
2024-04-02 23:53:39,360.0,1.5625,2.3125,-0.11133581666878466,0.0,0.0,-1.0,0.0,0.0,0.0,0.0,0.0,0.0,-0.0,0.0,0.0,0.0,0.0,0.0,11.0,12.0,13.0,14.0,53.154
2024-04-02 23:53:39,360.0,1.5625,2.3125,-0.11133581666878466,0.0,0.0,-1.0,0.0,0.0,0.8892987804878049,0.8892987804878049,-0.8892987804878049,-0.8892987804878049,-0.0,0.0,0.0,0.0,0.0,0.0,11.0,12.0,13.0,14.0,53.692
2024-04-02 23:53:39,360.0,1.5625,2.3125,-0.11133581666878466,0.0,0.0,204.0,0.0,0.0,0.9989939024390244,0.9989939024390244,-0.9989939024390244,-0.9989939024390244,-0.0,0.0,0.0,0.0,0.0,0.0,11.0,12.0,13.0,14.0,53.154
2024-04-02 23:53:39,360.0,1.5625,2.3125,-0.11133581666878466,0.0,0.0,-1.0,0.0,0.0,0.9363109756097561,0.9363109756097561,-0.9363109756097561,-0.9363109756097561,-0.0,0.0,0.0,0.0,0.0,0.0,11.0,12.0,13.0,14.0,53.154
2024-04-02 23:53:39,360.0,1.5625,2.3125,-0.11133581666878466,0.0,0.0,-1.0,0.0,0.0,0.0,0.0,0.0,0.0,-0.0,0.0,0.0,0.0,0.0,0.0,11.0,12.0,13.0,14.0,53.692
2024-04-02 23:53:39,360.0,1.5625,2.3125,-0.11133581666878466,0.0,0.0,220.0,0.0,0.0,0.0,0.0,0.0,0.0,-0.0,0.0,0.0,0.0,0.0,0.0,11.0,12.0,13.0,14.0,53.692
2024-04-02 23:53:39,360.0,1.5625,2.3125,-0.11198948766677079,0.0,0.0,-1.0,0.0,0.0,0.0,0.0,0.0,0.0,-0.0,0.0,0.0,0.0,0.0,0.0,11.0,12.0,13.0,14.0,53.692
2024-04-02 23:53:39,360.0,1.5625,2.3125,-0.11198948766677079,0.0,0.0,-1.0,0.0,0.0,0.0,0.0,0.0,0.0,-0.0,0.0,0.0,0.0,0.0,0.0,11.0,12.0,13.0,14.0,53.692
2024-04-02 23:53:39,360.0,1.5625,2.3125,-0.11198948766677079,0.0,0.0,204.0,0.0,0.0,0.0,0.0,0.0,0.0,-0.0,0.0,0.0,0.0,0.0,0.0,11.0,12.0,13.0,14.0,53.692
2024-04-02 23:53:39,360.0,1.5625,2.3125,-0.11198948766677079,0.0,0.0,-1.0,0.0,0.0,0.0,0.0,0.0,0.0,-0.0,0.0,0.0,0.0,0.0,0.0,11.0,12.0,13.0,14.0,53.154
2024-04-02 23:53:39,360.0,1.5625,2.3125,-0.11198948766677079,0.0,0.0,-1.0,0.0,0.0,0.0,0.0,0.0,0.0,-0.0,0.0,0.0,0.0,0.0,0.0,11.0,12.0,13.0,14.0,53.154
2024-04-02 23:53:40,360.0,1.5625,2.3125,-0.11198948766677079,0.0,0.0,204.0,0.0,0.0,0.0,0.0,0.0,0.0,-0.0,0.0,0.0,0.0,0.0,0.0,11.0,12.0,13.0,14.0,52.616
2024-04-02 23:53:40,360.0,1.5625,2.3125,-0.11198948766677079,0.0,0.0,-1.0,0.0,0.0,0.0,0.0,0.0,0.0,-0.0,0.0,0.0,0.0,0.0,0.0,11.0,12.0,13.0,14.0,53.692
2024-04-02 23:53:40,360.0,1.5625,2.3125,-0.11198948766677079,0.0,0.0,-1.0,0.0,0.0,0.0,0.0,0.0,0.0,-0.0,0.0,0.0,0.0,0.0,0.0,11.0,12.0,13.0,14.0,53.692
2024-04-02 23:53:40,360.0,1.5625,2.3125,-0.11198948766677079,0.0,0.0,-1.0,0.0,0.0,0.19195121951219513,-0.19195121951219513,-0.19195121951219513,0.19195121951219513,0.5680487804878048,0.5680487804878048,0.0,0.0,0.0,0.0,11.0,12.0,13.0,14.0,53.154
2024-04-02 23:53:40,360.0,1.5625,2.3125,-0.11198948766677079,0.0,0.0,-1.0,0.0,0.0,0.3878353658536585,-0.3878353658536585,-0.3878353658536585,0.3878353658536585,0.9989939024390244,0.9989939024390244,0.0,0.0,0.0,0.0,11.0,12.0,13.0,14.0,53.154
2024-04-02 23:53:40,360.0,1.5625,2.3125,-0.11198948766677079,0.0,0.0,0.0,0.0,0.0,0.3878353658536585,-0.3878353658536585,-0.3878353658536585,0.3878353658536585,0.9989939024390244,0.9989939024390244,0.0,0.0,0.0,0.0,11.0,12.0,13.0,14.0,52.616
2024-04-02 23:53:40,0.0,1.5625,2.3125,-0.11198948766677079,0.0,0.0,-1.0,0.0,0.0,0.23896341463414633,-0.23896341463414633,-0.23896341463414633,0.23896341463414633,0.9989939024390244,0.9989939024390244,0.0,0.0,0.0,0.0,11.0,12.0,13.0,14.0,53.692
2024-04-02 23:53:40,0.0,1.5625,2.3125,-0.11198948766677079,0.0,0.0,-1.0,0.0,0.0,0.16844512195121952,-0.16844512195121952,-0.16844512195121952,0.16844512195121952,0.2938109756097561,0.2938109756097561,0.0,0.0,0.0,0.0,11.0,12.0,13.0,14.0,53.692
2024-04-02 23:53:40,0.0,1.5625,2.3125,-0.11194514789925944,0.0,0.0,0.0,0.0,0.0,0.0,0.0,0.0,0.0,-0.0,0.0,0.0,0.0,0.0,0.0,11.0,12.0,13.0,14.0,53.692
2024-04-02 23:53:40,360.0,1.5625,2.3125,-0.11194514789925944,0.0,0.0,-1.0,0.0,0.0,0.0,0.0,0.0,0.0,-0.0,0.0,0.0,0.0,0.0,0.0,11.0,12.0,13.0,14.0,53.692
2024-04-02 23:53:40,360.0,1.5625,2.3125,-0.11194514789925944,0.0,0.0,-1.0,0.0,0.0,0.0,0.0,0.0,0.0,-0.09009146341463414,-0.09009146341463414,0.0,0.0,0.0,0.0,11.0,12.0,13.0,14.0,53.692
2024-04-02 23:53:40,360.0,1.5625,2.3125,-0.11194514789925944,0.0,0.0,202.0,0.0,0.0,0.0,0.0,0.0,0.0,-0.9989939024390244,-0.9989939024390244,0.0,0.0,0.0,0.0,11.0,12.0,13.0,14.0,53.692
2024-04-02 23:53:40,360.0,1.5625,2.3125,-0.11194514789925944,0.0,0.0,-1.0,0.0,0.0,0.0,0.0,0.0,0.0,-0.9989939024390244,-0.9989939024390244,0.0,0.0,0.0,0.0,11.0,12.0,13.0,14.0,53.692
2024-04-02 23:53:40,0.0,1.5625,2.3125,-0.11194514789925944,0.0,0.0,-1.0,0.0,0.0,0.0,0.0,0.0,0.0,-0.9989939024390244,-0.9989939024390244,0.0,0.0,0.0,0.0,11.0,12.0,13.0,14.0,53.692
2024-04-02 23:53:41,0.0,1.5625,2.3125,-0.11194514789925944,0.0,0.0,202.0,0.0,0.0,-0.05091463414634146,0.05091463414634146,0.05091463414634146,-0.05091463414634146,-0.9989939024390244,-0.9989939024390244,0.0,0.0,0.0,0.0,11.0,12.0,13.0,14.0,53.692
2024-04-02 23:53:41,0.0,1.5625,2.3125,-0.11194514789925944,0.0,0.0,-1.0,0.0,0.0,0.0,0.0,0.0,0.0,-0.15277439024390244,-0.15277439024390244,0.0,0.0,0.0,0.0,11.0,12.0,13.0,14.0,53.692
2024-04-02 23:53:41,0.0,1.5625,2.3125,-0.11194514789925944,0.0,0.0,-1.0,0.0,0.0,0.0,0.0,0.0,0.0,-0.0,0.0,0.0,0.0,0.0,0.0,11.0,12.0,13.0,14.0,53.692
2024-04-02 23:53:41,359.9375,1.5625,2.3125,-0.11194514789925944,0.0,0.0,0.0,0.0,0.0,0.0,0.0,0.0,0.0,-0.0,0.0,0.0,0.0,0.0,0.0,11.0,12.0,13.0,14.0,53.692
2024-04-02 23:53:41,359.9375,1.5625,2.3125,-0.11194514789925944,0.0,0.0,-1.0,0.0,0.0,0.0,0.0,0.0,0.0,-0.0,0.0,0.0,0.0,0.0,0.0,11.0,12.0,13.0,14.0,53.692
2024-04-02 23:53:41,359.9375,1.5625,2.3125,-0.11194514789925944,0.0,0.0,203.0,0.0,0.0,0.0,0.0,0.0,0.0,-0.0,0.0,0.0,0.0,0.0,0.0,11.0,12.0,13.0,14.0,53.692
2024-04-02 23:53:41,359.9375,1.5625,2.3125,-0.1117791341406222,0.0,0.0,-1.0,0.0,0.0,0.0,0.0,0.0,0.0,-0.0,0.0,0.0,0.0,0.0,0.0,11.0,12.0,13.0,14.0,54.23
2024-04-02 23:53:41,359.9375,1.5625,2.3125,-0.1117791341406222,0.0,0.0,-1.0,0.0,0.0,0.0,0.0,0.0,0.0,-0.0,0.0,0.0,0.0,0.0,0.0,11.0,12.0,13.0,14.0,53.154
2024-04-02 23:53:41,359.9375,1.5625,2.3125,-0.1117791341406222,0.0,0.0,204.0,0.0,0.0,0.0,0.0,0.0,0.0,-0.0,0.0,0.0,0.0,0.0,0.0,11.0,12.0,13.0,14.0,53.692
2024-04-02 23:53:41,359.9375,1.5625,2.3125,-0.1117791341406222,0.0,0.0,-1.0,0.0,0.0,0.0,0.0,0.0,0.0,-0.0,0.0,0.0,0.0,0.0,0.0,11.0,12.0,13.0,14.0,53.692
2024-04-02 23:53:41,359.9375,1.5625,2.3125,-0.1117791341406222,0.0,0.0,-1.0,0.0,0.0,0.0,0.0,0.0,0.0,-0.0,0.0,0.0,0.0,0.0,0.0,11.0,12.0,13.0,14.0,53.692
2024-04-02 23:53:41,359.9375,1.5625,2.3125,-0.1117791341406222,0.0,0.0,203.0,0.0,0.0,0.0,0.0,0.0,0.0,-0.0,0.0,0.0,0.0,0.0,0.0,11.0,12.0,13.0,14.0,53.692
2024-04-02 23:53:41,359.9375,1.5625,2.3125,-0.1117791341406222,0.0,0.0,-1.0,0.0,0.0,0.0,0.0,0.0,0.0,-0.0,0.0,0.0,0.0,0.0,0.0,11.0,12.0,13.0,14.0,53.692
2024-04-02 23:53:41,359.9375,1.5625,2.3125,-0.1117791341406222,0.0,0.0,-1.0,0.0,0.0,0.0,0.0,0.0,0.0,-0.0,0.0,0.0,0.0,0.0,0.0,11.0,12.0,13.0,14.0,53.692
2024-04-02 23:53:42,359.9375,1.5625,2.3125,-0.1117791341406222,0.0,0.0,0.0,0.0,0.0,0.0,0.0,0.0,0.0,-0.0,0.0,0.0,0.0,0.0,0.0,11.0,12.0,13.0,14.0,53.692
2024-04-02 23:53:42,359.9375,1.5625,2.3125,-0.1117791341406222,0.0,0.0,-1.0,0.0,0.0,0.0,0.0,0.0,0.0,-0.0,0.0,0.0,0.0,0.0,0.0,11.0,12.0,13.0,14.0,53.692
2024-04-02 23:53:42,359.9375,1.5625,2.3125,-0.1117791341406222,0.0,0.0,-1.0,0.0,0.0,0.0,0.0,0.0,0.0,-0.0,0.0,0.0,0.0,0.0,0.0,11.0,12.0,13.0,14.0,53.692
2024-04-02 23:53:42,359.9375,1.5625,2.3125,-0.11015215581919056,0.0,0.0,202.0,0.0,0.0,0.0,0.0,0.0,0.0,-0.0,0.0,0.0,0.0,0.0,0.0,11.0,12.0,13.0,14.0,53.692
2024-04-02 23:53:42,359.9375,1.5625,2.3125,-0.11015215581919056,0.0,0.0,-1.0,0.0,0.0,0.0,0.0,0.0,0.0,-0.0,0.0,0.0,0.0,0.0,0.0,11.0,12.0,13.0,14.0,53.692
2024-04-02 23:53:42,359.9375,1.5625,2.3125,-0.11015215581919056,0.0,0.0,-1.0,0.0,0.0,0.0,0.0,0.0,0.0,-0.0,0.0,0.0,0.0,0.0,0.0,11.0,12.0,13.0,14.0,53.692
2024-04-02 23:53:42,359.9375,1.5625,2.3125,-0.11015215581919056,0.0,0.0,-1.0,0.0,0.0,0.0,0.0,0.0,0.0,-0.0,0.0,0.0,0.0,0.0,0.0,11.0,12.0,13.0,14.0,53.692
2024-04-02 23:53:42,359.9375,1.5625,2.3125,-0.11015215581919056,0.0,0.0,-1.0,0.0,0.0,0.0,0.0,0.0,0.0,-0.0,0.0,0.0,0.0,0.0,0.0,11.0,12.0,13.0,14.0,53.692
2024-04-02 23:53:42,359.9375,1.5625,2.3125,-0.11015215581919056,0.0,0.0,203.0,0.0,0.0,0.0,0.0,0.0,0.0,-0.0,0.0,0.0,0.0,0.0,0.0,11.0,12.0,13.0,14.0,53.692
2024-04-02 23:53:42,359.9375,1.5625,2.3125,-0.11015215581919056,0.0,0.0,-1.0,0.0,0.0,0.0,0.0,0.0,0.0,-0.0,0.0,0.0,0.0,0.0,0.0,11.0,12.0,13.0,14.0,53.692
2024-04-02 23:53:42,359.9375,1.5625,2.3125,-0.11015215581919056,0.0,0.0,203.0,0.0,0.0,0.0,0.0,0.0,0.0,-0.0,0.0,0.0,0.0,0.0,0.0,11.0,12.0,13.0,14.0,53.692
2024-04-02 23:53:42,359.9375,1.5625,2.3125,-0.11015215581919056,0.0,0.0,-1.0,0.0,0.0,0.0,0.0,0.0,0.0,-0.0,0.0,0.0,0.0,0.0,0.0,11.0,12.0,13.0,14.0,53.692
2024-04-02 23:53:42,359.9375,1.5625,2.3125,-0.11015215581919056,0.0,0.0,-1.0,0.0,0.0,0.0,0.0,0.0,0.0,-0.0,0.0,0.0,0.0,0.0,0.0,11.0,12.0,13.0,14.0,53.692
2024-04-02 23:53:43,359.9375,1.5625,2.3125,-0.11015215581919056,0.0,0.0,204.0,0.0,0.0,0.0,0.0,0.0,0.0,-0.0,0.0,0.0,0.0,0.0,0.0,11.0,12.0,13.0,14.0,52.616
2024-04-02 23:53:43,359.9375,1.5625,2.3125,-0.11015215581919056,0.0,0.0,-1.0,0.0,0.0,0.0,0.0,0.0,0.0,-0.0,0.0,0.0,0.0,0.0,0.0,11.0,12.0,13.0,14.0,53.692
2024-04-02 23:53:43,359.9375,1.5625,2.3125,-0.11015215581919056,0.0,0.0,-1.0,0.0,0.0,0.0,0.0,0.0,0.0,-0.0,0.0,0.0,0.0,0.0,0.0,11.0,12.0,13.0,14.0,53.154
2024-04-02 23:53:43,359.9375,1.5625,2.3125,-0.10963045586424129,0.0,0.0,-1.0,0.0,0.0,0.0,0.0,0.0,0.0,-0.0,0.0,0.0,0.0,0.0,0.0,11.0,12.0,13.0,14.0,53.692
2024-04-02 23:53:43,359.9375,1.5625,2.3125,-0.10963045586424129,0.0,0.0,-1.0,0.0,0.0,0.0,0.0,0.0,0.0,-0.0,0.0,0.0,0.0,0.0,0.0,11.0,12.0,13.0,14.0,53.692
2024-04-02 23:53:43,359.9375,1.5625,2.3125,-0.10963045586424129,0.0,0.0,203.0,0.0,0.0,0.0,0.0,0.0,0.0,-0.0,0.0,0.0,0.0,0.0,0.0,11.0,12.0,13.0,14.0,53.692
2024-04-02 23:53:43,359.9375,1.5625,2.3125,-0.10963045586424129,0.0,0.0,-1.0,0.0,0.0,0.0,0.0,0.0,0.0,-0.0,0.0,0.0,0.0,0.0,0.0,11.0,12.0,13.0,14.0,53.692
2024-04-02 23:53:43,359.9375,1.5625,2.3125,-0.10963045586424129,0.0,0.0,-1.0,0.0,0.0,0.0,0.0,0.0,0.0,-0.0,0.0,0.0,0.0,0.0,0.0,11.0,12.0,13.0,14.0,54.23
2024-04-02 23:53:43,359.9375,1.5625,2.3125,-0.10963045586424129,0.0,0.0,203.0,0.0,0.0,0.0,0.0,0.0,0.0,-0.0,0.0,0.0,0.0,0.0,0.0,11.0,12.0,13.0,14.0,53.154
2024-04-02 23:53:43,359.9375,1.5625,2.3125,-0.10963045586424129,0.0,0.0,-1.0,0.0,0.0,0.0,0.0,0.0,0.0,-0.0,0.0,0.0,0.0,0.0,0.0,11.0,12.0,13.0,14.0,53.692
2024-04-02 23:53:43,359.9375,1.5625,2.3125,-0.10963045586424129,0.0,0.0,-1.0,0.0,0.0,0.0,0.0,0.0,0.0,-0.0,0.0,0.0,0.0,0.0,0.0,11.0,12.0,13.0,14.0,53.692
2024-04-02 23:53:43,367.9375,1.5625,2.3125,-0.10963045586424129,0.0,0.0,203.0,0.0,0.0,0.0,0.0,0.0,0.0,-0.0,0.0,0.0,0.0,0.0,0.0,11.0,12.0,13.0,14.0,53.692
2024-04-02 23:53:43,359.9375,1.5625,2.3125,-0.10963045586424129,0.0,0.0,-1.0,0.0,0.0,0.0,0.0,0.0,0.0,-0.0,0.0,0.0,0.0,0.0,0.0,11.0,12.0,13.0,14.0,54.23
2024-04-02 23:53:44,359.9375,1.5625,2.3125,-0.10963045586424129,0.0,0.0,-1.0,0.0,0.0,0.0,0.0,0.0,0.0,-0.0,0.0,0.0,0.0,0.0,0.0,11.0,12.0,13.0,14.0,53.692
2024-04-02 23:53:44,359.9375,1.5625,2.3125,-0.10963045586424129,0.0,0.0,-1.0,0.0,0.0,0.0,0.0,0.0,0.0,-0.0,0.0,0.0,0.0,0.0,0.0,11.0,12.0,13.0,14.0,53.692
2024-04-02 23:53:44,359.9375,1.5625,2.3125,-0.10963045586424129,0.0,0.0,-1.0,0.0,0.0,0.0,0.0,0.0,0.0,-0.0,0.0,0.0,0.0,0.0,0.0,11.0,12.0,13.0,14.0,53.692
2024-04-02 23:53:44,359.9375,1.5625,2.3125,-0.11008098895696547,0.0,0.0,204.0,0.0,0.0,0.0,0.0,0.0,0.0,-0.0,0.0,0.0,0.0,0.0,0.0,11.0,12.0,13.0,14.0,53.692
2024-04-02 23:53:44,359.9375,1.5625,2.3125,-0.11008098895696547,0.0,0.0,-1.0,0.0,0.0,0.0,0.0,0.0,0.0,-0.0,0.0,0.0,0.0,0.0,0.0,11.0,12.0,13.0,14.0,53.692
2024-04-02 23:53:44,359.9375,1.5625,2.3125,-0.11008098895696547,0.0,0.0,-1.0,0.0,0.0,0.0,0.0,0.0,0.0,-0.0,0.0,0.0,0.0,0.0,0.0,11.0,12.0,13.0,14.0,53.692
2024-04-02 23:53:44,359.9375,1.5625,2.3125,-0.11008098895696547,0.0,0.0,-1.0,0.0,0.0,0.0,0.0,0.0,0.0,-0.0,0.0,0.0,0.0,0.0,0.0,11.0,12.0,13.0,14.0,53.692
2024-04-02 23:53:44,359.9375,1.5625,2.3125,-0.11008098895696547,0.0,0.0,-1.0,0.0,0.0,0.0,0.0,0.0,0.0,-0.0,0.0,0.0,0.0,0.0,0.0,11.0,12.0,13.0,14.0,53.692
2024-04-02 23:53:44,359.9375,1.5625,2.3125,-0.11008098895696547,0.0,0.0,-1.0,0.0,0.0,0.0,0.0,0.0,0.0,-0.0,0.0,0.0,0.0,0.0,0.0,11.0,12.0,13.0,14.0,53.692
2024-04-02 23:53:44,359.9375,1.5625,2.3125,-0.11008098895696547,0.0,0.0,-1.0,0.0,0.0,0.0,0.0,0.0,0.0,-0.0,0.0,0.0,0.0,0.0,0.0,11.0,12.0,13.0,14.0,53.692
2024-04-02 23:53:44,359.9375,1.5625,2.3125,-0.11008098895696547,0.0,0.0,-1.0,0.0,0.0,0.0,0.0,0.0,0.0,-0.0,0.0,0.0,0.0,0.0,0.0,11.0,12.0,13.0,14.0,53.692
2024-04-02 23:53:44,359.9375,1.5625,2.3125,-0.11008098895696547,0.0,0.0,-1.0,0.0,0.0,0.0,0.0,0.0,0.0,-0.0,0.0,0.0,0.0,0.0,0.0,11.0,12.0,13.0,14.0,53.692
2024-04-02 23:53:44,359.9375,1.5625,2.3125,-0.11008098895696547,0.0,0.0,-1.0,0.0,0.0,0.0,0.0,0.0,0.0,-0.0,0.0,0.0,0.0,0.0,0.0,11.0,12.0,13.0,14.0,53.692
2024-04-02 23:53:44,359.9375,1.5625,2.3125,-0.11008098895696547,0.0,0.0,203.0,0.0,0.0,0.0,0.0,0.0,0.0,-0.0,0.0,0.0,0.0,0.0,0.0,11.0,12.0,13.0,14.0,53.692
2024-04-02 23:53:45,359.9375,1.5625,2.3125,-0.11008098895696547,0.0,0.0,-1.0,0.0,0.0,0.0,0.0,0.0,0.0,-0.0,0.0,0.0,0.0,0.0,0.0,11.0,12.0,13.0,14.0,53.692
2024-04-02 23:53:45,359.9375,1.5625,2.3125,-0.11042369717611326,0.0,0.0,-1.0,0.0,0.0,0.0,0.0,0.0,0.0,-0.0,0.0,0.0,0.0,0.0,0.0,11.0,12.0,13.0,14.0,53.692
2024-04-02 23:53:45,359.9375,1.5625,2.3125,-0.11042369717611326,0.0,0.0,-1.0,0.0,0.0,0.0,0.0,0.0,0.0,-0.0,0.0,0.0,0.0,0.0,0.0,11.0,12.0,13.0,14.0,53.692
2024-04-02 23:53:45,359.9375,1.5625,2.3125,-0.11042369717611326,0.0,0.0,-1.0,0.0,0.0,0.0,0.0,0.0,0.0,-0.0,0.0,0.0,0.0,0.0,0.0,11.0,12.0,13.0,14.0,53.692
2024-04-02 23:53:45,359.9375,1.5625,2.3125,-0.11042369717611326,0.0,0.0,-1.0,0.0,0.0,0.0,0.0,0.0,0.0,-0.0,0.0,0.0,0.0,0.0,0.0,11.0,12.0,13.0,14.0,53.692
2024-04-02 23:53:45,359.9375,1.5625,2.3125,-0.11042369717611326,0.0,0.0,-1.0,0.0,0.0,0.0,0.0,0.0,0.0,-0.0,0.0,0.0,0.0,0.0,0.0,11.0,12.0,13.0,14.0,53.692
2024-04-02 23:53:45,359.9375,1.5625,2.3125,-0.11042369717611326,0.0,0.0,-1.0,0.0,0.0,0.0,0.0,0.0,0.0,-0.0,0.0,0.0,0.0,0.0,0.0,11.0,12.0,13.0,14.0,53.692
2024-04-02 23:53:45,359.9375,1.5625,2.3125,-0.11042369717611326,0.0,0.0,-1.0,0.0,0.0,0.0,0.0,0.0,0.0,-0.0,0.0,0.0,0.0,0.0,0.0,11.0,12.0,13.0,14.0,53.692
2024-04-02 23:53:45,359.9375,1.5625,2.3125,-0.11042369717611326,0.0,0.0,-1.0,0.0,0.0,0.0,0.0,0.0,0.0,-0.0,0.0,0.0,0.0,0.0,0.0,11.0,12.0,13.0,14.0,53.692
2024-04-02 23:53:45,359.9375,1.5625,2.3125,-0.11042369717611326,0.0,0.0,-1.0,0.0,0.0,0.0,0.0,0.0,0.0,-0.0,0.0,0.0,0.0,0.0,0.0,11.0,12.0,13.0,14.0,53.692
2024-04-02 23:53:45,359.9375,1.5625,2.3125,-0.11042369717611326,0.0,0.0,-1.0,0.0,0.0,0.0,0.0,0.0,0.0,-0.0,0.0,0.0,0.0,0.0,0.0,11.0,12.0,13.0,14.0,53.692
2024-04-02 23:53:45,359.9375,1.5625,2.3125,-0.11042369717611326,0.0,0.0,-1.0,0.0,0.0,0.0,0.0,0.0,0.0,-0.0,0.0,0.0,0.0,0.0,0.0,11.0,12.0,13.0,14.0,53.692
2024-04-02 23:53:45,359.9375,1.5625,2.3125,-0.11042369717611326,0.0,0.0,-1.0,0.0,0.0,0.0,0.0,0.0,0.0,-0.0,0.0,0.0,0.0,0.0,0.0,11.0,12.0,13.0,14.0,53.692
2024-04-02 23:53:45,359.9375,1.5625,2.3125,-0.109125684557918,0.0,0.0,-1.0,0.0,0.0,0.0,0.0,0.0,0.0,-0.0,0.0,0.0,0.0,0.0,0.0,11.0,12.0,13.0,14.0,54.23
2024-04-02 23:53:45,359.9375,1.5625,2.3125,-0.109125684557918,0.0,0.0,-1.0,0.0,0.0,0.0,0.0,0.0,0.0,-0.0,0.0,0.0,0.0,0.0,0.0,11.0,12.0,13.0,14.0,53.692
2024-04-02 23:53:46,359.9375,1.5625,2.3125,-0.109125684557918,0.0,0.0,-1.0,0.0,0.0,0.0,0.0,0.0,0.0,-0.0,0.0,0.0,0.0,0.0,0.0,11.0,12.0,13.0,14.0,53.692
2024-04-02 23:53:46,359.9375,1.5625,2.3125,-0.109125684557918,0.0,0.0,0.0,0.0,0.0,0.0,0.0,0.0,0.0,-0.0,0.0,0.0,0.0,0.0,0.0,11.0,12.0,13.0,14.0,54.23
2024-04-02 23:53:46,359.9375,1.5625,2.3125,-0.109125684557918,0.0,0.0,-1.0,0.0,0.0,0.0,0.0,0.0,0.0,-0.0,0.0,0.0,0.0,0.0,0.0,11.0,12.0,13.0,14.0,53.692
2024-04-02 23:53:46,359.9375,1.5625,2.3125,-0.109125684557918,0.0,0.0,-1.0,0.0,0.0,0.0,0.0,0.0,0.0,-0.0,0.0,0.0,0.0,0.0,0.0,11.0,12.0,13.0,14.0,53.692
2024-04-02 23:53:46,359.9375,1.5625,2.3125,-0.109125684557918,0.0,0.0,203.0,0.0,0.0,0.0,0.0,0.0,0.0,-0.0,0.0,0.0,0.0,0.0,0.0,11.0,12.0,13.0,14.0,53.692
2024-04-02 23:53:46,359.9375,1.5625,2.3125,-0.109125684557918,0.0,0.0,-1.0,0.0,0.0,0.0,0.0,0.0,0.0,-0.0,0.0,0.0,0.0,0.0,0.0,11.0,12.0,13.0,14.0,53.692
2024-04-02 23:53:46,359.9375,1.5625,2.3125,-0.109125684557918,0.0,0.0,-1.0,0.0,0.0,0.0,0.0,0.0,0.0,-0.0,0.0,0.0,0.0,0.0,0.0,11.0,12.0,13.0,14.0,53.692
2024-04-02 23:53:46,359.9375,1.5625,2.3125,-0.109125684557918,0.0,0.0,206.0,0.0,0.0,0.0,0.0,0.0,0.0,-0.0,0.0,0.0,0.0,0.0,0.0,11.0,12.0,13.0,14.0,53.692
2024-04-02 23:53:46,359.9375,1.5625,2.3125,-0.109125684557918,0.0,0.0,-1.0,0.0,0.0,0.0,0.0,0.0,0.0,-0.0,0.0,0.0,0.0,0.0,0.0,11.0,12.0,13.0,14.0,53.692
2024-04-02 23:53:46,359.9375,1.5625,2.3125,-0.11014997013005641,0.0,0.0,203.0,0.0,0.0,0.0,0.0,0.0,0.0,-0.0,0.0,0.0,0.0,0.0,0.0,11.0,12.0,13.0,14.0,53.692
2024-04-02 23:53:46,359.9375,1.5625,2.3125,-0.11014997013005641,0.0,0.0,-1.0,0.0,0.0,0.0,0.0,0.0,0.0,-0.0,0.0,0.0,0.0,0.0,0.0,11.0,12.0,13.0,14.0,53.692
2024-04-02 23:53:46,359.9375,1.5625,2.3125,-0.11014997013005641,0.0,0.0,-1.0,0.0,0.0,0.0,0.0,0.0,0.0,-0.0,0.0,0.0,0.0,0.0,0.0,11.0,12.0,13.0,14.0,53.692
2024-04-02 23:53:46,359.9375,1.5625,2.3125,-0.11014997013005641,0.0,0.0,203.0,0.0,0.0,0.0,0.0,0.0,0.0,-0.0,0.0,0.0,0.0,0.0,0.0,11.0,12.0,13.0,14.0,53.692
2024-04-02 23:53:47,359.9375,1.5625,2.3125,-0.11014997013005641,0.0,0.0,-1.0,0.0,0.0,0.0,0.0,0.0,0.0,-0.0,0.0,0.0,0.0,0.0,0.0,11.0,12.0,13.0,14.0,53.692
2024-04-02 23:53:47,359.9375,1.5625,2.3125,-0.11014997013005641,0.0,0.0,-1.0,0.0,0.0,0.0,0.0,0.0,0.0,-0.0,0.0,0.0,0.0,0.0,0.0,11.0,12.0,13.0,14.0,53.692
2024-04-02 23:53:47,359.9375,1.5625,2.3125,-0.11014997013005641,0.0,0.0,204.0,0.0,0.0,0.0,0.0,0.0,0.0,-0.0,0.0,0.0,0.0,0.0,0.0,11.0,12.0,13.0,14.0,53.692
2024-04-02 23:53:47,359.9375,1.5625,2.3125,-0.11014997013005641,0.0,0.0,-1.0,0.0,0.0,0.0,0.0,0.0,0.0,-0.0,0.0,0.0,0.0,0.0,0.0,11.0,12.0,13.0,14.0,53.692
2024-04-02 23:53:47,359.9375,1.5625,2.3125,-0.11014997013005641,0.0,0.0,-1.0,0.0,0.0,0.0,0.0,0.0,0.0,-0.0,0.0,0.0,0.0,0.0,0.0,11.0,12.0,13.0,14.0,53.154
2024-04-02 23:53:47,359.9375,1.5625,2.3125,-0.11014997013005641,0.0,0.0,-1.0,0.0,0.0,0.0,0.0,0.0,0.0,-0.0,0.0,0.0,0.0,0.0,0.0,11.0,12.0,13.0,14.0,53.692
2024-04-02 23:53:47,359.9375,1.5625,2.3125,-0.11014997013005641,0.0,0.0,-1.0,0.0,0.0,0.0,0.0,0.0,0.0,-0.0,0.0,0.0,0.0,0.0,0.0,11.0,12.0,13.0,14.0,53.692
2024-04-02 23:53:47,359.9375,1.5625,2.3125,-0.11014997013005641,0.0,0.0,-1.0,0.0,0.0,0.0,0.0,0.0,0.0,-0.0,0.0,0.0,0.0,0.0,0.0,11.0,12.0,13.0,14.0,53.692
2024-04-02 23:53:47,359.9375,1.5625,2.3125,-0.10696997147469244,0.0,0.0,0.0,0.0,0.0,0.0,0.0,0.0,0.0,-0.0,0.0,0.0,0.0,0.0,0.0,11.0,12.0,13.0,14.0,53.692
2024-04-02 23:53:47,359.9375,1.5625,2.3125,-0.10696997147469244,0.0,0.0,-1.0,0.0,0.0,0.0,0.0,0.0,0.0,-0.0,0.0,0.0,0.0,0.0,0.0,11.0,12.0,13.0,14.0,53.692
2024-04-02 23:53:47,359.9375,1.5625,2.3125,-0.10696997147469244,0.0,0.0,-1.0,0.0,0.0,0.0,0.0,0.0,0.0,-0.0,0.0,0.0,0.0,0.0,0.0,11.0,12.0,13.0,14.0,53.692
2024-04-02 23:53:47,359.9375,1.5625,2.3125,-0.10696997147469244,0.0,0.0,-1.0,0.0,0.0,0.0,0.0,0.0,0.0,-0.0,0.0,0.0,0.0,0.0,0.0,11.0,12.0,13.0,14.0,53.692
2024-04-02 23:53:47,359.9375,1.5625,2.3125,-0.10696997147469244,0.0,0.0,-1.0,0.0,0.0,0.0,0.0,0.0,0.0,-0.0,0.0,0.0,0.0,0.0,0.0,11.0,12.0,13.0,14.0,54.23
2024-04-02 23:53:47,359.9375,1.5625,2.3125,-0.10696997147469244,0.0,0.0,202.0,0.0,0.0,0.0,0.0,0.0,0.0,-0.0,0.0,0.0,0.0,0.0,0.0,11.0,12.0,13.0,14.0,53.692
2024-04-02 23:53:48,359.9375,1.5625,2.3125,-0.10696997147469244,0.0,0.0,-1.0,0.0,0.0,0.0,0.0,0.0,0.0,-0.0,0.0,0.0,0.0,0.0,0.0,11.0,12.0,13.0,14.0,53.692
2024-04-02 23:53:48,359.9375,1.5625,2.3125,-0.10696997147469244,0.0,0.0,204.0,0.0,0.0,0.0,0.0,0.0,0.0,-0.0,0.0,0.0,0.0,0.0,0.0,11.0,12.0,13.0,14.0,53.692
2024-04-02 23:53:48,359.9375,1.5625,2.3125,-0.10696997147469244,0.0,0.0,-1.0,0.0,0.0,0.0,0.0,0.0,0.0,-0.0,0.0,0.0,0.0,0.0,0.0,11.0,12.0,13.0,14.0,53.692
2024-04-02 23:53:48,359.9375,1.5625,2.3125,-0.10696997147469244,0.0,0.0,-1.0,0.0,0.0,0.0,0.0,0.0,0.0,-0.0,0.0,0.0,0.0,0.0,0.0,11.0,12.0,13.0,14.0,53.692
2024-04-02 23:53:48,359.9375,1.5625,2.3125,-0.10696997147469244,0.0,0.0,203.0,0.0,0.0,0.0,0.0,0.0,0.0,-0.0,0.0,0.0,0.0,0.0,0.0,11.0,12.0,13.0,14.0,53.692
2024-04-02 23:53:48,359.9375,1.5625,2.3125,-0.10696997147469244,0.0,0.0,-1.0,0.0,0.0,0.0,0.0,0.0,0.0,-0.0,0.0,0.0,0.0,0.0,0.0,11.0,12.0,13.0,14.0,53.692
2024-04-02 23:53:48,359.9375,1.5625,2.3125,-0.10696997147469244,0.0,0.0,-1.0,0.0,0.0,0.0,0.0,0.0,0.0,-0.0,0.0,0.0,0.0,0.0,0.0,11.0,12.0,13.0,14.0,53.692
2024-04-02 23:53:48,359.9375,1.5625,2.3125,-0.10726702447521559,0.0,0.0,202.0,0.0,0.0,0.0,0.0,0.0,0.0,-0.0,0.0,0.0,0.0,0.0,0.0,11.0,12.0,13.0,14.0,53.692
2024-04-02 23:53:48,359.9375,1.5625,2.3125,-0.10726702447521559,0.0,0.0,-1.0,0.0,0.0,0.0,0.0,0.0,0.0,-0.0,0.0,0.0,0.0,0.0,0.0,11.0,12.0,13.0,14.0,53.692
2024-04-02 23:53:48,359.9375,1.5625,2.3125,-0.10726702447521559,0.0,0.0,-1.0,0.0,0.0,0.0,0.0,0.0,0.0,-0.0,0.0,0.0,0.0,0.0,0.0,11.0,12.0,13.0,14.0,53.692
2024-04-02 23:53:48,359.9375,1.5625,2.3125,-0.10726702447521559,0.0,0.0,-1.0,0.0,0.0,0.0,0.0,0.0,0.0,-0.0,0.0,0.0,0.0,0.0,0.0,11.0,12.0,13.0,14.0,53.692
2024-04-02 23:53:48,359.9375,1.5625,2.3125,-0.10726702447521559,0.0,0.0,-1.0,0.0,0.0,0.0,0.0,0.0,0.0,-0.0,0.0,0.0,0.0,0.0,0.0,11.0,12.0,13.0,14.0,53.692
2024-04-02 23:53:48,359.9375,1.5625,2.3125,-0.10726702447521559,0.0,0.0,202.0,0.0,0.0,0.0,0.0,0.0,0.0,-0.0,0.0,0.0,0.0,0.0,0.0,11.0,12.0,13.0,14.0,53.692
2024-04-02 23:53:49,359.9375,1.5625,2.3125,-0.10726702447521559,0.0,0.0,-1.0,0.0,0.0,0.0,0.0,0.0,0.0,-0.0,0.0,0.0,0.0,0.0,0.0,11.0,12.0,13.0,14.0,53.692
2024-04-02 23:53:49,359.9375,1.5625,2.3125,-0.10726702447521559,0.0,0.0,-1.0,0.0,0.0,0.0,0.0,0.0,0.0,-0.0,0.0,0.0,0.0,0.0,0.0,11.0,12.0,13.0,14.0,53.692
2024-04-02 23:53:49,359.9375,1.5625,2.3125,-0.10726702447521559,0.0,0.0,-1.0,0.0,0.0,0.0,0.0,0.0,0.0,-0.0,0.0,0.0,0.0,0.0,0.0,11.0,12.0,13.0,14.0,53.692
2024-04-02 23:53:49,359.9375,1.5625,2.3125,-0.10726702447521559,0.0,0.0,-1.0,0.0,0.0,0.0,0.0,0.0,0.0,-0.0,0.0,0.0,0.0,0.0,0.0,11.0,12.0,13.0,14.0,53.692
2024-04-02 23:53:49,359.9375,1.5625,2.3125,-0.10726702447521559,0.0,0.0,-1.0,0.0,0.0,0.0,0.0,0.0,0.0,-0.0,0.0,0.0,0.0,0.0,0.0,11.0,12.0,13.0,14.0,53.692
2024-04-02 23:53:49,359.9375,1.5625,2.3125,-0.10726702447521559,0.0,0.0,-1.0,0.0,0.0,0.0,0.0,0.0,0.0,-0.0,0.0,0.0,0.0,0.0,0.0,11.0,12.0,13.0,14.0,53.692
2024-04-02 23:53:49,359.9375,1.5625,2.3125,-0.10726702447521559,0.0,0.0,-1.0,0.0,0.0,0.0,0.0,0.0,0.0,-0.0,0.0,0.0,0.0,0.0,0.0,11.0,12.0,13.0,14.0,54.23
2024-04-02 23:53:49,359.9375,1.5625,2.3125,-0.10835924734157233,0.0,0.0,-1.0,0.0,0.0,0.0,0.0,0.0,0.0,-0.0,0.0,0.0,0.0,0.0,0.0,11.0,12.0,13.0,14.0,53.692
2024-04-02 23:53:49,359.9375,1.5625,2.3125,-0.10835924734157233,0.0,0.0,-1.0,0.0,0.0,0.0,0.0,0.0,0.0,-0.0,0.0,0.0,0.0,0.0,0.0,11.0,12.0,13.0,14.0,53.692
2024-04-02 23:53:49,359.9375,1.5625,2.3125,-0.10835924734157233,0.0,0.0,-1.0,0.0,0.0,0.0,0.0,0.0,0.0,-0.0,0.0,0.0,0.0,0.0,0.0,11.0,12.0,13.0,14.0,53.692
2024-04-02 23:53:49,359.9375,1.5625,2.3125,-0.10835924734157233,0.0,0.0,-1.0,0.0,0.0,0.0,0.0,0.0,0.0,-0.0,0.0,0.0,0.0,0.0,0.0,11.0,12.0,13.0,14.0,54.23
2024-04-02 23:53:49,359.9375,1.5625,2.3125,-0.10835924734157233,0.0,0.0,-1.0,0.0,0.0,0.0,0.0,0.0,0.0,-0.0,0.0,0.0,0.0,0.0,0.0,11.0,12.0,13.0,14.0,54.23
2024-04-02 23:53:49,359.9375,1.5625,2.3125,-0.10835924734157233,0.0,0.0,-1.0,0.0,0.0,0.0,0.0,0.0,0.0,-0.0,0.0,0.0,0.0,0.0,0.0,11.0,12.0,13.0,14.0,53.692
2024-04-02 23:53:49,359.9375,1.5625,2.3125,-0.10835924734157233,0.0,0.0,-1.0,0.0,0.0,0.0,0.0,0.0,0.0,-0.0,0.0,0.0,0.0,0.0,0.0,11.0,12.0,13.0,14.0,53.692
2024-04-02 23:53:49,359.9375,1.5625,2.3125,-0.10835924734157233,0.0,0.0,202.0,0.0,0.0,0.0,0.0,0.0,0.0,-0.0,0.0,0.0,0.0,0.0,0.0,11.0,12.0,13.0,14.0,54.23
2024-04-02 23:53:50,359.9375,1.5625,2.3125,-0.10835924734157233,0.0,0.0,-1.0,0.0,0.0,0.0,0.0,0.0,0.0,-0.0,0.0,0.0,0.0,0.0,0.0,11.0,12.0,13.0,14.0,53.692
2024-04-02 23:53:50,359.9375,1.5625,2.3125,-0.10835924734157233,0.0,0.0,-1.0,0.0,0.0,0.0,0.0,0.0,0.0,-0.0,0.0,0.0,0.0,0.0,0.0,11.0,12.0,13.0,14.0,53.692
2024-04-02 23:53:50,359.9375,1.5625,2.3125,-0.10835924734157233,0.0,0.0,-1.0,0.0,0.0,0.0,0.0,0.0,0.0,-0.0,0.0,0.0,0.0,0.0,0.0,11.0,12.0,13.0,14.0,53.692
2024-04-02 23:53:50,359.9375,1.5625,2.3125,-0.10835924734157233,0.0,0.0,-1.0,0.0,0.0,0.0,0.0,0.0,0.0,-0.0,0.0,0.0,0.0,0.0,0.0,11.0,12.0,13.0,14.0,53.692
2024-04-02 23:53:50,359.9375,1.5625,2.3125,-0.11055764575021303,0.0,0.0,201.0,0.0,0.0,0.0,0.0,0.0,0.0,-0.0,0.0,0.0,0.0,0.0,0.0,11.0,12.0,13.0,14.0,53.692
2024-04-02 23:53:50,359.9375,1.5625,2.3125,-0.11055764575021303,0.0,0.0,-1.0,0.0,0.0,0.0,0.0,0.0,0.0,-0.0,0.0,0.0,0.0,0.0,0.0,11.0,12.0,13.0,14.0,53.692
2024-04-02 23:53:50,359.9375,1.5625,2.3125,-0.11055764575021303,0.0,0.0,-1.0,0.0,0.0,0.0,0.0,0.0,0.0,-0.0,0.0,0.0,0.0,0.0,0.0,11.0,12.0,13.0,14.0,53.692
2024-04-02 23:53:50,359.9375,1.5625,2.3125,-0.11055764575021303,0.0,0.0,-1.0,0.0,0.0,0.0,0.0,0.0,0.0,-0.0,0.0,0.0,0.0,0.0,0.0,11.0,12.0,13.0,14.0,53.692
2024-04-02 23:53:50,359.9375,1.5625,2.3125,-0.11055764575021303,0.0,0.0,-1.0,0.0,0.0,0.0,0.0,0.0,0.0,-0.0,0.0,0.0,0.0,0.0,0.0,11.0,12.0,13.0,14.0,53.692
2024-04-02 23:53:50,359.9375,1.5625,2.3125,-0.11055764575021303,0.0,0.0,-1.0,0.0,0.0,0.0,0.0,0.0,0.0,-0.0,0.0,0.0,0.0,0.0,0.0,11.0,12.0,13.0,14.0,53.692
2024-04-02 23:53:50,359.9375,1.5625,2.3125,-0.11055764575021303,0.0,0.0,-1.0,0.0,0.0,0.0,0.0,0.0,0.0,-0.0,0.0,0.0,0.0,0.0,0.0,11.0,12.0,13.0,14.0,53.692
2024-04-02 23:53:50,359.9375,1.5625,2.3125,-0.11055764575021303,0.0,0.0,-1.0,0.0,0.0,0.0,0.0,0.0,0.0,-0.0,0.0,0.0,0.0,0.0,0.0,11.0,12.0,13.0,14.0,53.692
2024-04-02 23:53:50,359.9375,1.5625,2.3125,-0.11055764575021303,0.0,0.0,202.0,0.0,0.0,0.0,0.0,0.0,0.0,-0.0,0.0,0.0,0.0,0.0,0.0,11.0,12.0,13.0,14.0,53.692
2024-04-02 23:53:51,359.9375,1.5625,2.3125,-0.11055764575021303,0.0,0.0,-1.0,0.0,0.0,0.0,0.0,0.0,0.0,-0.0,0.0,0.0,0.0,0.0,0.0,11.0,12.0,13.0,14.0,53.692
2024-04-02 23:53:51,359.9375,1.5625,2.3125,-0.11055764575021303,0.0,0.0,-1.0,0.0,0.0,0.0,0.0,0.0,0.0,-0.0,0.0,0.0,0.0,0.0,0.0,11.0,12.0,13.0,14.0,54.23
2024-04-02 23:53:51,359.9375,1.5625,2.3125,-0.11055764575021303,0.0,0.0,201.0,0.0,0.0,0.0,0.0,0.0,0.0,-0.0,0.0,0.0,0.0,0.0,0.0,11.0,12.0,13.0,14.0,53.692
2024-04-02 23:53:51,359.9375,1.5625,2.3125,-0.11055764575021303,0.0,0.0,-1.0,0.0,0.0,0.0,0.0,0.0,0.0,-0.0,0.0,0.0,0.0,0.0,0.0,11.0,12.0,13.0,14.0,53.692
2024-04-02 23:53:51,359.9375,1.5625,2.3125,-0.11055764575021303,0.0,0.0,-1.0,0.0,0.0,0.0,0.0,0.0,0.0,-0.0,0.0,0.0,0.0,0.0,0.0,11.0,12.0,13.0,14.0,53.692
2024-04-02 23:53:51,359.9375,1.5625,2.3125,-0.10858789023677928,0.0,0.0,202.0,0.0,0.0,0.0,0.0,0.0,0.0,-0.0,0.0,0.0,0.0,0.0,0.0,11.0,12.0,13.0,14.0,53.692
