Timestamp,Yaw,Pitch,Roll,Depth,Depth Set,Depth Control,Water,Roll Control,Pitch Control,Thruster1,Thruster2,Thruster3,Thruster4,Thruster5,Thruster6,BCD1,BCD2,BCD3,BCD4,BCD1 Volt,BCD2 Volt,BCD3 Volt,BCD4 Volt,CPU
2024-04-03 18:07:59,0.5,-1.75,-0.3125,0.0819454741210948,0.0,0.0,-1.0,0.0,0.0,0.0,0.0,0.0,0.0,0.0,0.0,0.0,0.0,0.0,0.0,-1.0,-1.0,-1.0,-1.0,44.008
2024-04-03 18:07:59,0.5,-1.75,-0.3125,0.0819454741210948,0.0,0.0,112.0,0.0,0.0,0.0,0.0,0.0,0.0,0.0,0.0,0.0,0.0,0.0,0.0,-1.0,-1.0,-1.0,-1.0,43.47
2024-04-03 18:07:59,0.5,-1.75,-0.3125,0.0819454741210948,0.0,0.0,-1.0,0.0,0.0,0.0,0.0,0.0,0.0,0.0,0.0,0.0,0.0,0.0,0.0,-1.0,-1.0,-1.0,-1.0,44.008
2024-04-03 18:07:59,0.5,-1.75,-0.3125,0.0819454741210948,0.0,0.0,-1.0,0.0,0.0,0.0,0.0,0.0,0.0,0.0,0.0,0.0,0.0,0.0,0.0,-1.0,-1.0,-1.0,-1.0,43.47
2024-04-03 18:07:59,0.5,-1.75,-0.3125,0.0819454741210948,0.0,0.0,113.0,0.0,0.0,0.0,0.0,0.0,0.0,0.0,0.0,0.0,0.0,0.0,0.0,-1.0,-1.0,-1.0,-1.0,44.546
2024-04-03 18:07:59,0.5,-1.75,-0.3125,0.0819454741210948,0.0,0.0,-1.0,0.0,0.0,0.0,0.0,0.0,0.0,0.0,0.0,0.0,0.0,0.0,0.0,-1.0,-1.0,-1.0,-1.0,44.008
2024-04-03 18:07:59,0.5,-1.75,-0.3125,0.0819454741210948,0.0,0.0,-1.0,0.0,0.0,0.0,0.0,0.0,0.0,0.0,0.0,0.0,0.0,0.0,0.0,-1.0,-1.0,-1.0,-1.0,44.008
2024-04-03 18:07:59,0.5,-1.75,-0.3125,0.0819454741210948,0.0,0.0,112.0,0.0,0.0,0.0,0.0,0.0,0.0,0.0,0.0,0.0,0.0,0.0,0.0,-1.0,-1.0,-1.0,-1.0,44.008
2024-04-03 18:07:59,0.5,-1.75,-0.3125,0.0819454741210948,0.0,0.0,-1.0,0.0,0.0,0.0,0.0,0.0,0.0,0.0,0.0,0.0,0.0,0.0,0.0,-1.0,-1.0,-1.0,-1.0,44.008
2024-04-03 18:07:59,0.5,-1.75,-0.3125,0.07828901900823382,0.0,0.0,112.0,0.0,0.0,0.0,0.0,0.0,0.0,0.0,0.0,0.0,0.0,0.0,0.0,-1.0,-1.0,-1.0,-1.0,44.008
2024-04-03 18:07:59,0.5,-1.75,-0.3125,0.07828901900823382,0.0,0.0,-1.0,0.0,0.0,0.0,0.0,0.0,0.0,0.0,0.0,0.0,0.0,0.0,0.0,-1.0,-1.0,-1.0,-1.0,43.47
2024-04-03 18:07:59,0.5,-1.75,-0.3125,0.07828901900823382,0.0,0.0,-1.0,0.0,0.0,0.0,0.0,0.0,0.0,0.0,0.0,0.0,0.0,0.0,0.0,-1.0,-1.0,-1.0,-1.0,44.008
2024-04-03 18:08:00,0.5,-1.75,-0.3125,0.07828901900823382,0.0,0.0,-1.0,0.0,0.0,0.0,0.0,0.0,0.0,0.0,0.0,0.0,0.0,0.0,0.0,-1.0,-1.0,-1.0,-1.0,44.008
2024-04-03 18:08:00,0.5,-1.75,-0.3125,0.07828901900823382,0.0,0.0,-1.0,0.0,0.0,0.0,0.0,0.0,0.0,0.0,0.0,0.0,0.0,0.0,0.0,-1.0,-1.0,-1.0,-1.0,44.008
2024-04-03 18:08:00,0.5,-1.75,-0.3125,0.07828901900823382,0.0,0.0,-1.0,0.0,0.0,0.0,0.0,0.0,0.0,0.0,0.0,0.0,0.0,0.0,0.0,-1.0,-1.0,-1.0,-1.0,44.008
2024-04-03 18:08:00,0.5,-1.75,-0.3125,0.07828901900823382,0.0,0.0,-1.0,0.0,0.0,0.0,0.0,0.0,0.0,0.0,0.0,0.0,0.0,0.0,0.0,-1.0,-1.0,-1.0,-1.0,44.008
2024-04-03 18:08:00,0.5,-1.75,-0.3125,0.07828901900823382,0.0,0.0,-1.0,0.0,0.0,0.0,0.0,0.0,0.0,0.0,0.0,0.0,0.0,0.0,0.0,-1.0,-1.0,-1.0,-1.0,44.008
2024-04-03 18:08:00,0.5,-1.75,-0.3125,0.07828901900823382,0.0,0.0,-1.0,0.0,0.0,0.0,0.0,0.0,0.0,0.0,0.0,0.0,0.0,0.0,0.0,-1.0,-1.0,-1.0,-1.0,43.47
2024-04-03 18:08:00,0.5,-1.75,-0.3125,0.07828901900823382,0.0,0.0,-1.0,0.0,0.0,0.0,0.0,0.0,0.0,0.0,0.0,0.0,0.0,0.0,0.0,-1.0,-1.0,-1.0,-1.0,44.008
2024-04-03 18:08:00,0.5,-1.75,-0.3125,0.07828901900823382,0.0,0.0,-1.0,0.0,0.0,0.0,0.0,0.0,0.0,0.0,0.0,0.0,0.0,0.0,0.0,-1.0,-1.0,-1.0,-1.0,44.008
2024-04-03 18:08:00,0.5,-1.75,-0.3125,0.07828901900823382,0.0,0.0,-1.0,0.0,0.0,0.0,0.0,0.0,0.0,0.0,0.0,0.0,0.0,0.0,0.0,-1.0,-1.0,-1.0,-1.0,44.008
2024-04-03 18:08:00,0.5,-1.75,-0.3125,0.07828901900823382,0.0,0.0,-1.0,0.0,0.0,0.0,0.0,0.0,0.0,0.0,0.0,0.0,0.0,0.0,0.0,-1.0,-1.0,-1.0,-1.0,43.47
2024-04-03 18:08:00,0.5,-1.75,-0.3125,0.07828901900823382,0.0,0.0,-1.0,0.0,0.0,0.0,0.0,0.0,0.0,0.0,0.0,0.0,0.0,0.0,0.0,-1.0,-1.0,-1.0,-1.0,44.008
2024-04-03 18:08:00,0.5,-1.75,-0.3125,0.08147042039289167,0.0,0.0,-1.0,0.0,0.0,0.0,0.0,0.0,0.0,0.0,0.0,0.0,0.0,0.0,0.0,-1.0,-1.0,-1.0,-1.0,44.008
2024-04-03 18:08:00,0.5,-1.75,-0.3125,0.08147042039289167,0.0,0.0,-1.0,0.0,0.0,0.0,0.0,0.0,0.0,0.0,0.0,0.0,0.0,0.0,0.0,-1.0,-1.0,-1.0,-1.0,44.008
2024-04-03 18:08:00,0.5,-1.75,-0.3125,0.08147042039289167,0.0,0.0,-1.0,0.0,0.0,0.0,0.0,0.0,0.0,0.0,0.0,0.0,0.0,0.0,0.0,-1.0,-1.0,-1.0,-1.0,44.008
2024-04-03 18:08:00,0.5,-1.75,-0.3125,0.08147042039289167,0.0,0.0,-1.0,0.0,0.0,0.0,0.0,0.0,0.0,0.0,0.0,0.0,0.0,0.0,0.0,-1.0,-1.0,-1.0,-1.0,44.008
2024-04-03 18:08:01,0.5,-1.75,-0.3125,0.08147042039289167,0.0,0.0,-1.0,0.0,0.0,0.0,0.0,0.0,0.0,0.0,0.0,0.0,0.0,0.0,0.0,-1.0,-1.0,-1.0,-1.0,44.008
2024-04-03 18:08:01,0.5,-1.75,-0.3125,0.08147042039289167,0.0,0.0,-1.0,0.0,0.0,0.0,0.0,0.0,0.0,0.0,0.0,0.0,0.0,0.0,0.0,-1.0,-1.0,-1.0,-1.0,44.008
2024-04-03 18:08:01,0.5,-1.75,-0.3125,0.08147042039289167,0.0,0.0,-1.0,0.0,0.0,0.0,0.0,0.0,0.0,0.0,0.0,0.0,0.0,0.0,0.0,-1.0,-1.0,-1.0,-1.0,44.008
2024-04-03 18:08:01,0.5,-1.75,-0.3125,0.08147042039289167,0.0,0.0,0.0,0.0,0.0,0.0,0.0,0.0,0.0,0.0,0.0,0.0,0.0,0.0,0.0,-1.0,-1.0,-1.0,-1.0,44.008
2024-04-03 18:08:01,0.5,-1.75,-0.3125,0.08147042039289167,0.0,0.0,-1.0,0.0,0.0,0.0,0.0,0.0,0.0,0.0,0.0,0.0,0.0,0.0,0.0,-1.0,-1.0,-1.0,-1.0,44.008
2024-04-03 18:08:01,0.5,-1.75,-0.3125,0.08147042039289167,0.0,0.0,-1.0,0.0,0.0,0.0,0.0,0.0,0.0,0.0,0.0,0.0,0.0,0.0,0.0,-1.0,-1.0,-1.0,-1.0,44.008
2024-04-03 18:08:01,0.5,-1.75,-0.3125,0.08147042039289167,0.0,0.0,0.0,0.0,0.0,0.0,0.0,0.0,0.0,0.0,0.0,0.0,0.0,0.0,0.0,-1.0,-1.0,-1.0,-1.0,44.008
2024-04-03 18:08:01,0.5,-1.75,-0.3125,0.08147042039289167,0.0,0.0,-1.0,0.0,0.0,0.0,0.0,0.0,0.0,0.0,0.0,0.0,0.0,0.0,0.0,-1.0,-1.0,-1.0,-1.0,44.008
2024-04-03 18:08:01,0.5,-1.75,-0.3125,0.08147042039289167,0.0,0.0,-1.0,0.0,0.0,0.0,0.0,0.0,0.0,0.0,0.0,0.0,0.0,0.0,0.0,-1.0,-1.0,-1.0,-1.0,44.008
2024-04-03 18:08:01,0.5,-1.75,-0.3125,0.08147042039289167,0.0,0.0,112.0,0.0,0.0,0.0,0.0,0.0,0.0,0.0,0.0,0.0,0.0,0.0,0.0,-1.0,-1.0,-1.0,-1.0,44.008
2024-04-03 18:08:01,0.5,-1.75,-0.3125,0.08147042039289167,0.0,0.0,-1.0,0.0,0.0,0.0,0.0,0.0,0.0,0.0,0.0,0.0,0.0,0.0,0.0,-1.0,-1.0,-1.0,-1.0,44.008
2024-04-03 18:08:01,0.5,-1.75,-0.3125,0.07739850937874387,0.0,0.0,-1.0,0.0,0.0,0.0,0.0,0.0,0.0,0.0,0.0,0.0,0.0,0.0,0.0,-1.0,-1.0,-1.0,-1.0,44.546
2024-04-03 18:08:01,0.5,-1.75,-0.3125,0.07739850937874387,0.0,0.0,-1.0,0.0,0.0,0.0,0.0,0.0,0.0,0.0,0.0,0.0,0.0,0.0,0.0,-1.0,-1.0,-1.0,-1.0,44.008
2024-04-03 18:08:01,0.5,-1.75,-0.3125,0.07739850937874387,0.0,0.0,-1.0,0.0,0.0,0.0,0.0,0.0,0.0,0.0,0.0,0.0,0.0,0.0,0.0,-1.0,-1.0,-1.0,-1.0,44.008
2024-04-03 18:08:02,0.5,-1.75,-0.3125,0.07739850937874387,0.0,0.0,113.0,0.0,0.0,0.0,0.0,0.0,0.0,0.0,0.0,0.0,0.0,0.0,0.0,-1.0,-1.0,-1.0,-1.0,44.008
2024-04-03 18:08:02,0.5,-1.75,-0.3125,0.07739850937874387,0.0,0.0,-1.0,0.0,0.0,0.0,0.0,0.0,0.0,0.0,0.0,0.0,0.0,0.0,0.0,-1.0,-1.0,-1.0,-1.0,44.546
2024-04-03 18:08:02,0.5,-1.75,-0.3125,0.07739850937874387,0.0,0.0,-1.0,0.0,0.0,0.0,0.0,0.0,0.0,0.0,0.0,0.0,0.0,0.0,0.0,-1.0,-1.0,-1.0,-1.0,43.47
2024-04-03 18:08:02,0.5,-1.75,-0.3125,0.07739850937874387,0.0,0.0,114.0,0.0,0.0,0.0,0.0,0.0,0.0,0.0,0.0,0.0,0.0,0.0,0.0,-1.0,-1.0,-1.0,-1.0,43.47
2024-04-03 18:08:02,0.5,-1.75,-0.3125,0.07739850937874387,0.0,0.0,-1.0,0.0,0.0,0.0,0.0,0.0,0.0,0.0,0.0,0.0,0.0,0.0,0.0,-1.0,-1.0,-1.0,-1.0,44.008
2024-04-03 18:08:02,0.5,-1.75,-0.3125,0.07739850937874387,0.0,0.0,-1.0,0.0,0.0,0.0,0.0,0.0,0.0,0.0,0.0,0.0,0.0,0.0,0.0,-1.0,-1.0,-1.0,-1.0,43.47
2024-04-03 18:08:02,0.5,-1.75,-0.3125,0.07739850937874387,0.0,0.0,113.0,0.0,0.0,0.0,0.0,0.0,0.0,0.0,0.0,0.0,0.0,0.0,0.0,-1.0,-1.0,-1.0,-1.0,44.008
2024-04-03 18:08:02,0.5,-1.75,-0.3125,0.07739850937874387,0.0,0.0,-1.0,0.0,0.0,0.0,0.0,0.0,0.0,0.0,0.0,0.0,0.0,0.0,0.0,-1.0,-1.0,-1.0,-1.0,44.008
2024-04-03 18:08:02,0.5,-1.75,-0.3125,0.07739850937874387,0.0,0.0,-1.0,0.0,0.0,0.0,0.0,0.0,0.0,0.0,0.0,0.0,0.0,0.0,0.0,-1.0,-1.0,-1.0,-1.0,44.546
2024-04-03 18:08:02,0.5,-1.75,-0.3125,0.07739850937874387,0.0,0.0,112.0,0.0,0.0,0.0,0.0,0.0,0.0,0.0,0.0,0.0,0.0,0.0,0.0,-1.0,-1.0,-1.0,-1.0,44.008
2024-04-03 18:08:02,0.5,-1.75,-0.3125,0.07739850937874387,0.0,0.0,-1.0,0.0,0.0,0.0,0.0,0.0,0.0,0.0,0.0,0.0,0.0,0.0,0.0,-1.0,-1.0,-1.0,-1.0,44.008
2024-04-03 18:08:03,0.5,-1.75,-0.3125,0.07716066619740271,0.0,0.0,-1.0,0.0,0.0,0.0,0.0,0.0,0.0,0.0,0.0,0.0,0.0,0.0,0.0,-1.0,-1.0,-1.0,-1.0,44.008
2024-04-03 18:08:03,0.5,-1.75,-0.3125,0.07716066619740271,0.0,0.0,-1.0,0.0,0.0,0.0,0.0,0.0,0.0,0.0,0.0,0.0,0.0,0.0,0.0,-1.0,-1.0,-1.0,-1.0,44.546
2024-04-03 18:08:03,0.5,-1.75,-0.3125,0.07716066619740271,0.0,0.0,112.0,0.0,0.0,0.0,0.0,0.0,0.0,0.0,0.0,0.0,0.0,0.0,0.0,-1.0,-1.0,-1.0,-1.0,43.47
2024-04-03 18:08:03,0.5,-1.75,-0.3125,0.07781272615725525,0.0,0.0,-1.0,0.0,0.0,0.0,0.0,0.0,0.0,0.0,0.0,0.0,0.0,0.0,0.0,-1.0,-1.0,-1.0,-1.0,43.47
2024-04-03 18:08:03,0.5,-1.75,-0.3125,0.07781272615725525,0.0,0.0,-1.0,0.0,0.0,0.0,0.0,0.0,0.0,0.0,0.0,0.0,0.0,0.0,0.0,-1.0,-1.0,-1.0,-1.0,44.008
2024-04-03 18:08:03,0.5,-1.75,-0.3125,0.07781272615725525,0.0,0.0,-1.0,0.0,0.0,0.0,0.0,0.0,0.0,0.0,0.0,0.0,0.0,0.0,0.0,-1.0,-1.0,-1.0,-1.0,44.008
2024-04-03 18:08:03,0.5,-1.75,-0.3125,0.07781272615725525,0.0,0.0,-1.0,0.0,0.0,0.0,0.0,0.0,0.0,0.0,0.0,0.0,0.0,0.0,0.0,-1.0,-1.0,-1.0,-1.0,44.008
2024-04-03 18:08:04,0.5,-1.75,-0.3125,0.07781272615725525,0.0,0.0,112.0,0.0,0.0,0.0,0.0,0.0,0.0,0.0,0.0,0.0,0.0,0.0,0.0,-1.0,-1.0,-1.0,-1.0,44.546
2024-04-03 18:08:04,0.5,-1.75,-0.3125,0.07781272615725525,0.0,0.0,-1.0,0.0,0.0,0.0,0.0,0.0,0.0,0.0,0.0,0.0,0.0,0.0,0.0,-1.0,-1.0,-1.0,-1.0,44.008
2024-04-03 18:08:04,0.5,-1.75,-0.3125,0.07781272615725525,0.0,0.0,0.0,0.0,0.0,0.0,0.0,0.0,0.0,0.0,0.0,0.0,0.0,0.0,0.0,-1.0,-1.0,-1.0,-1.0,44.008
2024-04-03 18:08:04,0.5,-1.75,-0.3125,0.07781272615725525,0.0,0.0,-1.0,0.0,0.0,0.0,0.0,0.0,0.0,0.0,0.0,0.0,0.0,0.0,0.0,-1.0,-1.0,-1.0,-1.0,44.008
2024-04-03 18:08:04,0.5,-1.75,-0.3125,0.07781272615725525,0.0,0.0,112.0,0.0,0.0,0.0,0.0,0.0,0.0,0.0,0.0,0.0,0.0,0.0,0.0,-1.0,-1.0,-1.0,-1.0,44.008
2024-04-03 18:08:04,0.5,-1.75,-0.3125,0.07781272615725525,0.0,0.0,-1.0,0.0,0.0,0.0,0.0,0.0,0.0,0.0,0.0,0.0,0.0,0.0,0.0,-1.0,-1.0,-1.0,-1.0,44.008
2024-04-03 18:08:04,0.5,-1.75,-0.3125,0.07781272615725525,0.0,0.0,113.0,0.0,0.0,0.0,0.0,0.0,0.0,0.0,0.0,0.0,0.0,0.0,0.0,-1.0,-1.0,-1.0,-1.0,44.546
2024-04-03 18:08:04,0.5,-1.75,-0.3125,0.07796221997885187,0.0,0.0,-1.0,0.0,0.0,0.0,0.0,0.0,0.0,0.0,0.0,0.0,0.0,0.0,0.0,-1.0,-1.0,-1.0,-1.0,44.008
2024-04-03 18:08:04,0.5,-1.75,-0.3125,0.07796221997885187,0.0,0.0,-1.0,0.0,0.0,0.0,0.0,0.0,0.0,0.0,0.0,0.0,0.0,0.0,0.0,-1.0,-1.0,-1.0,-1.0,44.546
2024-04-03 18:08:04,0.5,-1.75,-0.3125,0.07796221997885187,0.0,0.0,-1.0,0.0,0.0,0.0,0.0,0.0,0.0,0.0,0.0,0.0,0.0,0.0,0.0,-1.0,-1.0,-1.0,-1.0,44.008
2024-04-03 18:08:04,0.5,-1.75,-0.3125,0.07796221997885187,0.0,0.0,-1.0,0.0,0.0,0.0,0.0,0.0,0.0,0.9989939024390244,0.9989939024390244,0.0,0.0,0.0,0.0,-1.0,-1.0,-1.0,-1.0,44.546
2024-04-03 18:08:05,0.5,-1.75,-0.3125,0.07796221997885187,0.0,0.0,-1.0,0.0,0.0,0.0,0.0,0.0,0.0,0.9989939024390244,0.9989939024390244,0.0,0.0,0.0,0.0,-1.0,-1.0,-1.0,-1.0,44.008
2024-04-03 18:08:05,0.5,-1.75,-0.3125,0.07796221997885187,0.0,0.0,-1.0,0.0,0.0,0.0,0.0,0.0,0.0,0.9989939024390244,0.9989939024390244,0.0,0.0,0.0,0.0,-1.0,-1.0,-1.0,-1.0,44.008
2024-04-03 18:08:05,0.5,-1.75,-0.3125,0.07796221997885187,0.0,0.0,-1.0,0.0,0.0,0.0,0.0,0.0,0.0,0.9989939024390244,0.9989939024390244,0.0,0.0,0.0,0.0,-1.0,-1.0,-1.0,-1.0,44.546
2024-04-03 18:08:05,0.5,-1.75,-0.3125,0.07796221997885187,0.0,0.0,112.0,0.0,0.0,0.0,0.0,0.0,0.0,0.9989939024390244,0.9989939024390244,0.0,0.0,0.0,0.0,-1.0,-1.0,-1.0,-1.0,44.008
2024-04-03 18:08:05,0.5,-1.75,-0.3125,0.07796221997885187,0.0,0.0,-1.0,0.0,0.0,0.0,0.0,0.0,0.0,-0.09792682926829269,-0.09792682926829269,0.0,0.0,0.0,0.0,-1.0,-1.0,-1.0,-1.0,44.008
2024-04-03 18:08:05,0.5,-1.75,-0.3125,0.07796221997885187,0.0,0.0,-1.0,0.0,0.0,0.0,0.0,0.0,0.0,-0.9989939024390244,-0.9989939024390244,0.0,0.0,0.0,0.0,-1.0,-1.0,-1.0,-1.0,44.546
2024-04-03 18:08:05,0.5,-1.75,-0.3125,0.07796221997885187,0.0,0.0,112.0,0.0,0.0,0.0,0.0,0.0,0.0,-0.9989939024390244,-0.9989939024390244,0.0,0.0,0.0,0.0,-1.0,-1.0,-1.0,-1.0,44.008
2024-04-03 18:08:05,0.5,-1.75,-0.3125,0.07796221997885187,0.0,0.0,-1.0,0.0,0.0,0.0,0.0,0.0,0.0,-0.9989939024390244,-0.9989939024390244,0.0,0.0,0.0,0.0,-1.0,-1.0,-1.0,-1.0,44.008
2024-04-03 18:08:05,0.5,-1.75,-0.3125,0.07796221997885187,0.0,0.0,-1.0,0.0,0.0,0.0,0.0,0.0,0.0,-0.9989939024390244,-0.9989939024390244,0.0,0.0,0.0,0.0,-1.0,-1.0,-1.0,-1.0,44.008
2024-04-03 18:08:05,0.5,-1.75,-0.3125,0.07796221997885187,0.0,0.0,112.0,0.0,0.0,0.0,0.0,0.0,0.0,-0.0,0.0,0.0,0.0,0.0,0.0,-1.0,-1.0,-1.0,-1.0,44.546
2024-04-03 18:08:05,0.5,-1.75,-0.3125,0.07775921543561803,0.0,0.0,-1.0,0.0,0.0,0.0,0.0,0.0,0.0,-0.0,0.0,0.0,0.0,0.0,0.0,-1.0,-1.0,-1.0,-1.0,44.008
2024-04-03 18:08:05,0.5,-1.75,-0.3125,0.07775921543561803,0.0,0.0,-1.0,0.0,0.0,0.0,0.0,0.0,0.0,-0.0,0.0,0.0,0.0,0.0,0.0,-1.0,-1.0,-1.0,-1.0,44.008
2024-04-03 18:08:05,0.5,-1.75,-0.3125,0.07775921543561803,0.0,0.0,112.0,0.0,0.0,0.0,0.0,0.0,0.0,-0.0,0.0,0.0,0.0,0.0,0.0,-1.0,-1.0,-1.0,-1.0,44.546
2024-04-03 18:08:05,0.5,-1.75,-0.3125,0.07775921543561803,0.0,0.0,-1.0,0.0,0.0,0.0,0.0,0.0,0.0,-0.0,0.0,0.0,0.0,0.0,0.0,-1.0,-1.0,-1.0,-1.0,44.008
2024-04-03 18:08:06,0.5,-1.75,-0.3125,0.07775921543561803,0.0,0.0,-1.0,0.0,0.0,0.0,0.0,0.0,0.0,-0.0,0.0,0.0,0.0,0.0,0.0,-1.0,-1.0,-1.0,-1.0,44.546
2024-04-03 18:08:06,0.5,-1.75,-0.3125,0.07775921543561803,0.0,0.0,110.0,0.0,0.0,0.0,0.0,0.0,0.0,-0.0,0.0,0.0,0.0,0.0,0.0,-1.0,-1.0,-1.0,-1.0,44.008
2024-04-03 18:08:06,0.5,-1.75,-0.3125,0.07775921543561803,0.0,0.0,-1.0,0.0,0.0,0.0,0.0,0.0,0.0,-0.0,0.0,0.0,0.0,0.0,0.0,-1.0,-1.0,-1.0,-1.0,44.008
2024-04-03 18:08:06,0.5,-1.75,-0.3125,0.07775921543561803,0.0,0.0,-1.0,0.0,0.0,0.0,0.0,0.0,0.0,-0.0,0.0,0.0,0.0,0.0,0.0,-1.0,-1.0,-1.0,-1.0,44.008
2024-04-03 18:08:06,0.5,-1.75,-0.3125,0.07775921543561803,0.0,0.0,112.0,0.0,0.0,0.0,0.0,0.0,0.0,0.5680487804878048,0.5680487804878048,0.0,0.0,0.0,0.0,-1.0,-1.0,-1.0,-1.0,44.008
2024-04-03 18:08:06,0.5,-1.75,-0.3125,0.07775921543561803,0.0,0.0,-1.0,0.0,0.0,-0.03524390243902439,0.03524390243902439,0.03524390243902439,-0.03524390243902439,0.9989939024390244,0.9989939024390244,0.0,0.0,0.0,0.0,-1.0,-1.0,-1.0,-1.0,44.008
2024-04-03 18:08:06,0.5,-1.75,-0.3125,0.07775921543561803,0.0,0.0,-1.0,0.0,0.0,-0.05875,0.05875,0.05875,-0.05875,0.9989939024390244,0.9989939024390244,0.0,0.0,0.0,0.0,-1.0,-1.0,-1.0,-1.0,44.008
2024-04-03 18:08:06,0.5,-1.75,-0.3125,0.07775921543561803,0.0,0.0,112.0,0.0,0.0,0.0,0.0,0.0,0.0,-0.0,0.0,0.0,0.0,0.0,0.0,-1.0,-1.0,-1.0,-1.0,44.008
2024-04-03 18:08:06,0.5,-1.75,-0.3125,0.07775921543561803,0.0,0.0,-1.0,0.0,0.0,0.0,0.0,0.0,0.0,-0.9989939024390244,-0.9989939024390244,0.0,0.0,0.0,0.0,-1.0,-1.0,-1.0,-1.0,44.008
2024-04-03 18:08:06,0.5,-1.75,-0.3125,0.07775921543561803,0.0,0.0,-1.0,0.0,0.0,0.0,0.0,0.0,0.0,-0.9989939024390244,-0.9989939024390244,0.0,0.0,0.0,0.0,-1.0,-1.0,-1.0,-1.0,44.008
2024-04-03 18:08:06,0.5,-1.75,-0.3125,0.07775921543561803,0.0,0.0,111.0,0.0,0.0,0.0,0.0,0.0,0.0,-0.9989939024390244,-0.9989939024390244,0.0,0.0,0.0,0.0,-1.0,-1.0,-1.0,-1.0,44.008
2024-04-03 18:08:06,0.5,-1.75,-0.3125,0.07780969047211421,0.0,0.0,-1.0,0.0,0.0,0.0,0.0,0.0,0.0,-0.0,0.0,0.0,0.0,0.0,0.0,-1.0,-1.0,-1.0,-1.0,44.008
2024-04-03 18:08:06,0.5,-1.75,-0.3125,0.07780969047211421,0.0,0.0,-1.0,0.0,0.0,0.0,0.0,0.0,0.0,0.9989939024390244,0.9989939024390244,0.0,0.0,0.0,0.0,-1.0,-1.0,-1.0,-1.0,44.008
2024-04-03 18:08:06,0.5,-1.75,-0.3125,0.07780969047211421,0.0,0.0,111.0,0.0,0.0,0.0,0.0,0.0,0.0,0.9989939024390244,0.9989939024390244,0.0,0.0,0.0,0.0,-1.0,-1.0,-1.0,-1.0,44.008
2024-04-03 18:08:06,0.5,-1.75,-0.3125,0.07780969047211421,0.0,0.0,-1.0,0.0,0.0,0.0,0.0,0.0,0.0,0.2938109756097561,0.2938109756097561,0.0,0.0,0.0,0.0,-1.0,-1.0,-1.0,-1.0,44.546
2024-04-03 18:08:07,0.5,-1.75,-0.3125,0.07780969047211421,0.0,0.0,-1.0,0.0,0.0,0.0,0.0,0.0,0.0,-0.6620731707317074,-0.6620731707317074,0.0,0.0,0.0,0.0,-1.0,-1.0,-1.0,-1.0,44.008
2024-04-03 18:08:07,0.5,-1.75,-0.3125,0.07780969047211421,0.0,0.0,112.0,0.0,0.0,0.0,0.0,0.0,0.0,-0.9989939024390244,-0.9989939024390244,0.0,0.0,0.0,0.0,-1.0,-1.0,-1.0,-1.0,44.008
2024-04-03 18:08:07,0.5,-1.75,-0.3125,0.07780969047211421,0.0,0.0,-1.0,0.0,0.0,0.0,0.0,0.0,0.0,-0.0,0.0,0.0,0.0,0.0,0.0,-1.0,-1.0,-1.0,-1.0,44.008
2024-04-03 18:08:07,0.5,-1.75,-0.3125,0.07780969047211421,0.0,0.0,-1.0,0.0,0.0,0.0,0.0,0.0,0.0,-0.0,0.0,0.0,0.0,0.0,0.0,-1.0,-1.0,-1.0,-1.0,44.008
2024-04-03 18:08:07,0.5,-1.75,-0.3125,0.07780969047211421,0.0,0.0,-1.0,0.0,0.0,0.0,0.0,0.0,0.0,0.03524390243902439,0.03524390243902439,0.0,0.0,0.0,0.0,-1.0,-1.0,-1.0,-1.0,44.008
2024-04-03 18:08:07,0.5,-1.75,-0.3125,0.07780969047211421,0.0,0.0,-1.0,0.0,0.0,-0.05875,0.05875,0.05875,-0.05875,0.9989939024390244,0.9989939024390244,0.0,0.0,0.0,0.0,-1.0,-1.0,-1.0,-1.0,44.008
2024-04-03 18:08:07,0.5,-1.75,-0.3125,0.07780969047211421,0.0,0.0,-1.0,0.0,0.0,-0.05875,0.05875,0.05875,-0.05875,0.9989939024390244,0.9989939024390244,0.0,0.0,0.0,0.0,-1.0,-1.0,-1.0,-1.0,44.008
2024-04-03 18:08:07,0.5,-1.75,-0.3125,0.07780969047211421,0.0,0.0,-1.0,0.0,0.0,0.0,0.0,0.0,0.0,-0.12926829268292683,-0.12926829268292683,0.0,0.0,0.0,0.0,-1.0,-1.0,-1.0,-1.0,44.008
2024-04-03 18:08:07,0.5,-1.75,-0.3125,0.07780969047211421,0.0,0.0,-1.0,0.0,0.0,0.0,0.0,0.0,0.0,-0.9989939024390244,-0.9989939024390244,0.0,0.0,0.0,0.0,-1.0,-1.0,-1.0,-1.0,44.008
2024-04-03 18:08:07,0.5,-1.75,-0.3125,0.07614967301044258,0.0,0.0,113.0,0.0,0.0,0.0,0.0,0.0,0.0,-0.4583536585365854,-0.4583536585365854,0.0,0.0,0.0,0.0,-1.0,-1.0,-1.0,-1.0,44.008
2024-04-03 18:08:07,0.5,-1.75,-0.3125,0.07614967301044258,0.0,0.0,-1.0,0.0,0.0,0.0,0.0,0.0,0.0,0.9989939024390244,0.9989939024390244,0.0,0.0,0.0,0.0,-1.0,-1.0,-1.0,-1.0,44.008
2024-04-03 18:08:07,0.5,-1.75,-0.3125,0.07614967301044258,0.0,0.0,-1.0,0.0,0.0,0.0,0.0,0.0,0.0,0.9989939024390244,0.9989939024390244,0.0,0.0,0.0,0.0,-1.0,-1.0,-1.0,-1.0,44.008
2024-04-03 18:08:07,0.5,-1.75,-0.3125,0.07614967301044258,0.0,0.0,0.0,0.0,0.0,0.0,0.0,0.0,0.0,-0.9989939024390244,-0.9989939024390244,0.0,0.0,0.0,0.0,-1.0,-1.0,-1.0,-1.0,43.47
2024-04-03 18:08:07,0.5,-1.75,-0.25,0.07614967301044258,0.0,0.0,-1.0,0.0,0.0,0.0,0.0,0.0,0.0,-0.6620731707317074,-0.6620731707317074,0.0,0.0,0.0,0.0,-1.0,-1.0,-1.0,-1.0,44.546
2024-04-03 18:08:08,0.5,-1.75,-0.25,0.07614967301044258,0.0,0.0,-1.0,0.0,0.0,-0.19978658536585367,0.19978658536585367,0.19978658536585367,-0.19978658536585367,0.9989939024390244,0.9989939024390244,0.0,0.0,0.0,0.0,-1.0,-1.0,-1.0,-1.0,44.546
2024-04-03 18:08:08,0.5,-1.75,-0.3125,0.07614967301044258,0.0,0.0,-1.0,0.0,0.0,-0.09792682926829269,0.09792682926829269,0.09792682926829269,-0.09792682926829269,0.9989939024390244,0.9989939024390244,0.0,0.0,0.0,0.0,-1.0,-1.0,-1.0,-1.0,44.008
2024-04-03 18:08:08,0.5,-1.75,-0.25,0.07614967301044258,0.0,0.0,-1.0,0.0,0.0,0.0,0.0,0.0,0.0,-0.6855792682926829,-0.6855792682926829,0.0,0.0,0.0,0.0,-1.0,-1.0,-1.0,-1.0,44.008
2024-04-03 18:08:08,0.5,-1.75,-0.25,0.07614967301044258,0.0,0.0,-1.0,0.0,0.0,0.0,0.0,0.0,0.0,-0.9989939024390244,-0.9989939024390244,0.0,0.0,0.0,0.0,-1.0,-1.0,-1.0,-1.0,44.008
2024-04-03 18:08:08,0.5,-1.75,-0.3125,0.07614967301044258,0.0,0.0,-1.0,0.0,0.0,0.0,0.0,0.0,0.0,-0.3564939024390244,-0.3564939024390244,0.0,0.0,0.0,0.0,-1.0,-1.0,-1.0,-1.0,44.008
2024-04-03 18:08:08,0.5,-1.75,-0.25,0.07614967301044258,0.0,0.0,-1.0,0.0,0.0,-0.1449390243902439,0.1449390243902439,0.1449390243902439,-0.1449390243902439,0.9989939024390244,0.9989939024390244,0.0,0.0,0.0,0.0,-1.0,-1.0,-1.0,-1.0,44.546
2024-04-03 18:08:08,0.5,-1.75,-0.25,0.07614967301044258,0.0,0.0,0.0,0.0,0.0,0.0,0.0,0.0,0.0,-0.4113414634146341,-0.4113414634146341,0.0,0.0,0.0,0.0,-1.0,-1.0,-1.0,-1.0,44.008
2024-04-03 18:08:08,0.5,-1.75,-0.25,0.07614967301044258,0.0,0.0,-1.0,0.0,0.0,0.0,0.0,0.0,0.0,-0.9989939024390244,-0.9989939024390244,0.0,0.0,0.0,0.0,-1.0,-1.0,-1.0,-1.0,44.546
2024-04-03 18:08:08,0.5,-1.75,-0.25,0.07045311271229014,0.0,0.0,-1.0,0.0,0.0,0.0,0.0,0.0,0.0,0.10576219512195122,0.10576219512195122,0.0,0.0,0.0,0.0,-1.0,-1.0,-1.0,-1.0,44.008
2024-04-03 18:08:08,0.5,-1.75,-0.3125,0.07045311271229014,0.0,0.0,112.0,0.0,0.0,-0.3721646341463415,0.3721646341463415,0.3721646341463415,-0.3721646341463415,0.9989939024390244,0.9989939024390244,0.0,0.0,0.0,0.0,-1.0,-1.0,-1.0,-1.0,44.008
2024-04-03 18:08:08,0.5,-1.75,-0.3125,0.07045311271229014,0.0,0.0,-1.0,0.0,0.0,0.0,0.0,0.0,0.0,-0.0,0.0,0.0,0.0,0.0,0.0,-1.0,-1.0,-1.0,-1.0,44.008
2024-04-03 18:08:08,0.5,-1.75,-0.3125,0.07045311271229014,0.0,0.0,-1.0,0.0,0.0,0.1449390243902439,-0.1449390243902439,-0.1449390243902439,0.1449390243902439,-0.9989939024390244,-0.9989939024390244,0.0,0.0,0.0,0.0,-1.0,-1.0,-1.0,-1.0,44.546
2024-04-03 18:08:08,0.5,-1.75,-0.3125,0.07045311271229014,0.0,0.0,-1.0,0.0,0.0,0.0,0.0,0.0,0.0,-0.0,0.0,0.0,0.0,0.0,0.0,-1.0,-1.0,-1.0,-1.0,43.47
2024-04-03 18:08:08,0.5,-1.75,-0.3125,0.07045311271229014,0.0,0.0,-1.0,0.0,0.0,0.0,0.0,0.0,0.0,-0.0,0.0,0.0,0.0,0.0,0.0,-1.0,-1.0,-1.0,-1.0,44.546
2024-04-03 18:08:09,0.5,-1.75,-0.3125,0.07045311271229014,0.0,0.0,-1.0,0.0,0.0,0.0,0.0,0.0,0.0,-0.0,0.0,0.0,0.0,0.0,0.0,-1.0,-1.0,-1.0,-1.0,44.008
2024-04-03 18:08:09,0.5,-1.75,-0.3125,0.07045311271229014,0.0,0.0,-1.0,0.0,0.0,0.0,0.0,0.0,0.0,-0.0,0.0,0.0,0.0,0.0,0.0,-1.0,-1.0,-1.0,-1.0,44.546
2024-04-03 18:08:09,0.5,-1.75,-0.3125,0.07045311271229014,0.0,0.0,-1.0,0.0,0.0,0.9989939024390244,0.9989939024390244,-0.9989939024390244,-0.9989939024390244,-0.0,0.0,0.0,0.0,0.0,0.0,-1.0,-1.0,-1.0,-1.0,44.546
2024-04-03 18:08:09,0.5,-1.75,-0.25,0.07045311271229014,0.0,0.0,-1.0,0.0,0.0,0.9989939024390244,0.9989939024390244,-0.9989939024390244,-0.9989939024390244,-0.0,0.0,0.0,0.0,0.0,0.0,-1.0,-1.0,-1.0,-1.0,44.546
2024-04-03 18:08:09,0.5,-1.75,-0.25,0.07045311271229014,0.0,0.0,-1.0,0.0,0.0,0.3212195121951219,0.20371951219512194,-0.20371951219512194,-0.3212195121951219,-0.0,0.0,0.0,0.0,0.0,0.0,-1.0,-1.0,-1.0,-1.0,44.546
2024-04-03 18:08:09,0.5,-1.75,-0.25,0.07045311271229014,0.0,0.0,-1.0,0.0,0.0,-0.9989939024390244,-0.9989939024390244,0.9989939024390244,0.9989939024390244,-0.0,0.0,0.0,0.0,0.0,0.0,-1.0,-1.0,-1.0,-1.0,44.008
2024-04-03 18:08:09,0.5,-1.75,-0.25,0.07045311271229014,0.0,0.0,-1.0,0.0,0.0,-0.9989939024390244,-0.9989939024390244,0.9989939024390244,0.9989939024390244,-0.0,0.0,0.0,0.0,0.0,0.0,-1.0,-1.0,-1.0,-1.0,44.008
2024-04-03 18:08:09,0.5,-1.75,-0.25,0.07045311271229014,0.0,0.0,-1.0,0.0,0.0,0.07442073170731707,0.07442073170731707,-0.07442073170731707,-0.07442073170731707,-0.0,0.0,0.0,0.0,0.0,0.0,-1.0,-1.0,-1.0,-1.0,44.008
2024-04-03 18:08:09,0.5,-1.75,-0.25,0.0773168414897696,0.0,0.0,-1.0,0.0,0.0,0.7247560975609756,0.7247560975609756,-0.7247560975609756,-0.7247560975609756,-0.0,0.0,0.0,0.0,0.0,0.0,-1.0,-1.0,-1.0,-1.0,44.008
2024-04-03 18:08:09,0.5,-1.75,-0.1875,0.0773168414897696,0.0,0.0,-1.0,0.0,0.0,-1.0,-0.948079268292683,0.948079268292683,1.0,-0.0,0.0,0.0,0.0,0.0,0.0,-1.0,-1.0,-1.0,-1.0,44.008
2024-04-03 18:08:09,0.5,-1.75,-0.25,0.0773168414897696,0.0,0.0,-1.0,0.0,0.0,-1.0,-0.9324085365853658,0.9324085365853658,1.0,-0.0,0.0,0.0,0.0,0.0,0.0,-1.0,-1.0,-1.0,-1.0,44.008
2024-04-03 18:08:09,0.5,-1.75,-0.1875,0.0773168414897696,0.0,0.0,112.0,0.0,0.0,0.9989939024390244,0.9989939024390244,-0.9989939024390244,-0.9989939024390244,-0.0,0.0,0.0,0.0,0.0,0.0,-1.0,-1.0,-1.0,-1.0,44.546
2024-04-03 18:08:09,0.5,-1.75,-0.1875,0.0773168414897696,0.0,0.0,-1.0,0.0,0.0,-0.9323780487804878,-0.626829268292683,0.626829268292683,0.9323780487804878,-0.0,0.0,0.0,0.0,0.0,0.0,-1.0,-1.0,-1.0,-1.0,44.008
2024-04-03 18:08:10,0.5,-1.75,-0.1875,0.0773168414897696,0.0,0.0,113.0,0.0,0.0,-1.0,-0.7835365853658537,0.7835365853658537,1.0,-0.0,0.0,0.0,0.0,0.0,0.0,-1.0,-1.0,-1.0,-1.0,44.008
2024-04-03 18:08:10,0.5,-1.75,-0.1875,0.0773168414897696,0.0,0.0,-1.0,0.0,0.0,0.4661890243902439,0.4661890243902439,-0.4661890243902439,-0.4661890243902439,-0.0,0.0,0.0,0.0,0.0,0.0,-1.0,-1.0,-1.0,-1.0,44.008
2024-04-03 18:08:10,0.5,-1.75,-0.25,0.0773168414897696,0.0,0.0,-1.0,0.0,0.0,0.9989939024390244,0.9989939024390244,-0.9989939024390244,-0.9989939024390244,-0.0,0.0,0.0,0.0,0.0,0.0,-1.0,-1.0,-1.0,-1.0,44.008
2024-04-03 18:08:10,0.5,-1.75,-0.1875,0.0773168414897696,0.0,0.0,113.0,0.0,0.0,0.6268292682926829,0.8383536585365853,-0.8383536585365853,-0.6268292682926829,-0.0,0.0,0.0,0.0,0.0,0.0,-1.0,-1.0,-1.0,-1.0,44.008
2024-04-03 18:08:10,0.5,-1.75,-0.1875,0.0773168414897696,0.0,0.0,-1.0,0.0,0.0,-1.0,-0.8462195121951219,0.8462195121951219,1.0,-0.0,0.0,0.0,0.0,0.0,0.0,-1.0,-1.0,-1.0,-1.0,44.008
2024-04-03 18:08:10,0.5,-1.75,-0.25,0.0773168414897696,0.0,0.0,-1.0,0.0,0.0,-1.0,-0.8462195121951219,0.8462195121951219,1.0,-0.0,0.0,0.0,0.0,0.0,0.0,-1.0,-1.0,-1.0,-1.0,44.546
2024-04-03 18:08:10,0.5,-1.75,-0.1875,0.0773168414897696,0.0,0.0,113.0,0.0,0.0,0.19978658536585367,0.19978658536585367,-0.19978658536585367,-0.19978658536585367,-0.0,0.0,0.0,0.0,0.0,0.0,-1.0,-1.0,-1.0,-1.0,44.008
2024-04-03 18:08:10,0.5,-1.75,-0.1875,0.0773168414897696,0.0,0.0,-1.0,0.0,0.0,1.0,0.8853963414634146,-0.8853963414634146,-1.0,-0.0,0.0,0.0,0.0,0.0,0.0,-1.0,-1.0,-1.0,-1.0,44.008
2024-04-03 18:08:10,0.5,-1.75,-0.25,0.0773168414897696,0.0,0.0,-1.0,0.0,0.0,0.9989939024390244,0.9989939024390244,-0.9989939024390244,-0.9989939024390244,-0.0,0.0,0.0,0.0,0.0,0.0,-1.0,-1.0,-1.0,-1.0,44.008
2024-04-03 18:08:10,0.5,-1.75,-0.1875,0.07686313785264168,0.0,0.0,113.0,0.0,0.0,-1.0,-0.8540548780487806,0.8540548780487806,1.0,-0.0,0.0,0.0,0.0,0.0,0.0,-1.0,-1.0,-1.0,-1.0,44.008
2024-04-03 18:08:10,0.5,-1.75,-0.1875,0.07686313785264168,0.0,0.0,-1.0,0.0,0.0,-1.0,-0.8540548780487806,0.8540548780487806,1.0,-0.0,0.0,0.0,0.0,0.0,0.0,-1.0,-1.0,-1.0,-1.0,44.008
2024-04-03 18:08:10,0.5,-1.75,-0.1875,0.07686313785264168,0.0,0.0,-1.0,0.0,0.0,-0.10576219512195122,-0.10576219512195122,0.10576219512195122,0.10576219512195122,-0.0,0.0,0.0,0.0,0.0,0.0,-1.0,-1.0,-1.0,-1.0,44.008
2024-04-03 18:08:10,0.5,-1.75,-0.25,0.07686313785264168,0.0,0.0,112.0,0.0,0.0,0.9989939024390244,0.9989939024390244,-0.9989939024390244,-0.9989939024390244,-0.0,0.0,0.0,0.0,0.0,0.0,-1.0,-1.0,-1.0,-1.0,44.008
2024-04-03 18:08:10,0.5,-1.75,-0.1875,0.07686313785264168,0.0,0.0,-1.0,0.0,0.0,0.9989939024390244,0.9989939024390244,-0.9989939024390244,-0.9989939024390244,-0.0,0.0,0.0,0.0,0.0,0.0,-1.0,-1.0,-1.0,-1.0,44.546
2024-04-03 18:08:10,0.5,-1.75,-0.125,0.07686313785264168,0.0,0.0,-1.0,0.0,0.0,-1.0,-0.524969512195122,0.524969512195122,1.0,-0.0,0.0,0.0,0.0,0.0,0.0,-1.0,-1.0,-1.0,-1.0,44.008
2024-04-03 18:08:11,0.5,-1.75,-0.25,0.07686313785264168,0.0,0.0,-1.0,0.0,0.0,-1.0,-0.6660060975609756,0.6660060975609756,1.0,-0.0,0.0,0.0,0.0,0.0,0.0,-1.0,-1.0,-1.0,-1.0,44.546
2024-04-03 18:08:11,0.5,-1.75,-0.1875,0.07686313785264168,0.0,0.0,-1.0,0.0,0.0,-0.06658536585365854,0.06658536585365854,-0.06658536585365854,0.06658536585365854,-0.0,0.0,0.0,0.0,0.0,0.0,-1.0,-1.0,-1.0,-1.0,44.008
2024-04-03 18:08:11,0.5,-1.75,-0.125,0.07686313785264168,0.0,0.0,-1.0,0.0,0.0,0.8853963414634146,1.0,-1.0,-0.8853963414634146,-0.0,0.0,0.0,0.0,0.0,0.0,-1.0,-1.0,-1.0,-1.0,45.084
2024-04-03 18:08:11,0.5,-1.75,-0.25,0.07686313785264168,0.0,0.0,-1.0,0.0,0.0,0.9989939024390244,0.9989939024390244,-0.9989939024390244,-0.9989939024390244,-0.0,0.0,0.0,0.0,0.0,0.0,-1.0,-1.0,-1.0,-1.0,45.084
2024-04-03 18:08:11,0.5,-1.75,-0.1875,0.07686313785264168,0.0,0.0,-1.0,0.0,0.0,0.21152439024390243,0.031341463414634146,-0.031341463414634146,-0.21152439024390243,-0.0,0.0,0.0,0.0,0.0,0.0,-1.0,-1.0,-1.0,-1.0,44.008
2024-04-03 18:08:11,0.5,-1.75,-0.1875,0.07686313785264168,0.0,0.0,113.0,0.0,0.0,-0.9989939024390244,-0.9989939024390244,0.9989939024390244,0.9989939024390244,-0.0,0.0,0.0,0.0,0.0,0.0,-1.0,-1.0,-1.0,-1.0,44.008
2024-04-03 18:08:11,0.5,-1.75,-0.1875,0.07686313785264168,0.0,0.0,-1.0,0.0,0.0,-0.19978658536585367,-0.19978658536585367,0.19978658536585367,0.19978658536585367,-0.0,0.0,0.0,0.0,0.0,0.0,-1.0,-1.0,-1.0,-1.0,44.008
2024-04-03 18:08:11,0.5,-1.75,-0.125,0.08292355339006677,0.0,0.0,0.0,0.0,0.0,0.9989939024390244,0.9989939024390244,-0.9989939024390244,-0.9989939024390244,-0.0,0.0,0.0,0.0,0.0,0.0,-1.0,-1.0,-1.0,-1.0,44.008
2024-04-03 18:08:11,0.5,-1.75,-0.1875,0.08292355339006677,0.0,0.0,-1.0,0.0,0.0,-0.5288719512195122,-0.5288719512195122,0.5288719512195122,0.5288719512195122,-0.0,0.0,0.0,0.0,0.0,0.0,-1.0,-1.0,-1.0,-1.0,44.546
2024-04-03 18:08:11,0.5,-1.75,-0.125,0.08292355339006677,0.0,0.0,112.0,0.0,0.0,-0.9989939024390244,-0.9989939024390244,0.9989939024390244,0.9989939024390244,-0.0,0.0,0.0,0.0,0.0,0.0,-1.0,-1.0,-1.0,-1.0,44.008
2024-04-03 18:08:11,0.5,-1.75,-0.1875,0.08292355339006677,0.0,0.0,-1.0,0.0,0.0,0.0,0.0,0.0,0.0,-0.0,0.0,0.0,0.0,0.0,0.0,-1.0,-1.0,-1.0,-1.0,44.546
2024-04-03 18:08:11,0.5,-1.75,-0.1875,0.08292355339006677,0.0,0.0,-1.0,0.0,0.0,0.9989939024390244,0.9989939024390244,-0.9989939024390244,-0.9989939024390244,-0.0,0.0,0.0,0.0,0.0,0.0,-1.0,-1.0,-1.0,-1.0,44.008
2024-04-03 18:08:11,0.5,-1.75,-0.125,0.08292355339006677,0.0,0.0,111.0,0.0,0.0,0.8892987804878049,0.8892987804878049,-0.8892987804878049,-0.8892987804878049,-0.0,0.0,0.0,0.0,0.0,0.0,-1.0,-1.0,-1.0,-1.0,44.008
2024-04-03 18:08:12,0.5,-1.75,-0.1875,0.08292355339006677,0.0,0.0,-1.0,0.0,0.0,-0.17628048780487804,-0.17628048780487804,0.17628048780487804,0.17628048780487804,-0.0,0.0,0.0,0.0,0.0,0.0,-1.0,-1.0,-1.0,-1.0,44.546
2024-04-03 18:08:12,0.5,-1.75,-0.1875,0.08292355339006677,0.0,0.0,-1.0,0.0,0.0,-0.8305487804878049,-0.9323780487804878,0.9323780487804878,0.8305487804878049,-0.0,0.0,0.0,0.0,0.0,0.0,-1.0,-1.0,-1.0,-1.0,45.084
2024-04-03 18:08:12,0.5,-1.75,-0.125,0.08292355339006677,0.0,0.0,112.0,0.0,0.0,-0.10185975609756098,-0.28204268292682927,0.28204268292682927,0.10185975609756098,-0.0,0.0,0.0,0.0,0.0,0.0,-1.0,-1.0,-1.0,-1.0,45.084
2024-04-03 18:08:12,0.5,-1.75,-0.1875,0.08292355339006677,0.0,0.0,-1.0,0.0,0.0,0.4191768292682927,0.4191768292682927,-0.4191768292682927,-0.4191768292682927,-0.0,0.0,0.0,0.0,0.0,0.0,-1.0,-1.0,-1.0,-1.0,45.084
2024-04-03 18:08:12,0.5,-1.75,-0.1875,0.08292355339006677,0.0,0.0,-1.0,0.0,0.0,0.9989939024390244,0.9989939024390244,-0.9989939024390244,-0.9989939024390244,-0.0,0.0,0.0,0.0,0.0,0.0,-1.0,-1.0,-1.0,-1.0,45.084
2024-04-03 18:08:12,0.5,-1.75,-0.1875,0.07825632030409962,0.0,0.0,111.0,0.0,0.0,0.3329878048780488,0.3329878048780488,-0.3329878048780488,-0.3329878048780488,-0.0,0.0,0.0,0.0,0.0,0.0,-1.0,-1.0,-1.0,-1.0,45.084
2024-04-03 18:08:12,0.5,-1.75,-0.1875,0.07825632030409962,0.0,0.0,-1.0,0.0,0.0,-0.5445426829268293,-0.5445426829268293,0.5445426829268293,0.5445426829268293,-0.0,0.0,0.0,0.0,0.0,0.0,-1.0,-1.0,-1.0,-1.0,44.008
2024-04-03 18:08:12,0.5,-1.75,-0.1875,0.07825632030409962,0.0,0.0,-1.0,0.0,0.0,-0.7756707317073172,-0.6268292682926829,0.6268292682926829,0.7756707317073172,-0.0,0.0,0.0,0.0,0.0,0.0,-1.0,-1.0,-1.0,-1.0,44.008
2024-04-03 18:08:12,0.5,-1.75,-0.1875,0.07825632030409962,0.0,0.0,110.0,0.0,0.0,0.0,0.0,0.0,0.0,-0.0,0.0,0.0,0.0,0.0,0.0,-1.0,-1.0,-1.0,-1.0,44.546
2024-04-03 18:08:12,0.5,-1.75,-0.1875,0.07825632030409962,0.0,0.0,-1.0,0.0,0.0,0.0,0.0,0.0,0.0,-0.0,0.0,0.0,0.0,0.0,0.0,-1.0,-1.0,-1.0,-1.0,44.546
2024-04-03 18:08:12,0.5,-1.75,-0.1875,0.07825632030409962,0.0,0.0,-1.0,0.0,0.0,0.0,0.0,0.0,0.0,-0.0,0.0,0.0,0.0,0.0,0.0,-1.0,-1.0,-1.0,-1.0,44.008
2024-04-03 18:08:12,0.5,-1.75,-0.1875,0.07825632030409962,0.0,0.0,111.0,0.0,0.0,0.0,0.0,0.0,0.0,-0.0,0.0,0.0,0.0,0.0,0.0,-1.0,-1.0,-1.0,-1.0,45.084
2024-04-03 18:08:12,0.5,-1.75,-0.1875,0.07825632030409962,0.0,0.0,-1.0,0.0,0.0,0.0,0.0,0.0,0.0,-0.0,0.0,0.0,0.0,0.0,0.0,-1.0,-1.0,-1.0,-1.0,44.008
2024-04-03 18:08:12,0.5,-1.75,-0.1875,0.07825632030409962,0.0,0.0,-1.0,0.0,0.0,0.0,0.0,0.0,0.0,-0.0,0.0,0.0,0.0,0.0,0.0,-1.0,-1.0,-1.0,-1.0,45.084
2024-04-03 18:08:12,0.5,-1.75,-0.125,0.07825632030409962,0.0,0.0,0.0,0.0,0.0,0.0,0.0,0.0,0.0,-0.0,0.0,0.0,0.0,0.0,0.0,-1.0,-1.0,-1.0,-1.0,44.008
2024-04-03 18:08:13,0.5,-1.75,-0.125,0.07825632030409962,0.0,0.0,-1.0,0.0,0.0,0.0,0.0,0.0,0.0,-0.0,0.0,0.0,0.0,0.0,0.0,-1.0,-1.0,-1.0,-1.0,44.008
2024-04-03 18:08:13,0.5,-1.75,-0.125,0.07825632030409962,0.0,0.0,-1.0,0.0,0.0,0.0,0.0,0.0,0.0,-0.0,0.0,0.0,0.0,0.0,0.0,-1.0,-1.0,-1.0,-1.0,44.546
2024-04-03 18:08:13,0.5,-1.75,-0.125,0.07825632030409962,0.0,0.0,111.0,0.0,0.0,0.0,0.0,0.0,0.0,-0.0,0.0,0.0,0.0,0.0,0.0,-1.0,-1.0,-1.0,-1.0,44.546
2024-04-03 18:08:13,0.5,-1.75,-0.125,0.07825632030409962,0.0,0.0,-1.0,0.0,0.0,0.0,0.0,0.0,0.0,-0.0,0.0,0.0,0.0,0.0,0.0,-1.0,-1.0,-1.0,-1.0,44.546
2024-04-03 18:08:13,0.5,-1.75,-0.1875,0.07867347296247104,0.0,0.0,-1.0,0.0,0.0,0.0,0.0,0.0,0.0,-0.0,0.0,0.0,0.0,0.0,0.0,-1.0,-1.0,-1.0,-1.0,44.008
2024-04-03 18:08:13,0.5,-1.75,-0.125,0.07867347296247104,0.0,0.0,-1.0,0.0,0.0,0.0,0.0,0.0,0.0,-0.0,0.0,0.0,0.0,0.0,0.0,-1.0,-1.0,-1.0,-1.0,44.546
2024-04-03 18:08:13,0.5,-1.75,-0.125,0.07867347296247104,0.0,0.0,-1.0,0.0,0.0,0.0,0.0,0.0,0.0,-0.0,0.0,0.0,0.0,0.0,0.0,-1.0,-1.0,-1.0,-1.0,44.008
2024-04-03 18:08:13,0.5,-1.75,-0.125,0.07867347296247104,0.0,0.0,-1.0,0.0,0.0,0.0,0.0,0.0,0.0,-0.0,0.0,0.0,0.0,0.0,0.0,-1.0,-1.0,-1.0,-1.0,44.008
2024-04-03 18:08:13,0.5,-1.75,-0.125,0.07867347296247104,0.0,0.0,-1.0,0.0,0.0,0.0,0.0,0.0,0.0,-0.0,0.0,1.0,1.0,1.0,1.0,-1.0,-1.0,-1.0,-1.0,45.084
2024-04-03 18:08:13,0.5,-1.75,-0.125,0.07867347296247104,0.0,0.0,-1.0,0.0,0.0,0.0,0.0,0.0,0.0,-0.0,0.0,1.0,1.0,1.0,1.0,-1.0,-1.0,-1.0,-1.0,44.546
2024-04-03 18:08:13,0.5,-1.75,-0.125,0.07867347296247104,0.0,0.0,112.0,0.0,0.0,0.0,0.0,0.0,0.0,-0.0,0.0,1.0,1.0,1.0,1.0,-1.0,-1.0,-1.0,-1.0,44.546
2024-04-03 18:08:13,0.5,-1.75,-0.125,0.07867347296247104,0.0,0.0,-1.0,0.0,0.0,0.0,0.0,0.0,0.0,-0.0,0.0,1.0,1.0,1.0,1.0,-1.0,-1.0,-1.0,-1.0,44.008
2024-04-03 18:08:13,0.5,-1.75,-0.125,0.07867347296247104,0.0,0.0,-1.0,0.0,0.0,0.0,0.0,0.0,0.0,-0.0,0.0,1.0,1.0,1.0,1.0,-1.0,-1.0,-1.0,-1.0,44.008
2024-04-03 18:08:14,0.5,-1.75,-0.125,0.07867347296247104,0.0,0.0,-1.0,0.0,0.0,0.0,0.0,0.0,0.0,-0.0,0.0,1.0,1.0,1.0,1.0,-1.0,-1.0,-1.0,-1.0,44.546
2024-04-03 18:08:14,0.5,-1.75,-0.125,0.07867347296247104,0.0,0.0,-1.0,0.0,0.0,0.0,0.0,0.0,0.0,-0.0,0.0,1.0,1.0,1.0,1.0,-1.0,-1.0,-1.0,-1.0,44.008
2024-04-03 18:08:14,0.5,-1.75,-0.125,0.07867347296247104,0.0,0.0,-1.0,0.0,0.0,0.0,0.0,0.0,0.0,-0.0,0.0,1.0,1.0,1.0,1.0,-1.0,-1.0,-1.0,-1.0,44.008
2024-04-03 18:08:14,0.5,-1.75,-0.125,0.07867347296247104,0.0,0.0,-1.0,0.0,0.0,0.0,0.0,0.0,0.0,-0.0,0.0,1.0,1.0,1.0,1.0,-1.0,-1.0,-1.0,-1.0,44.008
2024-04-03 18:08:14,0.5,-1.75,-0.125,0.07867347296247104,0.0,0.0,-1.0,0.0,0.0,0.0,0.0,0.0,0.0,-0.0,0.0,1.0,1.0,1.0,1.0,-1.0,-1.0,-1.0,-1.0,44.008
2024-04-03 18:08:14,0.5,-1.75,-0.125,0.07806285664242932,0.0,0.0,80.0,0.0,0.0,0.0,0.0,0.0,0.0,-0.0,0.0,1.0,1.0,1.0,1.0,-1.0,-1.0,-1.0,-1.0,44.546
2024-04-03 18:08:14,0.5,-1.75,-0.125,0.07806285664242932,0.0,0.0,-1.0,0.0,0.0,0.0,0.0,0.0,0.0,-0.0,0.0,1.0,1.0,1.0,1.0,-1.0,-1.0,-1.0,-1.0,45.084
2024-04-03 18:08:14,0.5,-1.75,-0.125,0.07806285664242932,0.0,0.0,-1.0,0.0,0.0,0.0,0.0,0.0,0.0,-0.0,0.0,1.0,1.0,1.0,1.0,-1.0,-1.0,-1.0,-1.0,44.008
2024-04-03 18:08:14,0.5,-1.75,-0.125,0.07806285664242932,0.0,0.0,-1.0,0.0,0.0,0.0,0.0,0.0,0.0,-0.0,0.0,1.0,1.0,1.0,1.0,-1.0,-1.0,-1.0,-1.0,44.008
2024-04-03 18:08:14,0.5,-1.75,-0.125,0.07806285664242932,0.0,0.0,-1.0,0.0,0.0,0.0,0.0,0.0,0.0,-0.0,0.0,1.0,1.0,1.0,1.0,-1.0,-1.0,-1.0,-1.0,44.546
2024-04-03 18:08:14,0.5,-1.75,-0.125,0.07806285664242932,0.0,0.0,-1.0,0.0,0.0,0.0,0.0,0.0,0.0,-0.0,0.0,1.0,1.0,1.0,1.0,-1.0,-1.0,-1.0,-1.0,44.008
2024-04-03 18:08:14,0.5,-1.75,-0.125,0.07806285664242932,0.0,0.0,-1.0,0.0,0.0,0.0,0.0,0.0,0.0,-0.0,0.0,1.0,1.0,1.0,1.0,-1.0,-1.0,-1.0,-1.0,44.546
2024-04-03 18:08:14,0.5,-1.75,-0.125,0.07806285664242932,0.0,0.0,-1.0,0.0,0.0,0.0,0.0,0.0,0.0,-0.0,0.0,1.0,1.0,1.0,1.0,-1.0,-1.0,-1.0,-1.0,45.084
2024-04-03 18:08:14,0.5,-1.75,-0.125,0.07806285664242932,0.0,0.0,-1.0,0.0,0.0,0.0,0.0,0.0,0.0,-0.0,0.0,1.0,1.0,1.0,1.0,-1.0,-1.0,-1.0,-1.0,44.546
2024-04-03 18:08:14,0.5,-1.75,-0.125,0.07806285664242932,0.0,0.0,-1.0,0.0,0.0,0.0,0.0,0.0,0.0,-0.0,0.0,1.0,1.0,1.0,1.0,-1.0,-1.0,-1.0,-1.0,44.008
2024-04-03 18:08:15,0.5,-1.75,-0.125,0.07806285664242932,0.0,0.0,-1.0,0.0,0.0,0.0,0.0,0.0,0.0,-0.0,0.0,1.0,1.0,1.0,1.0,-1.0,-1.0,-1.0,-1.0,45.084
2024-04-03 18:08:15,0.5,-1.75,-0.125,0.07806285664242932,0.0,0.0,-1.0,0.0,0.0,0.0,0.0,0.0,0.0,-0.0,0.0,1.0,1.0,1.0,1.0,-1.0,-1.0,-1.0,-1.0,44.008
2024-04-03 18:08:15,0.5,-1.75,-0.125,0.07806285664242932,0.0,0.0,-1.0,0.0,0.0,0.0,0.0,0.0,0.0,-0.0,0.0,1.0,1.0,1.0,1.0,-1.0,-1.0,-1.0,-1.0,44.546
2024-04-03 18:08:15,0.5,-1.75,-0.125,0.07806285664242932,0.0,0.0,-1.0,0.0,0.0,0.0,0.0,0.0,0.0,-0.0,0.0,1.0,1.0,1.0,1.0,-1.0,-1.0,-1.0,-1.0,44.008
2024-04-03 18:08:15,0.5,-1.75,-0.125,0.07913805814318278,0.0,0.0,-1.0,0.0,0.0,0.0,0.0,0.0,0.0,-0.0,0.0,1.0,1.0,1.0,1.0,-1.0,-1.0,-1.0,-1.0,44.546
2024-04-03 18:08:15,0.5,-1.75,-0.125,0.07913805814318278,0.0,0.0,-1.0,0.0,0.0,0.0,0.0,0.0,0.0,-0.0,0.0,1.0,1.0,1.0,1.0,-1.0,-1.0,-1.0,-1.0,44.008
2024-04-03 18:08:15,0.5,-1.75,-0.1875,0.07913805814318278,0.0,0.0,-1.0,0.0,0.0,0.0,0.0,0.0,0.0,-0.0,0.0,1.0,1.0,1.0,1.0,-1.0,-1.0,-1.0,-1.0,45.084
2024-04-03 18:08:15,0.5,-1.75,-0.1875,0.07913805814318278,0.0,0.0,-1.0,0.0,0.0,0.0,0.0,0.0,0.0,-0.0,0.0,1.0,1.0,1.0,1.0,-1.0,-1.0,-1.0,-1.0,44.008
2024-04-03 18:08:15,0.5,-1.75,-0.125,0.07913805814318278,0.0,0.0,-1.0,0.0,0.0,0.0,0.0,0.0,0.0,-0.0,0.0,1.0,1.0,1.0,1.0,-1.0,-1.0,-1.0,-1.0,44.546
2024-04-03 18:08:15,0.5,-1.75,-0.1875,0.07913805814318278,0.0,0.0,-1.0,0.0,0.0,0.0,0.0,0.0,0.0,-0.0,0.0,1.0,1.0,1.0,1.0,-1.0,-1.0,-1.0,-1.0,44.008
2024-04-03 18:08:15,0.5,-1.75,-0.1875,0.07913805814318278,0.0,0.0,-1.0,0.0,0.0,0.0,0.0,0.0,0.0,-0.0,0.0,1.0,1.0,1.0,1.0,-1.0,-1.0,-1.0,-1.0,44.546
2024-04-03 18:08:15,0.5,-1.75,-0.125,0.07913805814318278,0.0,0.0,-1.0,0.0,0.0,0.0,0.0,0.0,0.0,-0.0,0.0,1.0,1.0,1.0,1.0,-1.0,-1.0,-1.0,-1.0,44.546
2024-04-03 18:08:15,0.5,-1.75,-0.1875,0.07913805814318278,0.0,0.0,-1.0,0.0,0.0,0.0,0.0,0.0,0.0,-0.0,0.0,1.0,1.0,1.0,1.0,-1.0,-1.0,-1.0,-1.0,44.008
2024-04-03 18:08:15,0.5,-1.75,-0.1875,0.07913805814318278,0.0,0.0,-1.0,0.0,0.0,0.0,0.0,0.0,0.0,-0.0,0.0,1.0,1.0,1.0,1.0,-1.0,-1.0,-1.0,-1.0,44.008
2024-04-03 18:08:16,0.5,-1.75,-0.1875,0.07913805814318278,0.0,0.0,-1.0,0.0,0.0,0.0,0.0,0.0,0.0,-0.0,0.0,1.0,1.0,1.0,1.0,-1.0,-1.0,-1.0,-1.0,44.546
2024-04-03 18:08:16,0.5,-1.75,-0.1875,0.07913805814318278,0.0,0.0,-1.0,0.0,0.0,0.0,0.0,0.0,0.0,-0.0,0.0,1.0,1.0,1.0,1.0,-1.0,-1.0,-1.0,-1.0,44.008
2024-04-03 18:08:16,0.5,-1.75,-0.1875,0.07913805814318278,0.0,0.0,-1.0,0.0,0.0,0.0,0.0,0.0,0.0,-0.0,0.0,1.0,1.0,1.0,1.0,-1.0,-1.0,-1.0,-1.0,44.546
2024-04-03 18:08:16,0.5,-1.75,-0.1875,0.07913805814318278,0.0,0.0,-1.0,0.0,0.0,0.0,0.0,0.0,0.0,-0.0,0.0,1.0,1.0,1.0,1.0,-1.0,-1.0,-1.0,-1.0,44.008
2024-04-03 18:08:16,0.5,-1.75,-0.1875,0.07913805814318278,0.0,0.0,-1.0,0.0,0.0,0.0,0.0,0.0,0.0,-0.0,0.0,1.0,1.0,1.0,1.0,-1.0,-1.0,-1.0,-1.0,44.008
2024-04-03 18:08:16,0.5,-1.75,-0.1875,0.07913805814318278,0.0,0.0,-1.0,0.0,0.0,0.0,0.0,0.0,0.0,-0.0,0.0,1.0,1.0,1.0,1.0,-1.0,-1.0,-1.0,-1.0,44.008
2024-04-03 18:08:16,0.5,-1.75,-0.1875,0.08051485802293136,0.0,0.0,77.0,0.0,0.0,0.0,0.0,0.0,0.0,-0.0,0.0,1.0,1.0,1.0,1.0,-1.0,-1.0,-1.0,-1.0,44.008
2024-04-03 18:08:16,0.5,-1.75,-0.1875,0.08051485802293136,0.0,0.0,-1.0,0.0,0.0,0.0,0.0,0.0,0.0,-0.0,0.0,1.0,1.0,1.0,1.0,-1.0,-1.0,-1.0,-1.0,45.084
2024-04-03 18:08:16,0.5,-1.75,-0.125,0.08051485802293136,0.0,0.0,-1.0,0.0,0.0,0.0,0.0,0.0,0.0,-0.0,0.0,1.0,1.0,1.0,1.0,-1.0,-1.0,-1.0,-1.0,44.546
2024-04-03 18:08:16,0.5,-1.75,-0.1875,0.08051485802293136,0.0,0.0,-1.0,0.0,0.0,0.0,0.0,0.0,0.0,-0.0,0.0,1.0,1.0,1.0,1.0,-1.0,-1.0,-1.0,-1.0,44.546
2024-04-03 18:08:16,0.5,-1.75,-0.1875,0.08051485802293136,0.0,0.0,-1.0,0.0,0.0,0.0,0.0,0.0,0.0,-0.0,0.0,1.0,1.0,1.0,1.0,-1.0,-1.0,-1.0,-1.0,45.084
2024-04-03 18:08:16,0.5,-1.75,-0.1875,0.08051485802293136,0.0,0.0,-1.0,0.0,0.0,0.0,0.0,0.0,0.0,-0.0,0.0,1.0,1.0,1.0,1.0,-1.0,-1.0,-1.0,-1.0,44.008
2024-04-03 18:08:16,0.5,-1.75,-0.1875,0.08051485802293136,0.0,0.0,-1.0,0.0,0.0,0.0,0.0,0.0,0.0,-0.0,0.0,1.0,1.0,1.0,1.0,-1.0,-1.0,-1.0,-1.0,44.546
2024-04-03 18:08:16,0.5,-1.75,-0.1875,0.08051485802293136,0.0,0.0,-1.0,0.0,0.0,0.0,0.0,0.0,0.0,-0.0,0.0,1.0,1.0,1.0,1.0,-1.0,-1.0,-1.0,-1.0,44.008
2024-04-03 18:08:17,0.5,-1.75,-0.125,0.08051485802293136,0.0,0.0,-1.0,0.0,0.0,0.0,0.0,0.0,0.0,-0.0,0.0,1.0,1.0,1.0,1.0,-1.0,-1.0,-1.0,-1.0,44.546
2024-04-03 18:08:17,0.5,-1.75,-0.1875,0.08051485802293136,0.0,0.0,-1.0,0.0,0.0,0.0,0.0,0.0,0.0,-0.0,0.0,1.0,1.0,1.0,1.0,-1.0,-1.0,-1.0,-1.0,44.546
2024-04-03 18:08:17,0.5,-1.75,-0.1875,0.08051485802293136,0.0,0.0,77.0,0.0,0.0,0.0,0.0,0.0,0.0,-0.0,0.0,1.0,1.0,1.0,1.0,-1.0,-1.0,-1.0,-1.0,45.084
2024-04-03 18:08:17,0.5,-1.75,-0.1875,0.08051485802293136,0.0,0.0,-1.0,0.0,0.0,0.0,0.0,0.0,0.0,-0.0,0.0,1.0,1.0,1.0,1.0,-1.0,-1.0,-1.0,-1.0,44.008
2024-04-03 18:08:17,0.5,-1.75,-0.1875,0.08051485802293136,0.0,0.0,-1.0,0.0,0.0,0.0,0.0,0.0,0.0,-0.0,0.0,1.0,1.0,1.0,1.0,-1.0,-1.0,-1.0,-1.0,45.084
2024-04-03 18:08:17,0.5,-1.75,-0.1875,0.0804095508099019,0.0,0.0,-1.0,0.0,0.0,0.0,0.0,0.0,0.0,-0.0,0.0,1.0,1.0,1.0,1.0,-1.0,-1.0,-1.0,-1.0,44.008
2024-04-03 18:08:17,0.5,-1.75,-0.1875,0.0804095508099019,0.0,0.0,-1.0,0.0,0.0,0.0,0.0,0.0,0.0,-0.0,0.0,1.0,1.0,1.0,1.0,-1.0,-1.0,-1.0,-1.0,44.008
2024-04-03 18:08:17,0.5,-1.75,-0.1875,0.0804095508099019,0.0,0.0,76.0,0.0,0.0,0.0,0.0,0.0,0.0,-0.0,0.0,1.0,1.0,1.0,1.0,-1.0,-1.0,-1.0,-1.0,45.084
2024-04-03 18:08:17,0.5,-1.75,-0.1875,0.0804095508099019,0.0,0.0,-1.0,0.0,0.0,0.0,0.0,0.0,0.0,-0.0,0.0,1.0,1.0,1.0,1.0,-1.0,-1.0,-1.0,-1.0,44.008
2024-04-03 18:08:17,0.5,-1.75,-0.1875,0.0804095508099019,0.0,0.0,-1.0,0.0,0.0,0.0,0.0,0.0,0.0,-0.0,0.0,1.0,1.0,1.0,1.0,-1.0,-1.0,-1.0,-1.0,44.546
2024-04-03 18:08:17,0.5,-1.75,-0.1875,0.0804095508099019,0.0,0.0,-1.0,0.0,0.0,0.0,0.0,0.0,0.0,-0.0,0.0,1.0,1.0,1.0,1.0,-1.0,-1.0,-1.0,-1.0,44.008
2024-04-03 18:08:17,0.5,-1.75,-0.1875,0.0804095508099019,0.0,0.0,-1.0,0.0,0.0,0.0,0.0,0.0,0.0,-0.0,0.0,1.0,1.0,1.0,1.0,-1.0,-1.0,-1.0,-1.0,44.546
2024-04-03 18:08:17,0.5,-1.75,-0.1875,0.0804095508099019,0.0,0.0,-1.0,0.0,0.0,0.0,0.0,0.0,0.0,-0.0,0.0,1.0,1.0,1.0,1.0,-1.0,-1.0,-1.0,-1.0,45.084
2024-04-03 18:08:18,0.0,0.0,0.0,0.0804095508099019,0.0,0.0,-1.0,0.0,0.0,0.0,0.0,0.0,0.0,-0.0,0.0,1.0,1.0,1.0,1.0,-1.0,-1.0,-1.0,-1.0,44.546
2024-04-03 18:08:18,0.0,0.0,0.0,0.0804095508099019,0.0,0.0,-1.0,0.0,0.0,0.0,0.0,0.0,0.0,-0.0,0.0,1.0,1.0,1.0,1.0,-1.0,-1.0,-1.0,-1.0,44.546
2024-04-03 18:08:18,0.0,0.0,0.0,0.0804095508099019,0.0,0.0,76.0,0.0,0.0,0.0,0.0,0.0,0.0,-0.0,0.0,1.0,1.0,1.0,1.0,-1.0,-1.0,-1.0,-1.0,44.546
2024-04-03 18:08:18,0.0,0.0,0.0,0.0804095508099019,0.0,0.0,-1.0,0.0,0.0,0.0,0.0,0.0,0.0,-0.0,0.0,1.0,1.0,1.0,1.0,-1.0,-1.0,-1.0,-1.0,45.084
2024-04-03 18:08:18,0.0,0.0,0.0,0.0804095508099019,0.0,0.0,77.0,0.0,0.0,0.0,0.0,0.0,0.0,-0.0,0.0,1.0,1.0,1.0,1.0,-1.0,-1.0,-1.0,-1.0,44.008
2024-04-03 18:08:18,0.0,0.0,0.0,0.07775037907278712,0.0,0.0,-1.0,0.0,0.0,0.0,0.0,0.0,0.0,-0.0,0.0,1.0,1.0,1.0,1.0,-1.0,-1.0,-1.0,-1.0,44.546
2024-04-03 18:08:18,0.0,0.0,0.0,0.07775037907278712,0.0,0.0,-1.0,0.0,0.0,0.0,0.0,0.0,0.0,-0.0,0.0,1.0,1.0,1.0,1.0,-1.0,-1.0,-1.0,-1.0,44.546
2024-04-03 18:08:18,0.0,0.0,0.0,0.07775037907278712,0.0,0.0,0.0,0.0,0.0,0.0,0.0,0.0,0.0,-0.0,0.0,1.0,1.0,1.0,1.0,-1.0,-1.0,-1.0,-1.0,44.546
2024-04-03 18:08:18,0.0,0.0,0.0,0.07775037907278712,0.0,0.0,-1.0,0.0,0.0,0.0,0.0,0.0,0.0,-0.0,0.0,1.0,1.0,1.0,1.0,-1.0,-1.0,-1.0,-1.0,45.084
2024-04-03 18:08:18,0.0,0.0,0.0,0.07775037907278712,0.0,0.0,0.0,0.0,0.0,0.0,0.0,0.0,0.0,-0.0,0.0,1.0,1.0,1.0,1.0,-1.0,-1.0,-1.0,-1.0,44.008
2024-04-03 18:08:18,0.0,0.0,0.0,0.07775037907278712,0.0,0.0,-1.0,0.0,0.0,0.0,0.0,0.0,0.0,-0.0,0.0,1.0,1.0,1.0,1.0,-1.0,-1.0,-1.0,-1.0,44.008
2024-04-03 18:08:19,0.0,0.0,0.0,0.07775037907278712,0.0,0.0,77.0,0.0,0.0,0.0,0.0,0.0,0.0,-0.0,0.0,1.0,1.0,1.0,1.0,-1.0,-1.0,-1.0,-1.0,45.084
2024-04-03 18:08:19,0.0,0.0,0.0,0.07775037907278712,0.0,0.0,-1.0,0.0,0.0,0.0,0.0,0.0,0.0,-0.0,0.0,1.0,1.0,1.0,1.0,-1.0,-1.0,-1.0,-1.0,44.546
2024-04-03 18:08:19,0.0,0.0,0.0,0.07775037907278712,0.0,0.0,0.0,0.0,0.0,0.0,0.0,0.0,0.0,-0.0,0.0,1.0,1.0,1.0,1.0,-1.0,-1.0,-1.0,-1.0,44.008
2024-04-03 18:08:19,0.0,0.0,0.0,0.07775037907278712,0.0,0.0,-1.0,0.0,0.0,0.0,0.0,0.0,0.0,-0.0,0.0,1.0,1.0,1.0,1.0,-1.0,-1.0,-1.0,-1.0,45.084
2024-04-03 18:08:19,0.0,0.0,0.0,0.07775037907278712,0.0,0.0,0.0,0.0,0.0,0.0,0.0,0.0,0.0,-0.0,0.0,1.0,1.0,1.0,1.0,-1.0,-1.0,-1.0,-1.0,44.008
2024-04-03 18:08:19,0.0,0.0,0.0625,0.07775037907278712,0.0,0.0,-1.0,0.0,0.0,0.0,0.0,0.0,0.0,-0.0,0.0,1.0,1.0,1.0,1.0,-1.0,-1.0,-1.0,-1.0,44.008
2024-04-03 18:08:19,0.0,0.0,-0.0625,0.07729485699413641,0.0,0.0,78.0,0.0,0.0,0.0,0.0,0.0,0.0,-0.0,0.0,1.0,1.0,1.0,1.0,-1.0,-1.0,-1.0,-1.0,44.546
2024-04-03 18:08:19,0.0,0.0,0.0625,0.07729485699413641,0.0,0.0,-1.0,0.0,0.0,0.0,0.0,0.0,0.0,-0.0,0.0,1.0,1.0,1.0,1.0,-1.0,-1.0,-1.0,-1.0,44.008
2024-04-03 18:08:19,0.0,0.0,0.0625,0.07729485699413641,0.0,0.0,-1.0,0.0,0.0,0.0,0.0,0.0,0.0,-0.0,0.0,1.0,1.0,1.0,1.0,-1.0,-1.0,-1.0,-1.0,44.546
2024-04-03 18:08:19,0.0,0.0,-0.0625,0.07729485699413641,0.0,0.0,-1.0,0.0,0.0,0.0,0.0,0.0,0.0,-0.0,0.0,1.0,1.0,1.0,1.0,-1.0,-1.0,-1.0,-1.0,44.008
2024-04-03 18:08:19,0.0,0.0,0.0625,0.07729485699413641,0.0,0.0,-1.0,0.0,0.0,0.0,0.0,0.0,0.0,-0.0,0.0,1.0,1.0,1.0,1.0,-1.0,-1.0,-1.0,-1.0,44.008
2024-04-03 18:08:19,0.0,0.0,0.0625,0.07729485699413641,0.0,0.0,-1.0,0.0,0.0,0.0,0.0,0.0,0.0,-0.0,0.0,1.0,1.0,1.0,1.0,-1.0,-1.0,-1.0,-1.0,44.008
2024-04-03 18:08:20,0.0,0.0,-0.0625,0.07729485699413641,0.0,0.0,-1.0,0.0,0.0,0.0,0.0,0.0,0.0,-0.0,0.0,1.0,1.0,1.0,1.0,-1.0,-1.0,-1.0,-1.0,45.084
2024-04-03 18:08:20,0.0,0.0,0.0,0.07729485699413641,0.0,0.0,-1.0,0.0,0.0,0.0,0.0,0.0,0.0,-0.0,0.0,1.0,1.0,1.0,1.0,-1.0,-1.0,-1.0,-1.0,44.008
2024-04-03 18:08:20,0.0,0.0,0.0625,0.07729485699413641,0.0,0.0,-1.0,0.0,0.0,0.0,0.0,0.0,0.0,-0.0,0.0,1.0,1.0,1.0,1.0,-1.0,-1.0,-1.0,-1.0,45.084
2024-04-03 18:08:20,0.0,0.0,-0.0625,0.07729485699413641,0.0,0.0,-1.0,0.0,0.0,0.0,0.0,0.0,0.0,-0.0,0.0,1.0,1.0,1.0,1.0,-1.0,-1.0,-1.0,-1.0,44.008
2024-04-03 18:08:20,0.0,0.0,0.0,0.07729485699413641,0.0,0.0,-1.0,0.0,0.0,0.0,0.0,0.0,0.0,-0.0,0.0,1.0,1.0,1.0,1.0,-1.0,-1.0,-1.0,-1.0,44.546
2024-04-03 18:08:20,0.0,0.0,0.0625,0.07729485699413641,0.0,0.0,-1.0,0.0,0.0,0.0,0.0,0.0,0.0,-0.0,0.0,1.0,1.0,1.0,1.0,-1.0,-1.0,-1.0,-1.0,44.546
2024-04-03 18:08:20,0.0,0.0,0.0,0.07729485699413641,0.0,0.0,-1.0,0.0,0.0,0.0,0.0,0.0,0.0,-0.0,0.0,1.0,1.0,1.0,1.0,-1.0,-1.0,-1.0,-1.0,44.546
2024-04-03 18:08:20,0.0,0.0,0.0,0.07708061133594739,0.0,0.0,-1.0,0.0,0.0,0.0,0.0,0.0,0.0,-0.0,0.0,1.0,1.0,1.0,1.0,-1.0,-1.0,-1.0,-1.0,44.008
2024-04-03 18:08:20,0.0,0.0,0.0,0.07708061133594739,0.0,0.0,76.0,0.0,0.0,0.0,0.0,0.0,0.0,-0.0,0.0,1.0,1.0,1.0,1.0,-1.0,-1.0,-1.0,-1.0,45.084
2024-04-03 18:08:20,0.0,0.0,0.0,0.07708061133594739,0.0,0.0,-1.0,0.0,0.0,0.0,0.0,0.0,0.0,-0.0,0.0,1.0,1.0,1.0,1.0,-1.0,-1.0,-1.0,-1.0,45.084
2024-04-03 18:08:20,0.0,0.0,0.0,0.07708061133594739,0.0,0.0,-1.0,0.0,0.0,0.0,0.0,0.0,0.0,-0.0,0.0,1.0,1.0,1.0,1.0,-1.0,-1.0,-1.0,-1.0,44.546
2024-04-03 18:08:20,0.0,0.0,0.0,0.07708061133594739,0.0,0.0,-1.0,0.0,0.0,0.0,0.0,0.0,0.0,-0.0,0.0,1.0,1.0,1.0,1.0,-1.0,-1.0,-1.0,-1.0,44.546
2024-04-03 18:08:20,0.0,0.0,0.0,0.07708061133594739,0.0,0.0,-1.0,0.0,0.0,0.0,0.0,0.0,0.0,-0.0,0.0,1.0,1.0,1.0,1.0,-1.0,-1.0,-1.0,-1.0,44.008
2024-04-03 18:08:20,0.0,0.0,0.0,0.07708061133594739,0.0,0.0,76.0,0.0,0.0,0.0,0.0,0.0,0.0,-0.0,0.0,1.0,1.0,1.0,1.0,-1.0,-1.0,-1.0,-1.0,44.008
2024-04-03 18:08:21,0.0,0.0,0.0,0.07708061133594739,0.0,0.0,-1.0,0.0,0.0,0.0,0.0,0.0,0.0,-0.0,0.0,1.0,1.0,1.0,1.0,-1.0,-1.0,-1.0,-1.0,44.008
2024-04-03 18:08:21,0.0,0.0,0.0,0.07708061133594739,0.0,0.0,-1.0,0.0,0.0,0.0,0.0,0.0,0.0,-0.0,0.0,1.0,1.0,1.0,1.0,-1.0,-1.0,-1.0,-1.0,44.546
2024-04-03 18:08:21,0.0,0.0,0.0,0.07708061133594739,0.0,0.0,76.0,0.0,0.0,0.0,0.0,0.0,0.0,-0.0,0.0,1.0,1.0,1.0,1.0,-1.0,-1.0,-1.0,-1.0,44.008
2024-04-03 18:08:21,0.0,0.0,0.0,0.07708061133594739,0.0,0.0,-1.0,0.0,0.0,0.0,0.0,0.0,0.0,-0.0,0.0,1.0,1.0,1.0,1.0,-1.0,-1.0,-1.0,-1.0,44.546
2024-04-03 18:08:21,0.0,0.0,0.0,0.07708061133594739,0.0,0.0,-1.0,0.0,0.0,0.0,0.0,0.0,0.0,-0.0,0.0,1.0,1.0,1.0,1.0,-1.0,-1.0,-1.0,-1.0,44.546
2024-04-03 18:08:21,0.0,0.0,0.0,0.07708061133594739,0.0,0.0,76.0,0.0,0.0,0.0,0.0,0.0,0.0,-0.0,0.0,1.0,1.0,1.0,1.0,-1.0,-1.0,-1.0,-1.0,45.084
2024-04-03 18:08:21,0.0,0.0,0.0,0.07792990253219076,0.0,0.0,-1.0,0.0,0.0,0.0,0.0,0.0,0.0,-0.0,0.0,1.0,1.0,1.0,1.0,-1.0,-1.0,-1.0,-1.0,44.546
2024-04-03 18:08:21,0.0,0.0,0.0,0.07792990253219076,0.0,0.0,-1.0,0.0,0.0,0.0,0.0,0.0,0.0,-0.0,0.0,1.0,1.0,1.0,1.0,-1.0,-1.0,-1.0,-1.0,45.084
2024-04-03 18:08:21,0.0,0.0,0.0,0.07792990253219076,0.0,0.0,76.0,0.0,0.0,0.0,0.0,0.0,0.0,-0.0,0.0,1.0,1.0,1.0,1.0,-1.0,-1.0,-1.0,-1.0,44.008
2024-04-03 18:08:21,0.0,0.0,0.0,0.07792990253219076,0.0,0.0,-1.0,0.0,0.0,0.0,0.0,0.0,0.0,-0.0,0.0,1.0,1.0,1.0,1.0,-1.0,-1.0,-1.0,-1.0,44.008
2024-04-03 18:08:21,0.0,0.0,0.0,0.07792990253219076,0.0,0.0,-1.0,0.0,0.0,0.0,0.0,0.0,0.0,-0.0,0.0,1.0,1.0,1.0,1.0,-1.0,-1.0,-1.0,-1.0,44.546
2024-04-03 18:08:21,0.0,0.0,0.0,0.07792990253219076,0.0,0.0,-1.0,0.0,0.0,0.0,0.0,0.0,0.0,-0.0,0.0,1.0,1.0,1.0,1.0,-1.0,-1.0,-1.0,-1.0,44.008
2024-04-03 18:08:21,0.0,0.0,0.0,0.07792990253219076,0.0,0.0,-1.0,0.0,0.0,0.0,0.0,0.0,0.0,-0.0,0.0,1.0,1.0,1.0,1.0,-1.0,-1.0,-1.0,-1.0,44.008
2024-04-03 18:08:21,0.0,0.0,0.0,0.07792990253219076,0.0,0.0,75.0,0.0,0.0,0.0,0.0,0.0,0.0,-0.0,0.0,1.0,1.0,1.0,1.0,-1.0,-1.0,-1.0,-1.0,44.546
2024-04-03 18:08:22,0.0,0.0,0.0,0.07792990253219076,0.0,0.0,-1.0,0.0,0.0,0.0,0.0,0.0,0.0,-0.0,0.0,1.0,1.0,1.0,1.0,-1.0,-1.0,-1.0,-1.0,45.084
2024-04-03 18:08:22,0.0,0.0,0.0,0.07792990253219076,0.0,0.0,-1.0,0.0,0.0,0.0,0.0,0.0,0.0,-0.0,0.0,1.0,1.0,1.0,1.0,-1.0,-1.0,-1.0,-1.0,44.546
2024-04-03 18:08:22,0.0,0.0,0.0,0.07792990253219076,0.0,0.0,77.0,0.0,0.0,0.0,0.0,0.0,0.0,-0.0,0.0,1.0,1.0,1.0,1.0,-1.0,-1.0,-1.0,-1.0,44.008
2024-04-03 18:08:22,0.0,0.0,0.0,0.07792990253219076,0.0,0.0,-1.0,0.0,0.0,0.0,0.0,0.0,0.0,-0.0,0.0,1.0,1.0,1.0,1.0,-1.0,-1.0,-1.0,-1.0,45.084
2024-04-03 18:08:22,0.0,0.0,0.0,0.07685562420259484,0.0,0.0,77.0,0.0,0.0,0.0,0.0,0.0,0.0,-0.0,0.0,1.0,1.0,1.0,1.0,-1.0,-1.0,-1.0,-1.0,44.546
2024-04-03 18:08:22,0.0,0.0,0.0,0.07685562420259484,0.0,0.0,-1.0,0.0,0.0,0.0,0.0,0.0,0.0,-0.0,0.0,1.0,1.0,1.0,1.0,-1.0,-1.0,-1.0,-1.0,45.084
2024-04-03 18:08:22,0.0,0.0,0.0,0.07685562420259484,0.0,0.0,-1.0,0.0,0.0,0.0,0.0,0.0,0.0,-0.0,0.0,1.0,1.0,1.0,1.0,-1.0,-1.0,-1.0,-1.0,44.546
2024-04-03 18:08:22,0.0,0.0,0.0,0.07685562420259484,0.0,0.0,76.0,0.0,0.0,0.0,0.0,0.0,0.0,-0.0,0.0,1.0,1.0,1.0,1.0,-1.0,-1.0,-1.0,-1.0,44.008
2024-04-03 18:08:22,0.0,0.0,0.0,0.07685562420259484,0.0,0.0,-1.0,0.0,0.0,0.0,0.0,0.0,0.0,-0.0,0.0,1.0,1.0,1.0,1.0,-1.0,-1.0,-1.0,-1.0,44.008
2024-04-03 18:08:22,0.0,0.0,0.0,0.07685562420259484,0.0,0.0,-1.0,0.0,0.0,0.0,0.0,0.0,0.0,-0.0,0.0,1.0,1.0,1.0,1.0,-1.0,-1.0,-1.0,-1.0,44.008
2024-04-03 18:08:22,0.0,0.0,0.0,0.07685562420259484,0.0,0.0,78.0,0.0,0.0,0.0,0.0,0.0,0.0,-0.0,0.0,1.0,1.0,1.0,1.0,-1.0,-1.0,-1.0,-1.0,44.008
2024-04-03 18:08:22,0.0,0.0,0.0,0.07685562420259484,0.0,0.0,-1.0,0.0,0.0,0.0,0.0,0.0,0.0,-0.0,0.0,1.0,1.0,1.0,1.0,-1.0,-1.0,-1.0,-1.0,45.084
2024-04-03 18:08:22,0.0,0.0,0.0,0.07685562420259484,0.0,0.0,-1.0,0.0,0.0,0.0,0.0,0.0,0.0,-0.0,0.0,1.0,1.0,1.0,1.0,-1.0,-1.0,-1.0,-1.0,44.546
2024-04-03 18:08:22,0.0,0.0,0.0,0.07685562420259484,0.0,0.0,77.0,0.0,0.0,0.0,0.0,0.0,0.0,-0.0,0.0,1.0,1.0,1.0,1.0,-1.0,-1.0,-1.0,-1.0,45.084
2024-04-03 18:08:23,0.0,0.0,0.0,0.07685562420259484,0.0,0.0,-1.0,0.0,0.0,0.0,0.0,0.0,0.0,-0.0,0.0,1.0,1.0,1.0,1.0,-1.0,-1.0,-1.0,-1.0,44.008
2024-04-03 18:08:23,0.0,0.0,0.0,0.07685562420259484,0.0,0.0,-1.0,0.0,0.0,0.0,0.0,0.0,0.0,-0.0,0.0,1.0,1.0,1.0,1.0,-1.0,-1.0,-1.0,-1.0,44.546
2024-04-03 18:08:23,0.0,0.0,0.0,0.07685562420259484,0.0,0.0,77.0,0.0,0.0,0.0,0.0,0.0,0.0,-0.0,0.0,1.0,1.0,1.0,1.0,-1.0,-1.0,-1.0,-1.0,44.008
2024-04-03 18:08:23,0.0,0.0,0.0,0.07809264277354136,0.0,0.0,-1.0,0.0,0.0,0.0,0.0,0.0,0.0,-0.0,0.0,1.0,1.0,1.0,1.0,-1.0,-1.0,-1.0,-1.0,44.008
2024-04-03 18:08:23,0.0,0.0,0.0,0.07809264277354136,0.0,0.0,-1.0,0.0,0.0,0.0,0.0,0.0,0.0,-0.0,0.0,1.0,1.0,1.0,1.0,-1.0,-1.0,-1.0,-1.0,44.008
2024-04-03 18:08:23,0.0,0.0,0.0,0.07809264277354136,0.0,0.0,-1.0,0.0,0.0,0.0,0.0,0.0,0.0,-0.0,0.0,1.0,1.0,1.0,1.0,-1.0,-1.0,-1.0,-1.0,45.084
2024-04-03 18:08:23,0.0,0.0,0.0,0.07809264277354136,0.0,0.0,-1.0,0.0,0.0,0.0,0.0,0.0,0.0,-0.0,0.0,1.0,1.0,1.0,1.0,-1.0,-1.0,-1.0,-1.0,44.546
2024-04-03 18:08:23,0.0,0.0,0.0,0.07809264277354136,0.0,0.0,-1.0,0.0,0.0,0.0,0.0,0.0,0.0,-0.0,0.0,1.0,1.0,1.0,1.0,-1.0,-1.0,-1.0,-1.0,45.084
2024-04-03 18:08:23,0.0,0.0,0.0,0.07809264277354136,0.0,0.0,-1.0,0.0,0.0,0.0,0.0,0.0,0.0,-0.0,0.0,1.0,1.0,1.0,1.0,-1.0,-1.0,-1.0,-1.0,44.546
2024-04-03 18:08:23,0.0,0.0,0.0,0.07809264277354136,0.0,0.0,-1.0,0.0,0.0,0.0,0.0,0.0,0.0,-0.0,0.0,1.0,1.0,1.0,1.0,-1.0,-1.0,-1.0,-1.0,45.084
2024-04-03 18:08:23,0.0,0.0,0.0,0.07809264277354136,0.0,0.0,76.0,0.0,0.0,0.0,0.0,0.0,0.0,-0.0,0.0,1.0,1.0,1.0,1.0,-1.0,-1.0,-1.0,-1.0,44.546
2024-04-03 18:08:23,0.0,0.0,0.0,0.07809264277354136,0.0,0.0,-1.0,0.0,0.0,0.0,0.0,0.0,0.0,-0.0,0.0,1.0,1.0,1.0,1.0,-1.0,-1.0,-1.0,-1.0,44.008
2024-04-03 18:08:23,0.0,0.0,0.0,0.07809264277354136,0.0,0.0,-1.0,0.0,0.0,0.0,0.0,0.0,0.0,-0.0,0.0,1.0,1.0,1.0,1.0,-1.0,-1.0,-1.0,-1.0,44.008
2024-04-03 18:08:23,0.0,0.0,0.0,0.07809264277354136,0.0,0.0,0.0,0.0,0.0,0.0,0.0,0.0,0.0,-0.0,0.0,1.0,1.0,1.0,1.0,-1.0,-1.0,-1.0,-1.0,45.084
2024-04-03 18:08:24,0.0,0.0,0.0,0.07809264277354136,0.0,0.0,-1.0,0.0,0.0,0.0,0.0,0.0,0.0,-0.0,0.0,1.0,1.0,1.0,1.0,-1.0,-1.0,-1.0,-1.0,44.546
2024-04-03 18:08:24,0.0,0.0,0.0,0.07809264277354136,0.0,0.0,-1.0,0.0,0.0,0.0,0.0,0.0,0.0,-0.0,0.0,1.0,1.0,1.0,1.0,-1.0,-1.0,-1.0,-1.0,45.084
2024-04-03 18:08:24,0.0,0.0,0.0,0.08245674236304332,0.0,0.0,0.0,0.0,0.0,0.0,0.0,0.0,0.0,-0.0,0.0,1.0,1.0,1.0,1.0,-1.0,-1.0,-1.0,-1.0,44.546
2024-04-03 18:08:24,0.0,0.0,0.0,0.08245674236304332,0.0,0.0,-1.0,0.0,0.0,0.0,0.0,0.0,0.0,-0.0,0.0,1.0,1.0,1.0,1.0,-1.0,-1.0,-1.0,-1.0,45.084
2024-04-03 18:08:24,0.0,0.0,0.0,0.08245674236304332,0.0,0.0,-1.0,0.0,0.0,0.0,0.0,0.0,0.0,-0.0,0.0,1.0,1.0,1.0,1.0,-1.0,-1.0,-1.0,-1.0,44.546
2024-04-03 18:08:24,0.0,0.0,-0.0625,0.08245674236304332,0.0,0.0,76.0,0.0,0.0,0.0,0.0,0.0,0.0,-0.0,0.0,1.0,1.0,1.0,1.0,-1.0,-1.0,-1.0,-1.0,44.546
2024-04-03 18:08:24,0.0,0.0,-0.0625,0.08245674236304332,0.0,0.0,-1.0,0.0,0.0,0.0,0.0,0.0,0.0,-0.0,0.0,1.0,1.0,1.0,1.0,-1.0,-1.0,-1.0,-1.0,44.008
2024-04-03 18:08:24,0.0,0.0,-0.0625,0.08245674236304332,0.0,0.0,-1.0,0.0,0.0,0.0,0.0,0.0,0.0,-0.0,0.0,1.0,1.0,1.0,1.0,-1.0,-1.0,-1.0,-1.0,44.546
2024-04-03 18:08:24,0.0,0.0,-0.0625,0.08245674236304332,0.0,0.0,-1.0,0.0,0.0,0.0,0.0,0.0,0.0,-0.0,0.0,1.0,1.0,1.0,1.0,-1.0,-1.0,-1.0,-1.0,44.546
2024-04-03 18:08:24,0.0,0.0,-0.0625,0.08245674236304332,0.0,0.0,-1.0,0.0,0.0,0.0,0.0,0.0,0.0,-0.0,0.0,1.0,1.0,1.0,1.0,-1.0,-1.0,-1.0,-1.0,44.546
2024-04-03 18:08:24,0.0,0.0,-0.0625,0.08245674236304332,0.0,0.0,77.0,0.0,0.0,0.0,0.0,0.0,0.0,-0.0,0.0,1.0,1.0,1.0,1.0,-1.0,-1.0,-1.0,-1.0,44.546
2024-04-03 18:08:24,0.0,0.0,-0.0625,0.08245674236304332,0.0,0.0,-1.0,0.0,0.0,0.0,0.0,0.0,0.0,-0.0,0.0,1.0,1.0,1.0,1.0,-1.0,-1.0,-1.0,-1.0,44.546
2024-04-03 18:08:24,0.0,0.0,-0.0625,0.08245674236304332,0.0,0.0,-1.0,0.0,0.0,0.0,0.0,0.0,0.0,-0.0,0.0,1.0,1.0,1.0,1.0,-1.0,-1.0,-1.0,-1.0,44.546
2024-04-03 18:08:24,0.0,0.0,-0.0625,0.08245674236304332,0.0,0.0,75.0,0.0,0.0,0.0,0.0,0.0,0.0,-0.0,0.0,1.0,1.0,1.0,1.0,-1.0,-1.0,-1.0,-1.0,44.008
2024-04-03 18:08:25,0.0,0.0,-0.0625,0.08245674236304332,0.0,0.0,-1.0,0.0,0.0,0.0,0.0,0.0,0.0,-0.0,0.0,1.0,1.0,1.0,1.0,-1.0,-1.0,-1.0,-1.0,44.008
2024-04-03 18:08:25,0.0,0.0,-0.0625,0.08245674236304332,0.0,0.0,-1.0,0.0,0.0,0.0,0.0,0.0,0.0,-0.0,0.0,1.0,1.0,1.0,1.0,-1.0,-1.0,-1.0,-1.0,44.546
2024-04-03 18:08:25,0.0,0.0,-0.0625,0.08245674236304332,0.0,0.0,75.0,0.0,0.0,0.0,0.0,0.0,0.0,-0.0,0.0,1.0,1.0,1.0,1.0,-1.0,-1.0,-1.0,-1.0,44.546
2024-04-03 18:08:25,0.0,0.0,-0.0625,0.07837583939683648,0.0,0.0,-1.0,0.0,0.0,0.0,0.0,0.0,0.0,-0.0,0.0,1.0,1.0,1.0,1.0,-1.0,-1.0,-1.0,-1.0,44.546
2024-04-03 18:08:25,0.0,0.0,-0.0625,0.07837583939683648,0.0,0.0,-1.0,0.0,0.0,0.0,0.0,0.0,0.0,-0.0,0.0,1.0,1.0,1.0,1.0,-1.0,-1.0,-1.0,-1.0,45.084
2024-04-03 18:08:25,0.0,0.0,0.0,0.07837583939683648,0.0,0.0,76.0,0.0,0.0,0.0,0.0,0.0,0.0,-0.0,0.0,1.0,1.0,1.0,1.0,-1.0,-1.0,-1.0,-1.0,45.084
2024-04-03 18:08:25,0.0,0.0,-0.0625,0.07837583939683648,0.0,0.0,-1.0,0.0,0.0,0.0,0.0,0.0,0.0,-0.0,0.0,1.0,1.0,1.0,1.0,-1.0,-1.0,-1.0,-1.0,45.084
2024-04-03 18:08:25,0.0,0.0,-0.0625,0.07837583939683648,0.0,0.0,-1.0,0.0,0.0,0.0,0.0,0.0,0.0,-0.0,0.0,1.0,1.0,1.0,1.0,-1.0,-1.0,-1.0,-1.0,44.546
2024-04-03 18:08:25,0.0,0.0,-0.0625,0.07837583939683648,0.0,0.0,77.0,0.0,0.0,0.0,0.0,0.0,0.0,-0.0,0.0,1.0,1.0,1.0,1.0,-1.0,-1.0,-1.0,-1.0,44.546
2024-04-03 18:08:25,0.0,0.0,-0.0625,0.07837583939683648,0.0,0.0,-1.0,0.0,0.0,0.0,0.0,0.0,0.0,-0.0,0.0,1.0,1.0,1.0,1.0,-1.0,-1.0,-1.0,-1.0,45.084
2024-04-03 18:08:25,0.0,0.0,-0.0625,0.07837583939683648,0.0,0.0,-1.0,0.0,0.0,0.0,0.0,0.0,0.0,-0.0,0.0,1.0,1.0,1.0,1.0,-1.0,-1.0,-1.0,-1.0,44.008
2024-04-03 18:08:25,0.0,0.0,-0.0625,0.07837583939683648,0.0,0.0,77.0,0.0,0.0,0.0,0.0,0.0,0.0,-0.0,0.0,1.0,1.0,1.0,1.0,-1.0,-1.0,-1.0,-1.0,44.546
2024-04-03 18:08:25,0.0,0.0,-0.0625,0.07837583939683648,0.0,0.0,-1.0,0.0,0.0,0.0,0.0,0.0,0.0,-0.0,0.0,1.0,1.0,1.0,1.0,-1.0,-1.0,-1.0,-1.0,44.008
2024-04-03 18:08:25,0.0,0.0,-0.0625,0.07837583939683648,0.0,0.0,-1.0,0.0,0.0,0.0,0.0,0.0,0.0,-0.0,0.0,1.0,1.0,1.0,1.0,-1.0,-1.0,-1.0,-1.0,44.546
2024-04-03 18:08:25,0.0,0.0,-0.0625,0.07837583939683648,0.0,0.0,76.0,0.0,0.0,0.0,0.0,0.0,0.0,-0.0,0.0,1.0,1.0,1.0,1.0,-1.0,-1.0,-1.0,-1.0,44.546
2024-04-03 18:08:26,0.0,0.0,-0.0625,0.07837583939683648,0.0,0.0,-1.0,0.0,0.0,0.0,0.0,0.0,0.0,-0.0,0.0,1.0,1.0,1.0,1.0,-1.0,-1.0,-1.0,-1.0,44.008
2024-04-03 18:08:26,0.0,0.0,-0.0625,0.07837583939683648,0.0,0.0,-1.0,0.0,0.0,0.0,0.0,0.0,0.0,-0.0,0.0,1.0,1.0,1.0,1.0,-1.0,-1.0,-1.0,-1.0,45.084
2024-04-03 18:08:26,0.0,0.0,-0.0625,0.0772699686436229,0.0,0.0,0.0,0.0,0.0,0.0,0.0,0.0,0.0,-0.0,0.0,1.0,1.0,1.0,1.0,-1.0,-1.0,-1.0,-1.0,45.084
2024-04-03 18:08:26,0.0,0.0,-0.0625,0.0772699686436229,0.0,0.0,-1.0,0.0,0.0,0.0,0.0,0.0,0.0,-0.0,0.0,1.0,1.0,1.0,1.0,-1.0,-1.0,-1.0,-1.0,45.084
2024-04-03 18:08:26,0.0,0.0,-0.0625,0.0772699686436229,0.0,0.0,-1.0,0.0,0.0,0.0,0.0,0.0,0.0,-0.0,0.0,1.0,1.0,1.0,1.0,-1.0,-1.0,-1.0,-1.0,45.084
2024-04-03 18:08:26,0.0,0.0,-0.0625,0.0772699686436229,0.0,0.0,-1.0,0.0,0.0,0.0,0.0,0.0,0.0,-0.0,0.0,1.0,1.0,1.0,1.0,-1.0,-1.0,-1.0,-1.0,45.084
2024-04-03 18:08:26,0.0,0.0,-0.0625,0.0772699686436229,0.0,0.0,-1.0,0.0,0.0,0.0,0.0,0.0,0.0,-0.0,0.0,1.0,1.0,1.0,1.0,-1.0,-1.0,-1.0,-1.0,44.008
2024-04-03 18:08:26,0.0,0.0,-0.0625,0.0772699686436229,0.0,0.0,77.0,0.0,0.0,0.0,0.0,0.0,0.0,-0.0,0.0,1.0,1.0,1.0,1.0,-1.0,-1.0,-1.0,-1.0,44.546
2024-04-03 18:08:26,0.0,0.0,-0.0625,0.0772699686436229,0.0,0.0,-1.0,0.0,0.0,0.0,0.0,0.0,0.0,-0.0,0.0,1.0,1.0,1.0,1.0,-1.0,-1.0,-1.0,-1.0,45.084
2024-04-03 18:08:26,0.0,0.0,-0.0625,0.0772699686436229,0.0,0.0,-1.0,0.0,0.0,0.0,0.0,0.0,0.0,-0.0,0.0,1.0,1.0,1.0,1.0,-1.0,-1.0,-1.0,-1.0,45.084
2024-04-03 18:08:26,0.0,0.0,-0.0625,0.0772699686436229,0.0,0.0,-1.0,0.0,0.0,0.0,0.0,0.0,0.0,-0.0,0.0,1.0,1.0,1.0,1.0,-1.0,-1.0,-1.0,-1.0,44.546
2024-04-03 18:08:26,0.0,0.0,-0.0625,0.0772699686436229,0.0,0.0,-1.0,0.0,0.0,0.0,0.0,0.0,0.0,-0.0,0.0,1.0,1.0,1.0,1.0,-1.0,-1.0,-1.0,-1.0,44.546
2024-04-03 18:08:26,0.0,0.0,-0.0625,0.0772699686436229,0.0,0.0,0.0,0.0,0.0,0.0,0.0,0.0,0.0,-0.0,0.0,1.0,1.0,1.0,1.0,-1.0,-1.0,-1.0,-1.0,45.084
2024-04-03 18:08:27,0.0,0.0,-0.0625,0.0772699686436229,0.0,0.0,-1.0,0.0,0.0,0.0,0.0,0.0,0.0,-0.0,0.0,1.0,1.0,1.0,1.0,-1.0,-1.0,-1.0,-1.0,45.084
2024-04-03 18:08:27,0.0,0.0,-0.0625,0.0772699686436229,0.0,0.0,-1.0,0.0,0.0,0.0,0.0,0.0,0.0,-0.0,0.0,1.0,1.0,1.0,1.0,-1.0,-1.0,-1.0,-1.0,44.546
2024-04-03 18:08:27,0.0,0.0,-0.0625,0.07448084454159956,0.0,0.0,76.0,0.0,0.0,0.0,0.0,0.0,0.0,-0.0,0.0,1.0,1.0,1.0,1.0,-1.0,-1.0,-1.0,-1.0,44.546
2024-04-03 18:08:27,0.0,0.0,-0.0625,0.07448084454159956,0.0,0.0,-1.0,0.0,0.0,0.0,0.0,0.0,0.0,-0.0,0.0,1.0,1.0,1.0,1.0,-1.0,-1.0,-1.0,-1.0,44.546
2024-04-03 18:08:27,0.0,0.0,-0.0625,0.07448084454159956,0.0,0.0,-1.0,0.0,0.0,0.0,0.0,0.0,0.0,-0.0,0.0,1.0,1.0,1.0,1.0,-1.0,-1.0,-1.0,-1.0,45.084
2024-04-03 18:08:27,0.0,0.0,-0.0625,0.07448084454159956,0.0,0.0,-1.0,0.0,0.0,0.0,0.0,0.0,0.0,-0.0,0.0,1.0,1.0,1.0,1.0,-1.0,-1.0,-1.0,-1.0,44.008
2024-04-03 18:08:27,0.0,0.0,-0.0625,0.07448084454159956,0.0,0.0,-1.0,0.0,0.0,0.0,0.0,0.0,0.0,-0.0,0.0,1.0,1.0,1.0,1.0,-1.0,-1.0,-1.0,-1.0,44.546
