Timestamp,Yaw,Pitch,Roll,Depth,Depth Set,Depth Control,Water,Roll Control,Pitch Control,Thruster1,Thruster2,Thruster3,Thruster4,Thruster5,Thruster6,BCD1,BCD2,BCD3,BCD4,BCD1 Volt,BCD2 Volt,BCD3 Volt,BCD4 Volt,CPU
2024-04-02 21:41:23,358.375,-6.5625,132.875,0.027204545831246783,0.0,0.0,-1.0,0.0,0.0,0.0,0.0,0.0,0.0,0.0,0.0,0.0,0.0,0.0,0.0,11.0,12.0,13.0,14.0,46.16
2024-04-02 21:41:23,358.375,-6.5625,132.875,0.027204545831246783,0.0,0.0,-1.0,0.0,0.0,0.0,0.0,0.0,0.0,0.0,0.0,0.0,0.0,0.0,0.0,11.0,12.0,13.0,14.0,46.16
2024-04-02 21:41:23,358.375,-6.5625,132.875,0.027204545831246783,0.0,0.0,-1.0,0.0,0.0,0.0,0.0,0.0,0.0,0.0,0.0,0.0,0.0,0.0,0.0,11.0,12.0,13.0,14.0,46.16
2024-04-02 21:41:23,358.375,-6.5625,132.875,0.027204545831246783,0.0,0.0,-1.0,0.0,0.0,0.0,0.0,0.0,0.0,0.0,0.0,0.0,0.0,0.0,0.0,11.0,12.0,13.0,14.0,46.16
2024-04-02 21:41:23,358.375,-6.5625,132.875,0.027204545831246783,0.0,0.0,0.0,0.0,0.0,0.0,0.0,0.0,0.0,0.0,0.0,0.0,0.0,0.0,0.0,11.0,12.0,13.0,14.0,46.16
2024-04-02 21:41:23,358.375,-6.5625,132.875,0.027204545831246783,0.0,0.0,-1.0,0.0,0.0,0.0,0.0,0.0,0.0,0.0,0.0,0.0,0.0,0.0,0.0,11.0,12.0,13.0,14.0,45.622
2024-04-02 21:41:23,358.375,-6.5625,132.875,0.027204545831246783,0.0,0.0,0.0,0.0,0.0,0.0,0.0,0.0,0.0,0.0,0.0,0.0,0.0,0.0,0.0,11.0,12.0,13.0,14.0,46.16
2024-04-02 21:41:23,358.375,-6.5625,132.875,0.027204545831246783,0.0,0.0,-1.0,0.0,0.0,0.0,0.0,0.0,0.0,0.0,0.0,0.0,0.0,0.0,0.0,11.0,12.0,13.0,14.0,46.16
2024-04-02 21:41:23,358.375,-6.5625,132.875,0.027204545831246783,0.0,0.0,-1.0,0.0,0.0,0.0,0.0,0.0,0.0,0.0,0.0,0.0,0.0,0.0,0.0,11.0,12.0,13.0,14.0,46.16
2024-04-02 21:41:23,358.375,-6.5625,132.875,0.027204545831246783,0.0,0.0,-1.0,0.0,0.0,0.0,0.0,0.0,0.0,0.0,0.0,0.0,0.0,0.0,0.0,11.0,12.0,13.0,14.0,45.622
2024-04-02 21:41:23,358.375,-6.5625,132.875,0.027204545831246783,0.0,0.0,-1.0,0.0,0.0,0.0,0.0,0.0,0.0,0.0,0.0,0.0,0.0,0.0,0.0,11.0,12.0,13.0,14.0,45.622
2024-04-02 21:41:23,358.375,2041.4375,132.875,0.027204545831246783,0.0,0.0,0.0,0.0,0.0,0.0,0.0,0.0,0.0,0.0,0.0,0.0,0.0,0.0,0.0,11.0,12.0,13.0,14.0,45.622
2024-04-02 21:41:24,358.375,-6.5625,132.875,0.025870468556931602,0.0,0.0,-1.0,0.0,0.0,0.0,0.0,0.0,0.0,0.0,0.0,0.0,0.0,0.0,0.0,11.0,12.0,13.0,14.0,45.622
2024-04-02 21:41:24,358.375,-6.5625,132.875,0.025870468556931602,0.0,0.0,-1.0,0.0,0.0,0.0,0.0,0.0,0.0,0.0,0.0,0.0,0.0,0.0,0.0,11.0,12.0,13.0,14.0,45.084
2024-04-02 21:41:24,358.375,-6.5625,132.875,0.025870468556931602,0.0,0.0,-1.0,0.0,0.0,0.0,0.0,0.0,0.0,0.0,0.0,0.0,0.0,0.0,0.0,11.0,12.0,13.0,14.0,46.16
2024-04-02 21:41:24,358.375,-6.5625,132.875,0.025870468556931602,0.0,0.0,-1.0,0.0,0.0,0.0,0.0,0.0,0.0,0.0,0.0,0.0,0.0,0.0,0.0,11.0,12.0,13.0,14.0,45.622
2024-04-02 21:41:24,358.375,-6.5625,132.875,0.025870468556931602,0.0,0.0,-1.0,0.0,0.0,0.0,0.0,0.0,0.0,0.0,0.0,0.0,0.0,0.0,0.0,11.0,12.0,13.0,14.0,46.16
2024-04-02 21:41:24,358.375,-6.5625,132.875,0.025870468556931602,0.0,0.0,-1.0,0.0,0.0,0.0,0.0,0.0,0.0,0.0,0.0,0.0,0.0,0.0,0.0,11.0,12.0,13.0,14.0,46.16
2024-04-02 21:41:24,358.375,-6.5625,132.875,0.025870468556931602,0.0,0.0,-1.0,0.0,0.0,0.0,0.0,0.0,0.0,0.0,0.0,0.0,0.0,0.0,0.0,11.0,12.0,13.0,14.0,45.622
2024-04-02 21:41:24,358.375,-6.5625,132.875,0.025870468556931602,0.0,0.0,-1.0,0.0,0.0,0.0,0.0,0.0,0.0,0.0,0.0,0.0,0.0,0.0,0.0,11.0,12.0,13.0,14.0,46.16
2024-04-02 21:41:24,358.375,-6.5625,132.875,0.025870468556931602,0.0,0.0,0.0,0.0,0.0,0.0,0.0,0.0,0.0,0.0,0.0,0.0,0.0,0.0,0.0,11.0,12.0,13.0,14.0,45.622
2024-04-02 21:41:24,358.375,-6.5625,132.875,0.025870468556931602,0.0,0.0,-1.0,0.0,0.0,0.0,0.0,0.0,0.0,0.0,0.0,0.0,0.0,0.0,0.0,11.0,12.0,13.0,14.0,46.16
2024-04-02 21:41:24,358.375,-6.5625,132.875,0.025870468556931602,0.0,0.0,-1.0,0.0,0.0,0.0,0.0,0.0,0.0,0.0,0.0,0.0,0.0,0.0,0.0,11.0,12.0,13.0,14.0,45.622
2024-04-02 21:41:24,358.375,-6.5625,132.875,0.025870468556931602,0.0,0.0,-1.0,0.0,0.0,0.0,0.0,0.0,0.0,0.0,0.0,0.0,0.0,0.0,0.0,11.0,12.0,13.0,14.0,45.622
2024-04-02 21:41:24,358.375,-6.5625,132.875,0.025870468556931602,0.0,0.0,-1.0,0.0,0.0,0.0,0.0,0.0,0.0,0.0,0.0,0.0,0.0,0.0,0.0,11.0,12.0,13.0,14.0,45.622
2024-04-02 21:41:24,358.375,-6.5625,132.875,0.026697321490787483,0.0,0.0,0.0,0.0,0.0,0.0,0.0,0.0,0.0,0.0,0.0,0.0,0.0,0.0,0.0,11.0,12.0,13.0,14.0,46.16
2024-04-02 21:41:24,358.375,-6.5625,132.875,0.026697321490787483,0.0,0.0,-1.0,0.0,0.0,0.0,0.0,0.0,0.0,0.0,0.0,0.0,0.0,0.0,0.0,11.0,12.0,13.0,14.0,46.16
2024-04-02 21:41:25,358.375,-6.5625,132.875,0.026697321490787483,0.0,0.0,-1.0,0.0,0.0,0.0,0.0,0.0,0.0,0.0,0.0,0.0,0.0,0.0,0.0,11.0,12.0,13.0,14.0,45.622
2024-04-02 21:41:25,358.375,-6.5625,132.875,0.026697321490787483,0.0,0.0,0.0,0.0,0.0,0.0,0.0,0.0,0.0,0.0,0.0,0.0,0.0,0.0,0.0,11.0,12.0,13.0,14.0,46.16
2024-04-02 21:41:25,358.375,-6.5625,132.875,0.026697321490787483,0.0,0.0,-1.0,0.0,0.0,0.0,0.0,0.0,0.0,0.0,0.0,0.0,0.0,0.0,0.0,11.0,12.0,13.0,14.0,45.622
2024-04-02 21:41:25,358.375,-6.5625,132.875,0.026697321490787483,0.0,0.0,0.0,0.0,0.0,0.0,0.0,0.0,0.0,0.0,0.0,0.0,0.0,0.0,0.0,11.0,12.0,13.0,14.0,45.084
2024-04-02 21:41:25,358.375,-6.5625,132.875,0.026697321490787483,0.0,0.0,-1.0,0.0,0.0,0.0,0.0,0.0,0.0,0.0,0.0,0.0,0.0,0.0,0.0,11.0,12.0,13.0,14.0,46.16
2024-04-02 21:41:25,358.375,-6.5625,132.875,0.026697321490787483,0.0,0.0,-1.0,0.0,0.0,0.0,0.0,0.0,0.0,0.0,0.0,0.0,0.0,0.0,0.0,11.0,12.0,13.0,14.0,45.622
2024-04-02 21:41:25,358.375,-6.5625,132.875,0.026697321490787483,0.0,0.0,0.0,0.0,0.0,0.0,0.0,0.0,0.0,0.0,0.0,0.0,0.0,0.0,0.0,11.0,12.0,13.0,14.0,45.622
2024-04-02 21:41:25,358.375,-6.5625,132.875,0.026697321490787483,0.0,0.0,-1.0,0.0,0.0,0.0,0.0,0.0,0.0,0.0,0.0,0.0,0.0,0.0,0.0,11.0,12.0,13.0,14.0,46.16
2024-04-02 21:41:25,358.375,-6.5625,132.875,0.026697321490787483,0.0,0.0,0.0,0.0,0.0,0.0,0.0,0.0,0.0,0.0,0.0,0.0,0.0,0.0,0.0,11.0,12.0,13.0,14.0,45.084
2024-04-02 21:41:25,358.375,-6.5625,132.875,0.024372370933307255,0.0,0.0,-1.0,0.0,0.0,0.0,0.0,0.0,0.0,0.0,0.0,0.0,0.0,0.0,0.0,11.0,12.0,13.0,14.0,45.084
2024-04-02 21:41:25,358.375,-6.5625,132.875,0.024372370933307255,0.0,0.0,-1.0,0.0,0.0,0.0,0.0,0.0,0.0,0.0,0.0,0.0,0.0,0.0,0.0,11.0,12.0,13.0,14.0,46.16
2024-04-02 21:41:25,358.375,-6.5625,132.875,0.024372370933307255,0.0,0.0,0.0,0.0,0.0,0.0,0.0,0.0,0.0,0.0,0.0,0.0,0.0,0.0,0.0,11.0,12.0,13.0,14.0,45.622
2024-04-02 21:41:26,358.375,-6.5625,132.875,0.024372370933307255,0.0,0.0,-1.0,0.0,0.0,0.0,0.0,0.0,0.0,0.0,0.0,0.0,0.0,0.0,0.0,11.0,12.0,13.0,14.0,45.622
2024-04-02 21:41:26,358.375,-6.5625,132.875,0.024372370933307255,0.0,0.0,0.0,0.0,0.0,0.0,0.0,0.0,0.0,0.0,0.0,0.0,0.0,0.0,0.0,11.0,12.0,13.0,14.0,45.622
2024-04-02 21:41:26,358.375,-6.5625,132.875,0.024372370933307255,0.0,0.0,-1.0,0.0,0.0,0.0,0.0,0.0,0.0,0.0,0.0,0.0,0.0,0.0,0.0,11.0,12.0,13.0,14.0,45.084
2024-04-02 21:41:26,358.375,-6.5625,132.875,0.024372370933307255,0.0,0.0,-1.0,0.0,0.0,0.0,0.0,0.0,0.0,0.0,0.0,0.0,0.0,0.0,0.0,11.0,12.0,13.0,14.0,46.16
2024-04-02 21:41:26,358.375,-6.5625,132.875,0.024372370933307255,0.0,0.0,-1.0,0.0,0.0,0.0,0.0,0.0,0.0,0.0,0.0,0.0,0.0,0.0,0.0,11.0,12.0,13.0,14.0,45.622
2024-04-02 21:41:26,358.375,-6.5625,132.875,0.024372370933307255,0.0,0.0,-1.0,0.0,0.0,0.0,0.0,0.0,0.0,0.0,0.0,0.0,0.0,0.0,0.0,11.0,12.0,13.0,14.0,45.622
2024-04-02 21:41:26,358.375,-6.5625,132.875,0.024372370933307255,0.0,0.0,-1.0,0.0,0.0,0.0,0.0,0.0,0.0,0.0,0.0,0.0,0.0,0.0,0.0,11.0,12.0,13.0,14.0,46.16
2024-04-02 21:41:26,358.375,-6.5625,132.875,0.024372370933307255,0.0,0.0,-1.0,0.0,0.0,0.0,0.0,0.0,0.0,0.0,0.0,0.0,0.0,0.0,0.0,11.0,12.0,13.0,14.0,45.084
2024-04-02 21:41:26,358.375,-6.5625,132.875,0.024372370933307255,0.0,0.0,-1.0,0.0,0.0,0.0,0.0,0.0,0.0,0.0,0.0,0.0,0.0,0.0,0.0,11.0,12.0,13.0,14.0,46.16
2024-04-02 21:41:26,358.375,-6.5625,132.875,0.024372370933307255,0.0,0.0,-1.0,0.0,0.0,0.0,0.0,0.0,0.0,0.0,0.0,0.0,0.0,0.0,0.0,11.0,12.0,13.0,14.0,46.16
2024-04-02 21:41:26,358.375,-6.5625,132.875,0.024372370933307255,0.0,0.0,-1.0,0.0,0.0,0.0,0.0,0.0,0.0,0.0,0.0,0.0,0.0,0.0,0.0,11.0,12.0,13.0,14.0,45.622
2024-04-02 21:41:26,358.375,-6.5625,132.875,0.027179074170402044,0.0,0.0,-1.0,0.0,0.0,0.0,0.0,0.0,0.0,0.0,0.0,0.0,0.0,0.0,0.0,11.0,12.0,13.0,14.0,45.622
2024-04-02 21:41:26,358.375,-6.5625,132.875,0.027179074170402044,0.0,0.0,-1.0,0.0,0.0,0.0,0.0,0.0,0.0,0.0,0.0,0.0,0.0,0.0,0.0,11.0,12.0,13.0,14.0,46.16
2024-04-02 21:41:26,358.375,-6.5625,132.875,0.027179074170402044,0.0,0.0,-1.0,0.0,0.0,0.0,0.0,0.0,0.0,0.0,0.0,0.0,0.0,0.0,0.0,11.0,12.0,13.0,14.0,45.622
2024-04-02 21:41:27,358.375,-6.5625,132.875,0.027179074170402044,0.0,0.0,-1.0,0.0,0.0,0.0,0.0,0.0,0.0,0.0,0.0,0.0,0.0,0.0,0.0,11.0,12.0,13.0,14.0,45.622
2024-04-02 21:41:27,358.375,-6.5625,132.875,0.027179074170402044,0.0,0.0,-1.0,0.0,0.0,0.0,0.0,0.0,0.0,0.0,0.0,0.0,0.0,0.0,0.0,11.0,12.0,13.0,14.0,46.16
2024-04-02 21:41:27,358.375,-6.5625,132.875,0.027179074170402044,0.0,0.0,-1.0,0.0,0.0,0.0,0.0,0.0,0.0,0.0,0.0,0.0,0.0,0.0,0.0,11.0,12.0,13.0,14.0,45.084
2024-04-02 21:41:27,358.375,-6.5625,132.875,0.027179074170402044,0.0,0.0,-1.0,0.0,0.0,0.0,0.0,0.0,0.0,0.0,0.0,0.0,0.0,0.0,0.0,11.0,12.0,13.0,14.0,46.16
2024-04-02 21:41:27,358.375,-6.5625,132.875,0.027179074170402044,0.0,0.0,0.0,0.0,0.0,0.0,0.0,0.0,0.0,0.0,0.0,0.0,0.0,0.0,0.0,11.0,12.0,13.0,14.0,45.084
2024-04-02 21:41:27,358.375,-6.5625,132.875,0.027179074170402044,0.0,0.0,-1.0,0.0,0.0,0.0,0.0,0.0,0.0,0.0,0.0,0.0,0.0,0.0,0.0,11.0,12.0,13.0,14.0,45.622
2024-04-02 21:41:27,358.375,-6.5625,132.875,0.027179074170402044,0.0,0.0,-1.0,0.0,0.0,0.0,0.0,0.0,0.0,0.0,0.0,0.0,0.0,0.0,0.0,11.0,12.0,13.0,14.0,45.622
2024-04-02 21:41:27,358.375,-6.5625,132.875,0.027179074170402044,0.0,0.0,0.0,0.0,0.0,0.0,0.0,0.0,0.0,0.0,0.0,0.0,0.0,0.0,0.0,11.0,12.0,13.0,14.0,46.16
2024-04-02 21:41:27,358.375,-6.5625,132.875,0.027179074170402044,0.0,0.0,-1.0,0.0,0.0,0.0,0.0,0.0,0.0,0.0,0.0,0.0,0.0,0.0,0.0,11.0,12.0,13.0,14.0,46.16
2024-04-02 21:41:27,358.375,-6.5625,132.875,0.027179074170402044,0.0,0.0,-1.0,0.0,0.0,0.0,0.0,0.0,0.0,0.0,0.0,0.0,0.0,0.0,0.0,11.0,12.0,13.0,14.0,46.16
2024-04-02 21:41:27,358.375,-6.5625,132.875,0.030197790756547483,0.0,0.0,-1.0,0.0,0.0,0.0,0.0,0.0,0.0,0.0,0.0,0.0,0.0,0.0,0.0,11.0,12.0,13.0,14.0,46.16
2024-04-02 21:41:27,358.375,-6.5625,132.875,0.030197790756547483,0.0,0.0,-1.0,0.0,0.0,0.0,0.0,0.0,0.0,0.0,0.0,0.0,0.0,0.0,0.0,11.0,12.0,13.0,14.0,45.084
2024-04-02 21:41:27,358.375,-6.5625,132.875,0.030197790756547483,0.0,0.0,0.0,0.0,0.0,0.0,0.0,0.0,0.0,0.0,0.0,0.0,0.0,0.0,0.0,11.0,12.0,13.0,14.0,46.16
2024-04-02 21:41:27,358.375,-6.5625,132.875,0.030197790756547483,0.0,0.0,-1.0,0.0,0.0,0.0,0.0,0.0,0.0,0.0,0.0,0.0,0.0,0.0,0.0,11.0,12.0,13.0,14.0,46.16
2024-04-02 21:41:28,358.375,-6.5625,132.875,0.030197790756547483,0.0,0.0,-1.0,0.0,0.0,0.0,0.0,0.0,0.0,0.0,0.0,1.0,1.0,1.0,1.0,11.0,12.0,13.0,14.0,46.16
2024-04-02 21:41:28,358.375,-6.5625,132.875,0.030197790756547483,0.0,0.0,0.0,0.0,0.0,0.0,0.0,0.0,0.0,0.0,0.0,1.0,1.0,1.0,1.0,11.0,12.0,13.0,14.0,46.16
2024-04-02 21:41:28,358.375,-6.5625,132.875,0.030197790756547483,0.0,0.0,-1.0,0.0,0.0,0.0,0.0,0.0,0.0,0.0,0.0,1.0,1.0,1.0,1.0,11.0,12.0,13.0,14.0,46.16
2024-04-02 21:41:28,358.375,-6.5625,132.875,0.030197790756547483,0.0,0.0,-1.0,0.0,0.0,0.0,0.0,0.0,0.0,0.0,0.0,1.0,1.0,1.0,1.0,11.0,12.0,13.0,14.0,45.622
2024-04-02 21:41:28,358.375,2041.4375,132.875,0.030197790756547483,0.0,0.0,198.0,0.0,0.0,0.0,0.0,0.0,0.0,0.0,0.0,1.0,1.0,1.0,1.0,11.0,12.0,13.0,14.0,46.16
2024-04-02 21:41:28,358.375,-6.5625,132.875,0.030197790756547483,0.0,0.0,-1.0,0.0,0.0,0.0,0.0,0.0,0.0,0.0,0.0,1.0,1.0,1.0,1.0,11.0,12.0,13.0,14.0,45.622
2024-04-02 21:41:28,358.375,-6.5625,132.875,0.030197790756547483,0.0,0.0,-1.0,0.0,0.0,0.0,0.0,0.0,0.0,0.0,0.0,1.0,1.0,1.0,1.0,11.0,12.0,13.0,14.0,45.622
2024-04-02 21:41:28,358.375,-6.5625,132.875,0.030197790756547483,0.0,0.0,-1.0,0.0,0.0,0.0,0.0,0.0,0.0,0.0,0.0,1.0,1.0,1.0,1.0,11.0,12.0,13.0,14.0,45.622
2024-04-02 21:41:28,358.375,-6.5625,132.875,0.030197790756547483,0.0,0.0,-1.0,0.0,0.0,0.0,0.0,0.0,0.0,0.0,0.0,1.0,1.0,1.0,1.0,11.0,12.0,13.0,14.0,45.622
2024-04-02 21:41:28,358.375,-6.5625,132.875,0.029732485804334567,0.0,0.0,157.0,0.0,0.0,0.0,0.0,0.0,0.0,0.0,0.0,1.0,1.0,1.0,1.0,11.0,12.0,13.0,14.0,46.16
2024-04-02 21:41:28,358.375,-6.5625,132.875,0.029732485804334567,0.0,0.0,-1.0,0.0,0.0,0.0,0.0,0.0,0.0,0.0,0.0,1.0,1.0,1.0,1.0,11.0,12.0,13.0,14.0,46.16
2024-04-02 21:41:28,358.375,-6.5625,132.875,0.029732485804334567,0.0,0.0,-1.0,0.0,0.0,0.0,0.0,0.0,0.0,0.0,0.0,1.0,1.0,1.0,1.0,11.0,12.0,13.0,14.0,46.16
2024-04-02 21:41:28,358.375,-6.5625,132.875,0.029732485804334567,0.0,0.0,-1.0,0.0,0.0,0.0,0.0,0.0,0.0,0.0,0.0,1.0,1.0,1.0,1.0,11.0,12.0,13.0,14.0,45.622
2024-04-02 21:41:29,358.375,-6.5625,132.875,0.029732485804334567,0.0,0.0,-1.0,0.0,0.0,0.0,0.0,0.0,0.0,0.0,0.0,1.0,1.0,1.0,1.0,11.0,12.0,13.0,14.0,46.16
2024-04-02 21:41:29,358.375,-6.5625,132.875,0.029732485804334567,0.0,0.0,-1.0,0.0,0.0,0.0,0.0,0.0,0.0,0.0,0.0,1.0,1.0,1.0,1.0,11.0,12.0,13.0,14.0,45.622
2024-04-02 21:41:29,358.375,-6.5625,132.875,0.029732485804334567,0.0,0.0,-1.0,0.0,0.0,0.0,0.0,0.0,0.0,0.0,0.0,1.0,1.0,1.0,1.0,11.0,12.0,13.0,14.0,45.084
2024-04-02 21:41:29,358.375,-6.5625,132.875,0.029732485804334567,0.0,0.0,-1.0,0.0,0.0,0.0,0.0,0.0,0.0,0.0,0.0,1.0,1.0,1.0,1.0,11.0,12.0,13.0,14.0,46.16
2024-04-02 21:41:29,358.375,-6.5625,132.875,0.029732485804334567,0.0,0.0,-1.0,0.0,0.0,0.0,0.0,0.0,0.0,0.0,0.0,1.0,1.0,1.0,1.0,11.0,12.0,13.0,14.0,45.622
2024-04-02 21:41:29,358.375,-6.5625,132.875,0.029732485804334567,0.0,0.0,-1.0,0.0,0.0,0.0,0.0,0.0,0.0,0.0,0.0,1.0,1.0,1.0,1.0,11.0,12.0,13.0,14.0,46.16
2024-04-02 21:41:29,358.375,-6.5625,132.875,0.029732485804334567,0.0,0.0,-1.0,0.0,0.0,0.0,0.0,0.0,0.0,0.0,0.0,1.0,1.0,1.0,1.0,11.0,12.0,13.0,14.0,45.622
2024-04-02 21:41:29,358.375,-6.5625,132.875,0.029732485804334567,0.0,0.0,177.0,0.0,0.0,0.0,0.0,0.0,0.0,0.0,0.0,1.0,1.0,1.0,1.0,11.0,12.0,13.0,14.0,45.084
2024-04-02 21:41:29,358.375,-6.5625,132.875,0.029732485804334567,0.0,0.0,-1.0,0.0,0.0,0.0,0.0,0.0,0.0,0.0,0.0,1.0,1.0,1.0,1.0,11.0,12.0,13.0,14.0,46.16
2024-04-02 21:41:29,358.375,-6.5625,132.875,0.028907497891984366,0.0,0.0,-1.0,0.0,0.0,0.0,0.0,0.0,0.0,0.0,0.0,1.0,1.0,1.0,1.0,11.0,12.0,13.0,14.0,46.16
2024-04-02 21:41:29,358.375,-6.5625,132.875,0.028907497891984366,0.0,0.0,-1.0,0.0,0.0,0.0,0.0,0.0,0.0,0.0,0.0,1.0,1.0,1.0,1.0,11.0,12.0,13.0,14.0,45.622
2024-04-02 21:41:29,358.375,-6.5625,132.875,0.028907497891984366,0.0,0.0,-1.0,0.0,0.0,0.0,0.0,0.0,0.0,0.0,0.0,1.0,1.0,1.0,1.0,11.0,12.0,13.0,14.0,45.622
2024-04-02 21:41:29,358.375,-6.5625,132.875,0.028907497891984366,0.0,0.0,164.0,0.0,0.0,0.0,0.0,0.0,0.0,0.0,0.0,1.0,1.0,1.0,1.0,11.0,12.0,13.0,14.0,45.622
2024-04-02 21:41:29,358.375,-6.5625,132.875,0.028907497891984366,0.0,0.0,-1.0,0.0,0.0,0.0,0.0,0.0,0.0,0.0,0.0,1.0,1.0,1.0,1.0,11.0,12.0,13.0,14.0,45.622
2024-04-02 21:41:30,358.375,-6.5625,132.875,0.028907497891984366,0.0,0.0,-1.0,0.0,0.0,0.0,0.0,0.0,0.0,0.0,0.0,1.0,1.0,1.0,1.0,11.0,12.0,13.0,14.0,46.16
2024-04-02 21:41:30,358.375,-6.5625,132.875,0.028907497891984366,0.0,0.0,169.0,0.0,0.0,0.0,0.0,0.0,0.0,0.0,0.0,1.0,1.0,1.0,1.0,11.0,12.0,13.0,14.0,45.084
2024-04-02 21:41:30,358.375,-6.5625,132.875,0.028907497891984366,0.0,0.0,-1.0,0.0,0.0,0.0,0.0,0.0,0.0,0.0,0.0,1.0,1.0,1.0,1.0,11.0,12.0,13.0,14.0,46.16
2024-04-02 21:41:30,358.375,-6.5625,132.875,0.028907497891984366,0.0,0.0,-1.0,0.0,0.0,0.0,0.0,0.0,0.0,0.0,0.0,1.0,1.0,1.0,1.0,11.0,12.0,13.0,14.0,45.622
2024-04-02 21:41:30,358.375,-6.5625,132.875,0.028907497891984366,0.0,0.0,172.0,0.0,0.0,0.0,0.0,0.0,0.0,0.0,0.0,1.0,1.0,1.0,1.0,11.0,12.0,13.0,14.0,46.16
2024-04-02 21:41:30,358.375,-6.5625,132.875,0.028907497891984366,0.0,0.0,-1.0,0.0,0.0,0.0,0.0,0.0,0.0,0.0,0.0,1.0,1.0,1.0,1.0,11.0,12.0,13.0,14.0,46.16
2024-04-02 21:41:30,358.375,-6.5625,132.875,0.028907497891984366,0.0,0.0,-1.0,0.0,0.0,0.0,0.0,0.0,0.0,0.0,0.0,1.0,1.0,1.0,1.0,11.0,12.0,13.0,14.0,46.16
2024-04-02 21:41:30,358.375,-6.5625,132.875,0.028907497891984366,0.0,0.0,175.0,0.0,0.0,0.0,0.0,0.0,0.0,0.0,0.0,1.0,1.0,1.0,1.0,11.0,12.0,13.0,14.0,45.622
2024-04-02 21:41:30,358.375,-6.5625,132.875,0.028907497891984366,0.0,0.0,-1.0,0.0,0.0,0.0,0.0,0.0,0.0,0.0,0.0,1.0,1.0,1.0,1.0,11.0,12.0,13.0,14.0,45.622
2024-04-02 21:41:30,358.375,-6.5625,132.875,0.028907497891984366,0.0,0.0,-1.0,0.0,0.0,0.0,0.0,0.0,0.0,0.0,0.0,1.0,1.0,1.0,1.0,11.0,12.0,13.0,14.0,45.622
2024-04-02 21:41:30,358.375,-6.5625,132.875,0.02470734984150309,0.0,0.0,183.0,0.0,0.0,0.0,0.0,0.0,0.0,0.0,0.0,1.0,1.0,1.0,1.0,11.0,12.0,13.0,14.0,45.084
2024-04-02 21:41:30,358.375,-6.5625,132.875,0.02470734984150309,0.0,0.0,-1.0,0.0,0.0,0.0,0.0,0.0,0.0,0.0,0.0,1.0,1.0,1.0,1.0,11.0,12.0,13.0,14.0,46.16
2024-04-02 21:41:30,358.375,-6.5625,132.875,0.02470734984150309,0.0,0.0,-1.0,0.0,0.0,0.0,0.0,0.0,0.0,0.0,0.0,1.0,1.0,1.0,1.0,11.0,12.0,13.0,14.0,45.622
2024-04-02 21:41:30,358.375,-6.5625,132.875,0.02470734984150309,0.0,0.0,-1.0,0.0,0.0,0.0,0.0,0.0,0.0,0.0,0.0,1.0,1.0,1.0,1.0,11.0,12.0,13.0,14.0,45.622
2024-04-02 21:41:31,358.375,-6.5625,132.875,0.02470734984150309,0.0,0.0,-1.0,0.0,0.0,0.0,0.0,0.0,0.0,0.0,0.0,1.0,1.0,1.0,1.0,11.0,12.0,13.0,14.0,46.16
2024-04-02 21:41:31,358.375,-6.5625,132.875,0.02470734984150309,0.0,0.0,-1.0,0.0,0.0,0.0,0.0,0.0,0.0,0.0,0.0,1.0,1.0,1.0,1.0,11.0,12.0,13.0,14.0,45.084
2024-04-02 21:41:31,358.375,-6.5625,132.875,0.02470734984150309,0.0,0.0,-1.0,0.0,0.0,0.0,0.0,0.0,0.0,0.0,0.0,1.0,1.0,1.0,1.0,11.0,12.0,13.0,14.0,45.084
2024-04-02 21:41:31,358.375,-6.5625,132.875,0.02470734984150309,0.0,0.0,-1.0,0.0,0.0,0.0,0.0,0.0,0.0,0.0,0.0,1.0,1.0,1.0,1.0,11.0,12.0,13.0,14.0,45.622
2024-04-02 21:41:31,358.375,-6.5625,132.875,0.02470734984150309,0.0,0.0,-1.0,0.0,0.0,0.0,0.0,0.0,0.0,0.0,0.0,1.0,1.0,1.0,1.0,11.0,12.0,13.0,14.0,45.084
2024-04-02 21:41:31,358.375,-6.5625,132.875,0.02470734984150309,0.0,0.0,-1.0,0.0,0.0,0.0,0.0,0.0,0.0,0.0,0.0,1.0,1.0,1.0,1.0,11.0,12.0,13.0,14.0,45.622
2024-04-02 21:41:31,358.375,-6.5625,132.875,0.02470734984150309,0.0,0.0,-1.0,0.0,0.0,0.0,0.0,0.0,0.0,0.0,0.0,1.0,1.0,1.0,1.0,11.0,12.0,13.0,14.0,45.622
2024-04-02 21:41:31,358.3125,-6.5625,132.9375,0.02470734984150309,0.0,0.0,0.0,0.0,0.0,0.0,0.0,0.0,0.0,0.0,0.0,1.0,1.0,1.0,1.0,11.0,12.0,13.0,14.0,46.16
2024-04-02 21:41:31,358.375,-6.5625,132.875,0.02470734984150309,0.0,0.0,-1.0,0.0,0.0,0.0,0.0,0.0,0.0,0.0,0.0,1.0,1.0,1.0,1.0,11.0,12.0,13.0,14.0,46.16
2024-04-02 21:41:31,358.3125,-6.5625,132.9375,0.02976823470865022,0.0,0.0,0.0,0.0,0.0,0.0,0.0,0.0,0.0,0.0,0.0,1.0,1.0,1.0,1.0,11.0,12.0,13.0,14.0,45.622
2024-04-02 21:41:31,358.3125,-6.5625,132.9375,0.02976823470865022,0.0,0.0,-1.0,0.0,0.0,0.0,0.0,0.0,0.0,0.0,0.0,1.0,1.0,1.0,1.0,11.0,12.0,13.0,14.0,45.084
2024-04-02 21:41:31,358.3125,-6.5625,132.9375,0.02976823470865022,0.0,0.0,-1.0,0.0,0.0,0.0,0.0,0.0,0.0,0.0,0.0,1.0,1.0,1.0,1.0,11.0,12.0,13.0,14.0,45.622
2024-04-02 21:41:31,358.3125,-6.5625,132.9375,0.02976823470865022,0.0,0.0,176.0,0.0,0.0,0.0,0.0,0.0,0.0,0.0,0.0,1.0,1.0,1.0,1.0,11.0,12.0,13.0,14.0,45.084
2024-04-02 21:41:32,358.3125,-6.5625,132.9375,0.02976823470865022,0.0,0.0,-1.0,0.0,0.0,0.0,0.0,0.0,0.0,0.0,0.0,1.0,1.0,1.0,1.0,11.0,12.0,13.0,14.0,45.084
2024-04-02 21:41:32,358.3125,-6.5625,132.9375,0.02976823470865022,0.0,0.0,169.0,0.0,0.0,0.0,0.0,0.0,0.0,0.0,0.0,1.0,1.0,1.0,1.0,11.0,12.0,13.0,14.0,45.084
2024-04-02 21:41:32,358.3125,-6.5625,132.9375,0.02976823470865022,0.0,0.0,-1.0,0.0,0.0,0.0,0.0,0.0,0.0,0.0,0.0,1.0,1.0,1.0,1.0,11.0,12.0,13.0,14.0,45.084
2024-04-02 21:41:32,358.3125,-6.5625,132.9375,0.02976823470865022,0.0,0.0,-1.0,0.0,0.0,0.0,0.0,0.0,0.0,0.0,0.0,1.0,1.0,1.0,1.0,11.0,12.0,13.0,14.0,46.16
2024-04-02 21:41:32,358.3125,-6.5625,132.9375,0.02976823470865022,0.0,0.0,160.0,0.0,0.0,0.0,0.0,0.0,0.0,0.0,0.0,1.0,1.0,1.0,1.0,11.0,12.0,13.0,14.0,45.622
2024-04-02 21:41:32,358.3125,-6.5625,133.0,0.02976823470865022,0.0,0.0,-1.0,0.0,0.0,0.0,0.0,0.0,0.0,0.0,0.0,1.0,1.0,1.0,1.0,11.0,12.0,13.0,14.0,45.622
2024-04-02 21:41:32,358.3125,-6.5625,132.9375,0.02976823470865022,0.0,0.0,164.0,0.0,0.0,0.0,0.0,0.0,0.0,0.0,0.0,1.0,1.0,1.0,1.0,11.0,12.0,13.0,14.0,45.622
2024-04-02 21:41:32,358.3125,-6.5625,133.0,0.02976823470865022,0.0,0.0,-1.0,0.0,0.0,0.0,0.0,0.0,0.0,0.0,0.0,1.0,1.0,1.0,1.0,11.0,12.0,13.0,14.0,45.622
2024-04-02 21:41:32,358.3125,-6.5625,132.9375,0.03039470969939336,0.0,0.0,171.0,0.0,0.0,0.0,0.0,0.0,0.0,0.0,0.0,1.0,1.0,1.0,1.0,11.0,12.0,13.0,14.0,45.084
2024-04-02 21:41:32,358.3125,-6.5625,132.9375,0.03039470969939336,0.0,0.0,-1.0,0.0,0.0,0.0,0.0,0.0,0.0,0.0,0.0,1.0,1.0,1.0,1.0,11.0,12.0,13.0,14.0,45.622
2024-04-02 21:41:32,358.3125,-6.5625,133.0,0.03039470969939336,0.0,0.0,-1.0,0.0,0.0,0.0,0.0,0.0,0.0,0.0,0.0,1.0,1.0,1.0,1.0,11.0,12.0,13.0,14.0,45.622
2024-04-02 21:41:32,358.3125,-6.5625,133.0,0.03039470969939336,0.0,0.0,0.0,0.0,0.0,0.0,0.0,0.0,0.0,0.0,0.0,1.0,1.0,1.0,1.0,11.0,12.0,13.0,14.0,45.622
2024-04-02 21:41:32,358.3125,-6.5625,132.9375,0.03039470969939336,0.0,0.0,-1.0,0.0,0.0,0.0,0.0,0.0,0.0,0.0,0.0,1.0,1.0,1.0,1.0,11.0,12.0,13.0,14.0,46.16
2024-04-02 21:41:33,358.3125,-6.5625,133.0,0.03039470969939336,0.0,0.0,-1.0,0.0,0.0,0.0,0.0,0.0,0.0,0.0,0.0,1.0,1.0,1.0,1.0,11.0,12.0,13.0,14.0,46.16
2024-04-02 21:41:33,358.3125,-6.5625,133.0,0.03039470969939336,0.0,0.0,173.0,0.0,0.0,0.0,0.0,0.0,0.0,0.0,0.0,1.0,1.0,1.0,1.0,11.0,12.0,13.0,14.0,45.622
2024-04-02 21:41:33,358.3125,-6.5625,132.9375,0.03039470969939336,0.0,0.0,-1.0,0.0,0.0,0.0,0.0,0.0,0.0,0.0,0.0,1.0,1.0,1.0,1.0,11.0,12.0,13.0,14.0,46.16
2024-04-02 21:41:33,358.3125,-6.5625,133.0,0.03039470969939336,0.0,0.0,-1.0,0.0,0.0,0.0,0.0,0.0,0.0,0.0,0.0,1.0,1.0,1.0,1.0,11.0,12.0,13.0,14.0,45.084
2024-04-02 21:41:33,358.3125,-6.5625,133.0,0.03039470969939336,0.0,0.0,171.0,0.0,0.0,0.0,0.0,0.0,0.0,0.0,0.0,1.0,1.0,1.0,1.0,11.0,12.0,13.0,14.0,45.622
2024-04-02 21:41:33,358.3125,-6.5625,132.9375,0.03039470969939336,0.0,0.0,-1.0,0.0,0.0,0.0,0.0,0.0,0.0,0.0,0.0,1.0,1.0,1.0,1.0,11.0,12.0,13.0,14.0,46.16
2024-04-02 21:41:33,358.3125,-6.5625,133.0625,0.03039470969939336,0.0,0.0,-1.0,0.0,0.0,0.0,0.0,0.0,0.0,0.0,0.0,1.0,1.0,1.0,1.0,11.0,12.0,13.0,14.0,45.622
2024-04-02 21:41:33,358.3125,-6.5625,133.0,0.03039470969939336,0.0,0.0,-1.0,0.0,0.0,0.0,0.0,0.0,0.0,0.0,0.0,1.0,1.0,1.0,1.0,11.0,12.0,13.0,14.0,45.084
2024-04-02 21:41:33,358.3125,-6.5625,132.9375,0.03039470969939336,0.0,0.0,-1.0,0.0,0.0,0.0,0.0,0.0,0.0,0.0,0.0,1.0,1.0,1.0,1.0,11.0,12.0,13.0,14.0,45.622
2024-04-02 21:41:33,358.3125,-6.5625,133.0,0.028516818432442262,0.0,0.0,-1.0,0.0,0.0,0.0,0.0,0.0,0.0,0.0,0.0,1.0,1.0,1.0,1.0,11.0,12.0,13.0,14.0,46.16
2024-04-02 21:41:33,358.3125,-6.5625,133.0625,0.028516818432442262,0.0,0.0,-1.0,0.0,0.0,0.0,0.0,0.0,0.0,0.0,0.0,1.0,1.0,1.0,1.0,11.0,12.0,13.0,14.0,46.16
2024-04-02 21:41:33,358.3125,-6.5625,133.0,0.028516818432442262,0.0,0.0,-1.0,0.0,0.0,0.0,0.0,0.0,0.0,0.0,0.0,1.0,1.0,1.0,1.0,11.0,12.0,13.0,14.0,46.16
2024-04-02 21:41:33,358.25,-6.5625,133.0625,0.028516818432442262,0.0,0.0,175.0,0.0,0.0,0.0,0.0,0.0,0.0,0.0,0.0,1.0,1.0,1.0,1.0,11.0,12.0,13.0,14.0,46.16
2024-04-02 21:41:34,358.3125,-6.5625,133.0,0.028516818432442262,0.0,0.0,-1.0,0.0,0.0,0.0,0.0,0.0,0.0,0.0,0.0,1.0,1.0,1.0,1.0,11.0,12.0,13.0,14.0,46.16
2024-04-02 21:41:34,358.3125,-6.5625,133.0,0.028516818432442262,0.0,0.0,-1.0,0.0,0.0,0.0,0.0,0.0,0.0,0.0,0.0,1.0,1.0,1.0,1.0,11.0,12.0,13.0,14.0,45.622
2024-04-02 21:41:34,358.25,-6.5625,133.0625,0.028516818432442262,0.0,0.0,-1.0,0.0,0.0,0.0,0.0,0.0,0.0,0.0,0.0,1.0,1.0,1.0,1.0,11.0,12.0,13.0,14.0,46.16
2024-04-02 21:41:34,358.3125,-6.5625,133.0,0.028516818432442262,0.0,0.0,-1.0,0.0,0.0,0.0,0.0,0.0,0.0,0.0,0.0,1.0,1.0,1.0,1.0,11.0,12.0,13.0,14.0,45.084
2024-04-02 21:41:34,358.3125,-6.5625,133.0,0.028516818432442262,0.0,0.0,-1.0,0.0,0.0,0.0,0.0,0.0,0.0,0.0,0.0,1.0,1.0,1.0,1.0,11.0,12.0,13.0,14.0,46.16
2024-04-02 21:41:34,358.3125,-6.5625,133.0625,0.028516818432442262,0.0,0.0,-1.0,0.0,0.0,0.0,0.0,0.0,0.0,0.0,0.0,1.0,1.0,1.0,1.0,11.0,12.0,13.0,14.0,46.16
2024-04-02 21:41:34,358.3125,-6.5625,133.0625,0.028516818432442262,0.0,0.0,-1.0,0.0,0.0,0.0,0.0,0.0,0.0,0.0,0.0,1.0,1.0,1.0,1.0,11.0,12.0,13.0,14.0,45.622
2024-04-02 21:41:34,358.3125,-6.5625,133.0625,0.028516818432442262,0.0,0.0,0.0,0.0,0.0,0.0,0.0,0.0,0.0,0.0,0.0,1.0,1.0,1.0,1.0,11.0,12.0,13.0,14.0,46.16
2024-04-02 21:41:34,358.3125,-6.5625,133.0625,0.030929973577443703,0.0,0.0,-1.0,0.0,0.0,0.0,0.0,0.0,0.0,0.0,0.0,1.0,1.0,1.0,1.0,11.0,12.0,13.0,14.0,45.622
2024-04-02 21:41:34,358.3125,-6.5625,133.0,0.030929973577443703,0.0,0.0,-1.0,0.0,0.0,0.0,0.0,0.0,0.0,0.0,0.0,1.0,1.0,1.0,1.0,11.0,12.0,13.0,14.0,46.16
2024-04-02 21:41:34,358.3125,-6.5625,133.0625,0.030929973577443703,0.0,0.0,-1.0,0.0,0.0,0.0,0.0,0.0,0.0,0.0,0.0,1.0,1.0,1.0,1.0,11.0,12.0,13.0,14.0,46.16
2024-04-02 21:41:34,358.25,-6.5625,133.0625,0.030929973577443703,0.0,0.0,-1.0,0.0,0.0,0.0,0.0,0.0,0.0,0.0,0.0,1.0,1.0,1.0,1.0,11.0,12.0,13.0,14.0,46.16
2024-04-02 21:41:34,358.3125,-6.5625,133.0625,0.030929973577443703,0.0,0.0,-1.0,0.0,0.0,0.0,0.0,0.0,0.0,0.0,0.0,1.0,1.0,1.0,1.0,11.0,12.0,13.0,14.0,45.622
2024-04-02 21:41:34,358.3125,-6.5625,133.0625,0.030929973577443703,0.0,0.0,-1.0,0.0,0.0,0.0,0.0,0.0,0.0,0.0,0.0,1.0,1.0,1.0,1.0,11.0,12.0,13.0,14.0,46.16
2024-04-02 21:41:35,358.25,-6.5625,133.0625,0.030929973577443703,0.0,0.0,-1.0,0.0,0.0,0.0,0.0,0.0,0.0,0.0,0.0,1.0,1.0,1.0,1.0,11.0,12.0,13.0,14.0,46.16
2024-04-02 21:41:35,358.3125,-6.5625,133.0625,0.030929973577443703,0.0,0.0,-1.0,0.0,0.0,0.0,0.0,0.0,0.0,0.0,0.0,1.0,1.0,1.0,1.0,11.0,12.0,13.0,14.0,46.16
2024-04-02 21:41:35,358.3125,-6.5625,133.0625,0.030929973577443703,0.0,0.0,-1.0,0.0,0.0,0.0,0.0,0.0,0.0,0.0,0.0,1.0,1.0,1.0,1.0,11.0,12.0,13.0,14.0,46.16
2024-04-02 21:41:35,358.25,-6.5625,133.0625,0.030929973577443703,0.0,0.0,-1.0,0.0,0.0,0.0,0.0,0.0,0.0,0.0,0.0,1.0,1.0,1.0,1.0,11.0,12.0,13.0,14.0,45.622
2024-04-02 21:41:35,358.3125,-6.5625,133.0625,0.030929973577443703,0.0,0.0,169.0,0.0,0.0,0.0,0.0,0.0,0.0,0.0,0.0,1.0,1.0,1.0,1.0,11.0,12.0,13.0,14.0,46.16
2024-04-02 21:41:35,358.25,-6.5625,133.0625,0.030929973577443703,0.0,0.0,-1.0,0.0,0.0,0.0,0.0,0.0,0.0,0.0,0.0,1.0,1.0,1.0,1.0,11.0,12.0,13.0,14.0,45.622
2024-04-02 21:41:35,358.3125,-6.5625,133.0625,0.02852344028966141,0.0,0.0,-1.0,0.0,0.0,0.0,0.0,0.0,0.0,0.0,0.0,1.0,1.0,1.0,1.0,11.0,12.0,13.0,14.0,45.622
2024-04-02 21:41:35,358.3125,-6.5625,133.0625,0.02852344028966141,0.0,0.0,-1.0,0.0,0.0,0.0,0.0,0.0,0.0,0.0,0.0,1.0,1.0,1.0,1.0,11.0,12.0,13.0,14.0,45.622
2024-04-02 21:41:35,358.25,-6.5625,133.0625,0.02852344028966141,0.0,0.0,-1.0,0.0,0.0,0.0,0.0,0.0,0.0,0.0,0.0,1.0,1.0,1.0,1.0,11.0,12.0,13.0,14.0,45.622
2024-04-02 21:41:35,358.3125,-6.5625,133.0625,0.02852344028966141,0.0,0.0,-1.0,0.0,0.0,0.0,0.0,0.0,0.0,0.0,0.0,1.0,1.0,1.0,1.0,11.0,12.0,13.0,14.0,46.16
2024-04-02 21:41:35,358.3125,-6.5625,133.0625,0.02852344028966141,0.0,0.0,-1.0,0.0,0.0,0.0,0.0,0.0,0.0,0.0,0.0,1.0,1.0,1.0,1.0,11.0,12.0,13.0,14.0,46.16
2024-04-02 21:41:35,358.25,-6.5625,133.125,0.02852344028966141,0.0,0.0,-1.0,0.0,0.0,0.0,0.0,0.0,0.0,0.0,0.0,1.0,1.0,1.0,1.0,11.0,12.0,13.0,14.0,46.16
2024-04-02 21:41:35,358.25,-6.5625,133.0625,0.02852344028966141,0.0,0.0,-1.0,0.0,0.0,0.0,0.0,0.0,0.0,0.0,0.0,1.0,1.0,1.0,1.0,11.0,12.0,13.0,14.0,46.16
2024-04-02 21:41:35,358.25,-6.5625,133.0625,0.02852344028966141,0.0,0.0,-1.0,0.0,0.0,0.0,0.0,0.0,0.0,0.0,0.0,1.0,1.0,1.0,1.0,11.0,12.0,13.0,14.0,46.16
2024-04-02 21:41:36,358.25,-6.5625,133.125,0.02852344028966141,0.0,0.0,-1.0,0.0,0.0,0.0,0.0,0.0,0.0,0.0,0.0,1.0,1.0,1.0,1.0,11.0,12.0,13.0,14.0,46.16
2024-04-02 21:41:36,358.3125,-6.5625,133.0625,0.02852344028966141,0.0,0.0,155.0,0.0,0.0,0.0,0.0,0.0,0.0,0.0,0.0,1.0,1.0,1.0,1.0,11.0,12.0,13.0,14.0,46.16
2024-04-02 21:41:36,358.25,-6.5625,133.0625,0.02852344028966141,0.0,0.0,-1.0,0.0,0.0,0.0,0.0,0.0,0.0,0.0,0.0,1.0,1.0,1.0,1.0,11.0,12.0,13.0,14.0,46.16
2024-04-02 21:41:36,358.25,-6.5625,133.0625,0.02852344028966141,0.0,0.0,-1.0,0.0,0.0,0.0,0.0,0.0,0.0,0.0,0.0,1.0,1.0,1.0,1.0,11.0,12.0,13.0,14.0,45.084
2024-04-02 21:41:36,358.3125,-6.5625,133.0625,0.024222497076030212,0.0,0.0,177.0,0.0,0.0,0.0,0.0,0.0,0.0,0.0,0.0,1.0,1.0,1.0,1.0,11.0,12.0,13.0,14.0,46.16
2024-04-02 21:41:36,358.3125,-6.5625,133.0625,0.024222497076030212,0.0,0.0,-1.0,0.0,0.0,0.0,0.0,0.0,0.0,0.0,0.0,1.0,1.0,1.0,1.0,11.0,12.0,13.0,14.0,45.622
2024-04-02 21:41:36,358.3125,-6.5625,133.0625,0.024222497076030212,0.0,0.0,-1.0,0.0,0.0,0.0,0.0,0.0,0.0,0.0,0.0,1.0,1.0,1.0,1.0,11.0,12.0,13.0,14.0,45.084
2024-04-02 21:41:36,358.3125,-6.5625,133.0625,0.024222497076030212,0.0,0.0,-1.0,0.0,0.0,0.0,0.0,0.0,0.0,0.0,0.0,1.0,1.0,1.0,1.0,11.0,12.0,13.0,14.0,45.622
2024-04-02 21:41:36,358.3125,-6.5625,133.0625,0.024222497076030212,0.0,0.0,-1.0,0.0,0.0,0.0,0.0,0.0,0.0,0.0,0.0,1.0,1.0,1.0,1.0,11.0,12.0,13.0,14.0,45.622
2024-04-02 21:41:36,358.3125,-6.5625,133.0625,0.024222497076030212,0.0,0.0,-1.0,0.0,0.0,0.0,0.0,0.0,0.0,0.0,0.0,1.0,1.0,1.0,1.0,11.0,12.0,13.0,14.0,46.16
2024-04-02 21:41:36,358.25,-6.5625,133.0625,0.024222497076030212,0.0,0.0,-1.0,0.0,0.0,0.0,0.0,0.0,0.0,0.0,0.0,1.0,1.0,1.0,1.0,11.0,12.0,13.0,14.0,45.622
2024-04-02 21:41:36,358.3125,-6.5625,133.0,0.024222497076030212,0.0,0.0,179.0,0.0,0.0,0.0,0.0,0.0,0.0,0.0,0.0,1.0,1.0,1.0,1.0,11.0,12.0,13.0,14.0,45.622
2024-04-02 21:41:36,358.3125,-6.5625,133.0,0.024222497076030212,0.0,0.0,-1.0,0.0,0.0,0.0,0.0,0.0,0.0,0.0,0.0,1.0,1.0,1.0,1.0,11.0,12.0,13.0,14.0,45.622
2024-04-02 21:41:37,358.3125,-6.5625,133.0625,0.024222497076030212,0.0,0.0,-1.0,0.0,0.0,0.0,0.0,0.0,0.0,0.0,0.0,1.0,1.0,1.0,1.0,11.0,12.0,13.0,14.0,45.622
2024-04-02 21:41:37,358.3125,-6.5625,133.0625,0.024222497076030212,0.0,0.0,177.0,0.0,0.0,0.0,0.0,0.0,0.0,0.0,0.0,1.0,1.0,1.0,1.0,11.0,12.0,13.0,14.0,45.622
2024-04-02 21:41:37,358.3125,-6.5625,133.0625,0.024222497076030212,0.0,0.0,-1.0,0.0,0.0,0.0,0.0,0.0,0.0,0.0,0.0,1.0,1.0,1.0,1.0,11.0,12.0,13.0,14.0,46.16
2024-04-02 21:41:37,358.3125,-6.5625,133.0625,0.024222497076030212,0.0,0.0,-1.0,0.0,0.0,0.0,0.0,0.0,0.0,0.0,0.0,1.0,1.0,1.0,1.0,11.0,12.0,13.0,14.0,46.16
2024-04-02 21:41:37,358.25,-6.5625,133.0625,0.02638689224744831,0.0,0.0,178.0,0.0,0.0,0.0,0.0,0.0,0.0,0.0,0.0,1.0,1.0,1.0,1.0,11.0,12.0,13.0,14.0,45.622
2024-04-02 21:41:37,358.25,-6.5625,133.0625,0.02638689224744831,0.0,0.0,-1.0,0.0,0.0,0.0,0.0,0.0,0.0,0.0,0.0,1.0,1.0,1.0,1.0,11.0,12.0,13.0,14.0,45.622
2024-04-02 21:41:37,358.3125,-6.5625,133.0625,0.02638689224744831,0.0,0.0,-1.0,0.0,0.0,0.0,0.0,0.0,0.0,0.0,0.0,1.0,1.0,1.0,1.0,11.0,12.0,13.0,14.0,45.622
2024-04-02 21:41:37,358.3125,-6.5625,133.0625,0.02638689224744831,0.0,0.0,-1.0,0.0,0.0,0.0,0.0,0.0,0.0,0.0,0.0,1.0,1.0,1.0,1.0,11.0,12.0,13.0,14.0,46.16
2024-04-02 21:41:37,358.3125,-6.5625,133.0625,0.02638689224744831,0.0,0.0,-1.0,0.0,0.0,0.0,0.0,0.0,0.0,0.0,0.0,1.0,1.0,1.0,1.0,11.0,12.0,13.0,14.0,45.622
2024-04-02 21:41:37,358.3125,-6.5625,133.0625,0.02638689224744831,0.0,0.0,-1.0,0.0,0.0,0.0,0.0,0.0,0.0,0.0,0.0,1.0,1.0,1.0,1.0,11.0,12.0,13.0,14.0,46.16
2024-04-02 21:41:37,358.3125,-6.5625,133.0625,0.02638689224744831,0.0,0.0,-1.0,0.0,0.0,0.0,0.0,0.0,0.0,0.0,0.0,1.0,1.0,1.0,1.0,11.0,12.0,13.0,14.0,46.16
2024-04-02 21:41:37,358.3125,-6.5625,133.0625,0.02638689224744831,0.0,0.0,-1.0,0.0,0.0,0.0,0.0,0.0,0.0,0.0,0.0,1.0,1.0,1.0,1.0,11.0,12.0,13.0,14.0,46.698
2024-04-02 21:41:37,358.3125,-6.5625,133.0625,0.02638689224744831,0.0,0.0,-1.0,0.0,0.0,0.0,0.0,0.0,0.0,0.0,0.0,1.0,1.0,1.0,1.0,11.0,12.0,13.0,14.0,46.16
2024-04-02 21:41:37,358.3125,-6.5625,133.0625,0.02638689224744831,0.0,0.0,-1.0,0.0,0.0,0.0,0.0,0.0,0.0,0.0,0.0,1.0,1.0,1.0,1.0,11.0,12.0,13.0,14.0,45.622
2024-04-02 21:41:37,358.3125,-6.5625,133.0,0.02638689224744831,0.0,0.0,-1.0,0.0,0.0,0.0,0.0,0.0,0.0,0.0,0.0,1.0,1.0,1.0,1.0,11.0,12.0,13.0,14.0,46.16
2024-04-02 21:41:38,358.3125,-6.5625,133.0625,0.02638689224744831,0.0,0.0,-1.0,0.0,0.0,0.0,0.0,0.0,0.0,0.0,0.0,1.0,1.0,1.0,1.0,11.0,12.0,13.0,14.0,45.622
2024-04-02 21:41:38,358.3125,-6.5625,133.0625,0.02897045701327686,0.0,0.0,183.0,0.0,0.0,0.0,0.0,0.0,0.0,0.0,0.0,1.0,1.0,1.0,1.0,11.0,12.0,13.0,14.0,46.16
2024-04-02 21:41:38,358.3125,-6.5625,133.0,0.02897045701327686,0.0,0.0,-1.0,0.0,0.0,0.0,0.0,0.0,0.0,0.0,0.0,1.0,1.0,1.0,1.0,11.0,12.0,13.0,14.0,45.084
2024-04-02 21:41:38,358.3125,-6.5625,133.0,0.02897045701327686,0.0,0.0,-1.0,0.0,0.0,0.0,0.0,0.0,0.0,0.0,0.0,1.0,1.0,1.0,1.0,11.0,12.0,13.0,14.0,45.622
2024-04-02 21:41:38,358.3125,-6.5625,133.0,0.02897045701327686,0.0,0.0,172.0,0.0,0.0,0.0,0.0,0.0,0.0,0.0,0.0,1.0,1.0,1.0,1.0,11.0,12.0,13.0,14.0,45.622
2024-04-02 21:41:38,358.3125,-6.5625,132.9375,0.02897045701327686,0.0,0.0,-1.0,0.0,0.0,0.0,0.0,0.0,0.0,0.0,0.0,1.0,1.0,1.0,1.0,11.0,12.0,13.0,14.0,46.16
2024-04-02 21:41:38,358.3125,-6.5625,133.0,0.02897045701327686,0.0,0.0,-1.0,0.0,0.0,0.0,0.0,0.0,0.0,0.0,0.0,1.0,1.0,1.0,1.0,11.0,12.0,13.0,14.0,46.16
2024-04-02 21:41:38,358.3125,-6.5625,133.0,0.02897045701327686,0.0,0.0,174.0,0.0,0.0,0.0,0.0,0.0,0.0,0.0,0.0,1.0,1.0,1.0,1.0,11.0,12.0,13.0,14.0,46.16
2024-04-02 21:41:38,358.3125,-6.5625,133.0,0.02897045701327686,0.0,0.0,-1.0,0.0,0.0,0.0,0.0,0.0,0.0,0.0,0.0,1.0,1.0,1.0,1.0,11.0,12.0,13.0,14.0,45.622
2024-04-02 21:41:38,358.3125,-6.5625,133.0,0.02897045701327686,0.0,0.0,-1.0,0.0,0.0,0.0,0.0,0.0,0.0,0.0,0.0,1.0,1.0,1.0,1.0,11.0,12.0,13.0,14.0,45.622
2024-04-02 21:41:38,358.3125,-6.5625,133.0,0.02897045701327686,0.0,0.0,-1.0,0.0,0.0,0.0,0.0,0.0,0.0,0.0,0.0,1.0,1.0,1.0,1.0,11.0,12.0,13.0,14.0,45.084
2024-04-02 21:41:38,358.3125,-6.5625,133.0,0.02897045701327686,0.0,0.0,-1.0,0.0,0.0,0.0,0.0,0.0,0.0,0.0,0.0,1.0,1.0,1.0,1.0,11.0,12.0,13.0,14.0,46.16
2024-04-02 21:41:38,358.3125,-6.5625,133.0,0.02897045701327686,0.0,0.0,-1.0,0.0,0.0,0.0,0.0,0.0,0.0,0.0,0.0,1.0,1.0,1.0,1.0,11.0,12.0,13.0,14.0,46.16
2024-04-02 21:41:38,358.3125,-6.5625,133.0,0.02897045701327686,0.0,0.0,-1.0,0.0,0.0,0.0,0.0,0.0,0.0,0.0,0.0,1.0,1.0,1.0,1.0,11.0,12.0,13.0,14.0,46.16
2024-04-02 21:41:39,358.3125,-6.5625,133.0,0.02897045701327686,0.0,0.0,-1.0,0.0,0.0,0.0,0.0,0.0,0.0,0.0,0.0,1.0,1.0,1.0,1.0,11.0,12.0,13.0,14.0,45.084
2024-04-02 21:41:39,358.3125,-6.5625,133.0,0.030496577233757944,0.0,0.0,182.0,0.0,0.0,0.0,0.0,0.0,0.0,0.0,0.0,1.0,1.0,1.0,1.0,11.0,12.0,13.0,14.0,45.622
2024-04-02 21:41:39,358.3125,-6.5625,133.0,0.030496577233757944,0.0,0.0,-1.0,0.0,0.0,0.0,0.0,0.0,0.0,0.0,0.0,1.0,1.0,1.0,1.0,11.0,12.0,13.0,14.0,46.16
2024-04-02 21:41:39,358.3125,-6.5625,133.0,0.030496577233757944,0.0,0.0,-1.0,0.0,0.0,0.0,0.0,0.0,0.0,0.0,0.0,1.0,1.0,1.0,1.0,11.0,12.0,13.0,14.0,46.16
2024-04-02 21:41:39,358.3125,-6.5625,133.0,0.030496577233757944,0.0,0.0,0.0,0.0,0.0,0.0,0.0,0.0,0.0,0.0,0.0,1.0,1.0,1.0,1.0,11.0,12.0,13.0,14.0,46.16
2024-04-02 21:41:39,358.3125,-6.5625,133.0,0.030496577233757944,0.0,0.0,-1.0,0.0,0.0,0.0,0.0,0.0,0.0,0.0,0.0,1.0,1.0,1.0,1.0,11.0,12.0,13.0,14.0,45.622
2024-04-02 21:41:39,358.3125,-6.5625,133.0,0.030496577233757944,0.0,0.0,-1.0,0.0,0.0,0.0,0.0,0.0,0.0,0.0,0.0,1.0,1.0,1.0,1.0,11.0,12.0,13.0,14.0,45.622
2024-04-02 21:41:39,358.3125,-6.5625,133.0,0.030496577233757944,0.0,0.0,176.0,0.0,0.0,0.0,0.0,0.0,0.0,0.0,0.0,1.0,1.0,1.0,1.0,11.0,12.0,13.0,14.0,45.622
2024-04-02 21:41:39,358.3125,-6.5625,133.0,0.030496577233757944,0.0,0.0,-1.0,0.0,0.0,0.0,0.0,0.0,0.0,0.0,0.0,1.0,1.0,1.0,1.0,11.0,12.0,13.0,14.0,46.16
2024-04-02 21:41:39,358.3125,-6.5625,133.0,0.030496577233757944,0.0,0.0,-1.0,0.0,0.0,0.0,0.0,0.0,0.0,0.0,0.0,1.0,1.0,1.0,1.0,11.0,12.0,13.0,14.0,45.622
2024-04-02 21:41:39,358.3125,-6.5625,133.0,0.030496577233757944,0.0,0.0,181.0,0.0,0.0,0.0,0.0,0.0,0.0,0.0,0.0,1.0,1.0,1.0,1.0,11.0,12.0,13.0,14.0,45.084
2024-04-02 21:41:39,358.3125,-6.5625,133.0,0.030496577233757944,0.0,0.0,-1.0,0.0,0.0,0.0,0.0,0.0,0.0,0.0,0.0,1.0,1.0,1.0,1.0,11.0,12.0,13.0,14.0,45.084
2024-04-02 21:41:39,358.3125,-6.5625,133.0,0.030496577233757944,0.0,0.0,-1.0,0.0,0.0,0.0,0.0,0.0,0.0,0.0,0.0,1.0,1.0,1.0,1.0,11.0,12.0,13.0,14.0,45.084
2024-04-02 21:41:39,358.3125,-6.5625,133.0,0.030496577233757944,0.0,0.0,-1.0,0.0,0.0,0.0,0.0,0.0,0.0,0.0,0.0,1.0,1.0,1.0,1.0,11.0,12.0,13.0,14.0,45.622
2024-04-02 21:41:40,358.3125,-6.5625,133.0,0.029354167481617826,0.0,0.0,-1.0,0.0,0.0,0.0,0.0,0.0,0.0,0.0,0.0,1.0,1.0,1.0,1.0,11.0,12.0,13.0,14.0,45.622
2024-04-02 21:41:40,358.3125,-6.5625,133.0,0.029354167481617826,0.0,0.0,-1.0,0.0,0.0,0.0,0.0,0.0,0.0,0.0,0.0,1.0,1.0,1.0,1.0,11.0,12.0,13.0,14.0,45.622
2024-04-02 21:41:40,358.3125,-6.5625,133.0,0.029354167481617826,0.0,0.0,-1.0,0.0,0.0,0.0,0.0,0.0,0.0,0.0,0.0,1.0,1.0,1.0,1.0,11.0,12.0,13.0,14.0,46.16
2024-04-02 21:41:40,358.3125,-6.5625,133.0,0.029354167481617826,0.0,0.0,-1.0,0.0,0.0,0.0,0.0,0.0,0.0,0.0,0.0,1.0,1.0,1.0,1.0,11.0,12.0,13.0,14.0,46.16
2024-04-02 21:41:40,358.3125,-6.5625,133.0,0.029354167481617826,0.0,0.0,-1.0,0.0,0.0,0.0,0.0,0.0,0.0,0.0,0.0,1.0,1.0,1.0,1.0,11.0,12.0,13.0,14.0,46.16
2024-04-02 21:41:40,358.3125,-6.5625,133.0,0.029354167481617826,0.0,0.0,-1.0,0.0,0.0,0.0,0.0,0.0,0.0,0.0,0.0,1.0,1.0,1.0,1.0,11.0,12.0,13.0,14.0,45.622
2024-04-02 21:41:40,358.3125,-6.5625,133.0,0.029354167481617826,0.0,0.0,-1.0,0.0,0.0,0.0,0.0,0.0,0.0,0.0,0.0,1.0,1.0,1.0,1.0,11.0,12.0,13.0,14.0,46.16
2024-04-02 21:41:40,358.3125,-6.5625,133.0,0.029354167481617826,0.0,0.0,-1.0,0.0,0.0,0.0,0.0,0.0,0.0,0.0,0.0,1.0,1.0,1.0,1.0,11.0,12.0,13.0,14.0,46.16
2024-04-02 21:41:40,358.3125,-6.5625,133.0,0.029354167481617826,0.0,0.0,172.0,0.0,0.0,0.0,0.0,0.0,0.0,0.0,0.0,1.0,1.0,1.0,1.0,11.0,12.0,13.0,14.0,46.16
2024-04-02 21:41:40,358.3125,-6.5625,133.0,0.029354167481617826,0.0,0.0,-1.0,0.0,0.0,0.0,0.0,0.0,0.0,0.0,0.0,1.0,1.0,1.0,1.0,11.0,12.0,13.0,14.0,45.084
2024-04-02 21:41:40,358.3125,-6.5625,133.0,0.029354167481617826,0.0,0.0,178.0,0.0,0.0,0.0,0.0,0.0,0.0,0.0,0.0,1.0,1.0,1.0,1.0,11.0,12.0,13.0,14.0,45.084
2024-04-02 21:41:40,358.3125,-6.5625,133.0,0.029354167481617826,0.0,0.0,-1.0,0.0,0.0,0.0,0.0,0.0,0.0,0.0,0.0,1.0,1.0,1.0,1.0,11.0,12.0,13.0,14.0,45.622
2024-04-02 21:41:40,358.3125,-6.5625,133.0,0.029354167481617826,0.0,0.0,-1.0,0.0,0.0,0.0,0.0,0.0,0.0,0.0,0.0,1.0,1.0,1.0,1.0,11.0,12.0,13.0,14.0,45.622
2024-04-02 21:41:40,358.3125,-6.5625,133.0,0.03175931522643739,0.0,0.0,-1.0,0.0,0.0,0.0,0.0,0.0,0.0,0.0,0.0,1.0,1.0,1.0,1.0,11.0,12.0,13.0,14.0,46.16
2024-04-02 21:41:40,358.3125,-6.5625,133.0,0.03175931522643739,0.0,0.0,-1.0,0.0,0.0,0.0,0.0,0.0,0.0,0.0,0.0,1.0,1.0,1.0,1.0,11.0,12.0,13.0,14.0,45.622
2024-04-02 21:41:41,358.3125,-6.5625,133.0,0.03175931522643739,0.0,0.0,-1.0,0.0,0.0,0.0,0.0,0.0,0.0,0.0,0.0,1.0,1.0,1.0,1.0,11.0,12.0,13.0,14.0,45.084
2024-04-02 21:41:41,358.3125,-6.5625,132.9375,0.03175931522643739,0.0,0.0,0.0,0.0,0.0,0.0,0.0,0.0,0.0,0.0,0.0,1.0,1.0,1.0,1.0,11.0,12.0,13.0,14.0,46.16
2024-04-02 21:41:41,358.3125,-6.5625,132.9375,0.03175931522643739,0.0,0.0,-1.0,0.0,0.0,0.0,0.0,0.0,0.0,0.0,0.0,1.0,1.0,1.0,1.0,11.0,12.0,13.0,14.0,46.16
2024-04-02 21:41:41,358.3125,-6.5625,132.9375,0.03175931522643739,0.0,0.0,-1.0,0.0,0.0,0.0,0.0,0.0,0.0,0.0,0.0,1.0,1.0,1.0,1.0,11.0,12.0,13.0,14.0,45.622
2024-04-02 21:41:41,358.3125,-6.5625,132.9375,0.03175931522643739,0.0,0.0,-1.0,0.0,0.0,0.0,0.0,0.0,0.0,0.0,0.0,1.0,1.0,1.0,1.0,11.0,12.0,13.0,14.0,45.622
2024-04-02 21:41:41,358.3125,-6.5625,132.9375,0.03175931522643739,0.0,0.0,-1.0,0.0,0.0,0.0,0.0,0.0,0.0,0.0,0.0,1.0,1.0,1.0,1.0,11.0,12.0,13.0,14.0,45.084
2024-04-02 21:41:41,358.3125,-6.5625,132.9375,0.03175931522643739,0.0,0.0,-1.0,0.0,0.0,0.0,0.0,0.0,0.0,0.0,0.0,1.0,1.0,1.0,1.0,11.0,12.0,13.0,14.0,46.16
2024-04-02 21:41:41,358.3125,-6.5625,132.875,0.03175931522643739,0.0,0.0,-1.0,0.0,0.0,0.0,0.0,0.0,0.0,0.0,0.0,1.0,1.0,1.0,1.0,11.0,12.0,13.0,14.0,45.622
2024-04-02 21:41:41,358.375,-6.5625,132.875,0.03175931522643739,0.0,0.0,-1.0,0.0,0.0,0.0,0.0,0.0,0.0,0.0,0.0,1.0,1.0,1.0,1.0,11.0,12.0,13.0,14.0,45.084
2024-04-02 21:41:41,358.3125,-6.5625,132.9375,0.03175931522643739,0.0,0.0,-1.0,0.0,0.0,0.0,0.0,0.0,0.0,0.0,0.0,1.0,1.0,1.0,1.0,11.0,12.0,13.0,14.0,46.16
2024-04-02 21:41:41,358.3125,-6.5625,132.875,0.03175931522643739,0.0,0.0,-1.0,0.0,0.0,0.0,0.0,0.0,0.0,0.0,0.0,1.0,1.0,1.0,1.0,11.0,12.0,13.0,14.0,45.084
2024-04-02 21:41:41,358.3125,-6.5625,132.875,0.03175931522643739,0.0,0.0,-1.0,0.0,0.0,0.0,0.0,0.0,0.0,0.0,0.0,1.0,1.0,1.0,1.0,11.0,12.0,13.0,14.0,45.622
2024-04-02 21:41:41,358.3125,-6.5625,132.875,0.025330652174447663,0.0,0.0,-1.0,0.0,0.0,0.0,0.0,0.0,0.0,0.0,0.0,1.0,1.0,1.0,1.0,11.0,12.0,13.0,14.0,46.16
2024-04-02 21:41:41,358.375,-6.5625,132.875,0.025330652174447663,0.0,0.0,-1.0,0.0,0.0,0.0,0.0,0.0,0.0,0.0,0.0,1.0,1.0,1.0,1.0,11.0,12.0,13.0,14.0,45.084
2024-04-02 21:41:42,358.375,-6.5625,132.875,0.025330652174447663,0.0,0.0,-1.0,0.0,0.0,0.0,0.0,0.0,0.0,0.0,0.0,1.0,1.0,1.0,1.0,11.0,12.0,13.0,14.0,45.622
2024-04-02 21:41:42,358.375,-6.5625,132.875,0.025330652174447663,0.0,0.0,-1.0,0.0,0.0,0.0,0.0,0.0,0.0,0.0,0.0,1.0,1.0,1.0,1.0,11.0,12.0,13.0,14.0,45.622
2024-04-02 21:41:42,358.375,-6.5625,132.875,0.025330652174447663,0.0,0.0,-1.0,0.0,0.0,0.0,0.0,0.0,0.0,0.0,0.0,1.0,1.0,1.0,1.0,11.0,12.0,13.0,14.0,46.16
2024-04-02 21:41:42,358.375,-6.5625,132.875,0.025330652174447663,0.0,0.0,-1.0,0.0,0.0,0.0,0.0,0.0,0.0,0.0,0.0,1.0,1.0,1.0,1.0,11.0,12.0,13.0,14.0,45.622
2024-04-02 21:41:42,358.375,-6.5625,132.875,0.025330652174447663,0.0,0.0,-1.0,0.0,0.0,0.0,0.0,0.0,0.0,0.0,0.0,1.0,1.0,1.0,1.0,11.0,12.0,13.0,14.0,46.16
2024-04-02 21:41:42,358.375,-6.5625,132.875,0.025330652174447663,0.0,0.0,-1.0,0.0,0.0,0.0,0.0,0.0,0.0,0.0,0.0,1.0,1.0,1.0,1.0,11.0,12.0,13.0,14.0,45.622
2024-04-02 21:41:42,358.375,-6.5625,132.875,0.025330652174447663,0.0,0.0,-1.0,0.0,0.0,0.0,0.0,0.0,0.0,0.0,0.0,1.0,1.0,1.0,1.0,11.0,12.0,13.0,14.0,46.16
2024-04-02 21:41:42,358.375,-6.5625,132.875,0.025330652174447663,0.0,0.0,177.0,0.0,0.0,0.0,0.0,0.0,0.0,0.0,0.0,1.0,1.0,1.0,1.0,11.0,12.0,13.0,14.0,45.622
2024-04-02 21:41:42,358.375,-6.5625,132.875,0.025330652174447663,0.0,0.0,-1.0,0.0,0.0,0.0,0.0,0.0,0.0,0.0,0.0,1.0,1.0,1.0,1.0,11.0,12.0,13.0,14.0,46.16
2024-04-02 21:41:42,358.375,-6.5625,132.875,0.025330652174447663,0.0,0.0,-1.0,0.0,0.0,0.0,0.0,0.0,0.0,0.0,0.0,1.0,1.0,1.0,1.0,11.0,12.0,13.0,14.0,46.16
2024-04-02 21:41:42,358.375,-6.5625,132.875,0.025330652174447663,0.0,0.0,182.0,0.0,0.0,0.0,0.0,0.0,0.0,0.0,0.0,1.0,1.0,1.0,1.0,11.0,12.0,13.0,14.0,46.16
2024-04-02 21:41:42,358.375,-6.5625,132.875,0.025330652174447663,0.0,0.0,-1.0,0.0,0.0,0.0,0.0,0.0,0.0,0.0,0.0,1.0,1.0,1.0,1.0,11.0,12.0,13.0,14.0,46.16
2024-04-02 21:41:42,358.375,-6.5625,132.875,0.025330652174447663,0.0,0.0,-1.0,0.0,0.0,0.0,0.0,0.0,0.0,0.0,0.0,1.0,1.0,1.0,1.0,11.0,12.0,13.0,14.0,46.16
2024-04-02 21:41:42,358.375,-6.5625,132.875,0.02862512155942897,0.0,0.0,-1.0,0.0,0.0,0.0,0.0,0.0,0.0,0.0,0.0,1.0,1.0,1.0,1.0,11.0,12.0,13.0,14.0,45.084
2024-04-02 21:41:42,358.375,-6.5625,132.875,0.02862512155942897,0.0,0.0,-1.0,0.0,0.0,0.0,0.0,0.0,0.0,0.0,0.0,1.0,1.0,1.0,1.0,11.0,12.0,13.0,14.0,46.16
2024-04-02 21:41:43,358.375,-6.5625,132.875,0.02862512155942897,0.0,0.0,-1.0,0.0,0.0,0.0,0.0,0.0,0.0,0.0,0.0,1.0,1.0,1.0,1.0,11.0,12.0,13.0,14.0,46.16
2024-04-02 21:41:43,358.375,-6.5625,132.875,0.02862512155942897,0.0,0.0,-1.0,0.0,0.0,0.0,0.0,0.0,0.0,0.0,0.0,1.0,1.0,1.0,1.0,11.0,12.0,13.0,14.0,46.16
2024-04-02 21:41:43,358.375,-6.5625,132.875,0.02862512155942897,0.0,0.0,-1.0,0.0,0.0,0.0,0.0,0.0,0.0,0.0,0.0,1.0,1.0,1.0,1.0,11.0,12.0,13.0,14.0,45.622
2024-04-02 21:41:43,358.375,-6.5625,132.875,0.02862512155942897,0.0,0.0,-1.0,0.0,0.0,0.0,0.0,0.0,0.0,0.0,0.0,1.0,1.0,1.0,1.0,11.0,12.0,13.0,14.0,46.16
2024-04-02 21:41:43,358.375,-6.5625,132.875,0.02862512155942897,0.0,0.0,0.0,0.0,0.0,0.0,0.0,0.0,0.0,0.0,0.0,1.0,1.0,1.0,1.0,11.0,12.0,13.0,14.0,45.622
2024-04-02 21:41:43,358.375,-6.5625,132.875,0.02862512155942897,0.0,0.0,-1.0,0.0,0.0,0.0,0.0,0.0,0.0,0.0,0.0,1.0,1.0,1.0,1.0,11.0,12.0,13.0,14.0,46.16
2024-04-02 21:41:43,358.375,-6.5625,132.875,0.02862512155942897,0.0,0.0,-1.0,0.0,0.0,0.0,0.0,0.0,0.0,0.0,0.0,1.0,1.0,1.0,1.0,11.0,12.0,13.0,14.0,46.16
2024-04-02 21:41:43,358.375,-6.5625,132.875,0.02862512155942897,0.0,0.0,173.0,0.0,0.0,0.0,0.0,0.0,0.0,0.0,0.0,1.0,1.0,1.0,1.0,11.0,12.0,13.0,14.0,45.622
2024-04-02 21:41:43,358.375,-6.5625,132.875,0.02862512155942897,0.0,0.0,-1.0,0.0,0.0,0.0,0.0,0.0,0.0,0.0,0.0,1.0,1.0,1.0,1.0,11.0,12.0,13.0,14.0,46.16
2024-04-02 21:41:43,358.375,-6.5625,132.875,0.02519776904039475,0.0,0.0,186.0,0.0,0.0,0.0,0.0,0.0,0.0,0.0,0.0,1.0,1.0,1.0,1.0,11.0,12.0,13.0,14.0,46.16
2024-04-02 21:41:43,358.375,-6.5625,132.875,0.02519776904039475,0.0,0.0,-1.0,0.0,0.0,0.0,0.0,0.0,0.0,0.0,0.0,1.0,1.0,1.0,1.0,11.0,12.0,13.0,14.0,46.16
2024-04-02 21:41:43,358.375,-6.5625,132.875,0.02519776904039475,0.0,0.0,-1.0,0.0,0.0,0.0,0.0,0.0,0.0,0.0,0.0,1.0,1.0,1.0,1.0,11.0,12.0,13.0,14.0,45.622
2024-04-02 21:41:44,358.375,-6.5625,132.875,0.02519776904039475,0.0,0.0,-1.0,0.0,0.0,0.0,0.0,0.0,0.0,0.0,0.0,1.0,1.0,1.0,1.0,11.0,12.0,13.0,14.0,45.622
2024-04-02 21:41:44,358.375,-6.5625,132.875,0.02519776904039475,0.0,0.0,-1.0,0.0,0.0,0.0,0.0,0.0,0.0,0.0,0.0,1.0,1.0,1.0,1.0,11.0,12.0,13.0,14.0,45.622
2024-04-02 21:41:44,358.375,-6.5625,132.875,0.02519776904039475,0.0,0.0,-1.0,0.0,0.0,0.0,0.0,0.0,0.0,0.0,0.0,1.0,1.0,1.0,1.0,11.0,12.0,13.0,14.0,46.16
2024-04-02 21:41:44,358.375,-6.5625,132.875,0.02519776904039475,0.0,0.0,-1.0,0.0,0.0,0.0,0.0,0.0,0.0,0.0,0.0,1.0,1.0,1.0,1.0,11.0,12.0,13.0,14.0,46.16
2024-04-02 21:41:44,358.375,-6.5625,132.875,0.02519776904039475,0.0,0.0,-1.0,0.0,0.0,0.0,0.0,0.0,0.0,0.0,0.0,1.0,1.0,1.0,1.0,11.0,12.0,13.0,14.0,45.622
2024-04-02 21:41:44,358.375,-6.5625,132.875,0.02519776904039475,0.0,0.0,-1.0,0.0,0.0,0.0,0.0,0.0,0.0,0.0,0.0,1.0,1.0,1.0,1.0,11.0,12.0,13.0,14.0,46.16
2024-04-02 21:41:44,358.375,-6.5625,132.875,0.02519776904039475,0.0,0.0,-1.0,0.0,0.0,0.0,0.0,0.0,0.0,0.0,0.0,1.0,1.0,1.0,1.0,11.0,12.0,13.0,14.0,46.16
2024-04-02 21:41:44,358.375,-6.5625,132.875,0.02519776904039475,0.0,0.0,0.0,0.0,0.0,0.0,0.0,0.0,0.0,0.0,0.0,1.0,1.0,1.0,1.0,11.0,12.0,13.0,14.0,46.16
2024-04-02 21:41:44,358.375,-6.5625,132.875,0.02519776904039475,0.0,0.0,-1.0,0.0,0.0,0.0,0.0,0.0,0.0,0.0,0.0,1.0,1.0,1.0,1.0,11.0,12.0,13.0,14.0,46.16
2024-04-02 21:41:44,358.375,-6.5625,132.875,0.028918134500313546,0.0,0.0,-1.0,0.0,0.0,0.0,0.0,0.0,0.0,0.0,0.0,1.0,1.0,1.0,1.0,11.0,12.0,13.0,14.0,46.16
2024-04-02 21:41:44,358.375,-6.5625,132.875,0.028918134500313546,0.0,0.0,0.0,0.0,0.0,0.0,0.0,0.0,0.0,0.0,0.0,1.0,1.0,1.0,1.0,11.0,12.0,13.0,14.0,46.16
2024-04-02 21:41:44,358.375,-6.5625,132.875,0.028918134500313546,0.0,0.0,-1.0,0.0,0.0,0.0,0.0,0.0,0.0,0.0,0.0,1.0,1.0,1.0,1.0,11.0,12.0,13.0,14.0,46.16
2024-04-02 21:41:44,358.375,-6.5625,132.875,0.028918134500313546,0.0,0.0,-1.0,0.0,0.0,0.0,0.0,0.0,0.0,0.0,0.0,1.0,1.0,1.0,1.0,11.0,12.0,13.0,14.0,45.622
2024-04-02 21:41:44,358.375,-6.5625,132.875,0.028918134500313546,0.0,0.0,0.0,0.0,0.0,0.0,0.0,0.0,0.0,0.0,0.0,1.0,1.0,1.0,1.0,11.0,12.0,13.0,14.0,46.16
2024-04-02 21:41:45,358.375,-6.5625,132.875,0.028918134500313546,0.0,0.0,-1.0,0.0,0.0,0.0,0.0,0.0,0.0,0.0,0.0,1.0,1.0,1.0,1.0,11.0,12.0,13.0,14.0,46.16
2024-04-02 21:41:45,358.375,-6.5625,132.875,0.028918134500313546,0.0,0.0,-1.0,0.0,0.0,0.0,0.0,0.0,0.0,0.0,0.0,1.0,1.0,1.0,1.0,11.0,12.0,13.0,14.0,46.16
2024-04-02 21:41:45,358.375,-6.5625,132.875,0.028918134500313546,0.0,0.0,-1.0,0.0,0.0,0.0,0.0,0.0,0.0,0.0,0.0,1.0,1.0,1.0,1.0,11.0,12.0,13.0,14.0,46.16
2024-04-02 21:41:45,358.375,-6.5625,132.875,0.028918134500313546,0.0,0.0,-1.0,0.0,0.0,0.0,0.0,0.0,0.0,0.0,0.0,1.0,1.0,1.0,1.0,11.0,12.0,13.0,14.0,46.16
2024-04-02 21:41:45,358.375,-6.5625,132.875,0.028918134500313546,0.0,0.0,-1.0,0.0,0.0,0.0,0.0,0.0,0.0,0.0,0.0,1.0,1.0,1.0,1.0,11.0,12.0,13.0,14.0,46.16
2024-04-02 21:41:45,358.375,-6.5625,132.875,0.028918134500313546,0.0,0.0,-1.0,0.0,0.0,0.0,0.0,0.0,0.0,0.0,0.0,1.0,1.0,1.0,1.0,11.0,12.0,13.0,14.0,46.16
2024-04-02 21:41:45,358.375,-6.5625,132.875,0.028918134500313546,0.0,0.0,-1.0,0.0,0.0,0.0,0.0,0.0,0.0,0.0,0.0,1.0,1.0,1.0,1.0,11.0,12.0,13.0,14.0,45.084
2024-04-02 21:41:45,358.375,-6.5625,132.875,0.028918134500313546,0.0,0.0,-1.0,0.0,0.0,0.0,0.0,0.0,0.0,0.0,0.0,1.0,1.0,1.0,1.0,11.0,12.0,13.0,14.0,46.16
2024-04-02 21:41:45,358.375,-6.5625,132.875,0.02808723618000004,0.0,0.0,0.0,0.0,0.0,0.0,0.0,0.0,0.0,0.0,0.0,1.0,1.0,1.0,1.0,11.0,12.0,13.0,14.0,45.622
2024-04-02 21:41:45,358.375,-6.5625,-1915.125,0.02808723618000004,0.0,0.0,-1.0,0.0,0.0,0.0,0.0,0.0,0.0,0.0,0.0,1.0,1.0,1.0,1.0,11.0,12.0,13.0,14.0,45.622
2024-04-02 21:41:45,358.375,-6.5625,132.875,0.02808723618000004,0.0,0.0,-1.0,0.0,0.0,0.0,0.0,0.0,0.0,0.0,0.0,1.0,1.0,1.0,1.0,11.0,12.0,13.0,14.0,46.16
2024-04-02 21:41:45,358.375,-6.5625,132.875,0.02808723618000004,0.0,0.0,-1.0,0.0,0.0,0.0,0.0,0.0,0.0,0.0,0.0,1.0,1.0,1.0,1.0,11.0,12.0,13.0,14.0,45.084
2024-04-02 21:41:45,358.375,-6.5625,132.875,0.02808723618000004,0.0,0.0,-1.0,0.0,0.0,0.0,0.0,0.0,0.0,0.0,0.0,1.0,1.0,1.0,1.0,11.0,12.0,13.0,14.0,46.16
2024-04-02 21:41:45,358.375,-6.5625,132.875,0.02808723618000004,0.0,0.0,183.0,0.0,0.0,0.0,0.0,0.0,0.0,0.0,0.0,1.0,1.0,1.0,1.0,11.0,12.0,13.0,14.0,45.084
2024-04-02 21:41:46,358.375,-6.5625,132.875,0.02808723618000004,0.0,0.0,-1.0,0.0,0.0,0.0,0.0,0.0,0.0,0.0,0.0,1.0,1.0,1.0,1.0,11.0,12.0,13.0,14.0,46.16
2024-04-02 21:41:46,358.375,-6.5625,132.875,0.02808723618000004,0.0,0.0,-1.0,0.0,0.0,0.0,0.0,0.0,0.0,0.0,0.0,1.0,1.0,1.0,1.0,11.0,12.0,13.0,14.0,45.622
2024-04-02 21:41:46,358.3125,-6.5625,132.875,0.02808723618000004,0.0,0.0,-1.0,0.0,0.0,0.0,0.0,0.0,0.0,0.0,0.0,1.0,1.0,1.0,1.0,11.0,12.0,13.0,14.0,45.622
2024-04-02 21:41:46,358.3125,-6.5625,132.875,0.02808723618000004,0.0,0.0,-1.0,0.0,0.0,0.0,0.0,0.0,0.0,0.0,0.0,1.0,1.0,1.0,1.0,11.0,12.0,13.0,14.0,46.16
2024-04-02 21:41:46,358.3125,-6.5625,132.875,0.02808723618000004,0.0,0.0,180.0,0.0,0.0,0.0,0.0,0.0,0.0,0.0,0.0,1.0,1.0,1.0,1.0,11.0,12.0,13.0,14.0,45.622
2024-04-02 21:41:46,358.3125,-6.5625,132.875,0.02808723618000004,0.0,0.0,-1.0,0.0,0.0,0.0,0.0,0.0,0.0,0.0,0.0,1.0,1.0,1.0,1.0,11.0,12.0,13.0,14.0,46.16
2024-04-02 21:41:46,358.3125,-6.5625,132.875,0.02808723618000004,0.0,0.0,-1.0,0.0,0.0,0.0,0.0,0.0,0.0,0.0,0.0,1.0,1.0,1.0,1.0,11.0,12.0,13.0,14.0,46.16
2024-04-02 21:41:46,358.3125,-6.5625,132.875,0.030114598699438007,0.0,0.0,0.0,0.0,0.0,0.0,0.0,0.0,0.0,0.0,0.0,1.0,1.0,1.0,1.0,11.0,12.0,13.0,14.0,46.16
2024-04-02 21:41:46,358.3125,-6.5625,132.875,0.030114598699438007,0.0,0.0,-1.0,0.0,0.0,0.0,0.0,0.0,0.0,0.0,0.0,1.0,1.0,1.0,1.0,11.0,12.0,13.0,14.0,45.622
2024-04-02 21:41:46,358.3125,-6.5625,132.9375,0.030114598699438007,0.0,0.0,-1.0,0.0,0.0,0.0,0.0,0.0,0.0,0.0,0.0,1.0,1.0,1.0,1.0,11.0,12.0,13.0,14.0,46.16
2024-04-02 21:41:46,358.3125,-6.5625,132.9375,0.030114598699438007,0.0,0.0,176.0,0.0,0.0,0.0,0.0,0.0,0.0,0.0,0.0,1.0,1.0,1.0,1.0,11.0,12.0,13.0,14.0,45.622
2024-04-02 21:41:46,358.3125,-6.5625,132.9375,0.030114598699438007,0.0,0.0,-1.0,0.0,0.0,0.0,0.0,0.0,0.0,0.0,0.0,1.0,1.0,1.0,1.0,11.0,12.0,13.0,14.0,46.16
2024-04-02 21:41:46,358.3125,-6.5625,132.9375,0.030114598699438007,0.0,0.0,-1.0,0.0,0.0,0.0,0.0,0.0,0.0,0.0,0.0,1.0,1.0,1.0,1.0,11.0,12.0,13.0,14.0,45.622
2024-04-02 21:41:46,358.3125,-6.5625,132.9375,0.030114598699438007,0.0,0.0,177.0,0.0,0.0,0.0,0.0,0.0,0.0,0.0,0.0,1.0,1.0,1.0,1.0,11.0,12.0,13.0,14.0,46.16
2024-04-02 21:41:46,358.3125,-6.5625,132.9375,0.030114598699438007,0.0,0.0,-1.0,0.0,0.0,0.0,0.0,0.0,0.0,0.0,0.0,1.0,1.0,1.0,1.0,11.0,12.0,13.0,14.0,46.16
2024-04-02 21:41:47,358.3125,-6.5625,132.9375,0.030114598699438007,0.0,0.0,-1.0,0.0,0.0,0.0,0.0,0.0,0.0,0.0,0.0,1.0,1.0,1.0,1.0,11.0,12.0,13.0,14.0,46.16
2024-04-02 21:41:47,358.3125,-6.5625,132.9375,0.030114598699438007,0.0,0.0,183.0,0.0,0.0,0.0,0.0,0.0,0.0,0.0,0.0,1.0,1.0,1.0,1.0,11.0,12.0,13.0,14.0,46.16
2024-04-02 21:41:47,358.3125,-6.5625,132.9375,0.030114598699438007,0.0,0.0,-1.0,0.0,0.0,0.0,0.0,0.0,0.0,0.0,0.0,1.0,1.0,1.0,1.0,11.0,12.0,13.0,14.0,45.622
2024-04-02 21:41:47,358.3125,-6.5625,132.9375,0.029181499037738153,0.0,0.0,-1.0,0.0,0.0,0.0,0.0,0.0,0.0,0.0,0.0,1.0,1.0,1.0,1.0,11.0,12.0,13.0,14.0,46.16
2024-04-02 21:41:47,358.3125,-6.5625,132.9375,0.029181499037738153,0.0,0.0,-1.0,0.0,0.0,0.0,0.0,0.0,0.0,0.0,0.0,1.0,1.0,1.0,1.0,11.0,12.0,13.0,14.0,46.698
2024-04-02 21:41:47,358.3125,-6.5625,132.9375,0.029181499037738153,0.0,0.0,-1.0,0.0,0.0,0.0,0.0,0.0,0.0,0.0,0.0,1.0,1.0,1.0,1.0,11.0,12.0,13.0,14.0,45.622
2024-04-02 21:41:47,358.3125,-6.5625,132.9375,0.029181499037738153,0.0,0.0,-1.0,0.0,0.0,0.0,0.0,0.0,0.0,0.0,0.0,1.0,1.0,1.0,1.0,11.0,12.0,13.0,14.0,46.16
2024-04-02 21:41:47,358.3125,-6.5625,132.9375,0.029181499037738153,0.0,0.0,-1.0,0.0,0.0,0.0,0.0,0.0,0.0,0.0,0.0,1.0,1.0,1.0,1.0,11.0,12.0,13.0,14.0,45.622
2024-04-02 21:41:47,358.3125,-6.5625,132.9375,0.029181499037738153,0.0,0.0,-1.0,0.0,0.0,0.0,0.0,0.0,0.0,0.0,0.0,1.0,1.0,1.0,1.0,11.0,12.0,13.0,14.0,45.622
2024-04-02 21:41:47,358.3125,-6.5625,133.0,0.029181499037738153,0.0,0.0,-1.0,0.0,0.0,0.0,0.0,0.0,0.0,0.0,0.0,1.0,1.0,1.0,1.0,11.0,12.0,13.0,14.0,46.16
2024-04-02 21:41:47,358.3125,-6.5625,133.0,0.029181499037738153,0.0,0.0,-1.0,0.0,0.0,0.0,0.0,0.0,0.0,0.0,0.0,1.0,1.0,1.0,1.0,11.0,12.0,13.0,14.0,46.16
2024-04-02 21:41:47,358.3125,-6.5625,133.0,0.029181499037738153,0.0,0.0,-1.0,0.0,0.0,0.0,0.0,0.0,0.0,0.0,0.0,1.0,1.0,1.0,1.0,11.0,12.0,13.0,14.0,45.622
2024-04-02 21:41:47,358.3125,-6.5625,133.0,0.029181499037738153,0.0,0.0,-1.0,0.0,0.0,0.0,0.0,0.0,0.0,0.0,0.0,1.0,1.0,1.0,1.0,11.0,12.0,13.0,14.0,45.622
2024-04-02 21:41:47,358.3125,-6.5625,133.0,0.029181499037738153,0.0,0.0,-1.0,0.0,0.0,0.0,0.0,0.0,0.0,0.0,0.0,1.0,1.0,1.0,1.0,11.0,12.0,13.0,14.0,46.16
2024-04-02 21:41:48,358.3125,-6.5625,133.0,0.029181499037738153,0.0,0.0,-1.0,0.0,0.0,0.0,0.0,0.0,0.0,0.0,0.0,1.0,1.0,1.0,1.0,11.0,12.0,13.0,14.0,46.16
2024-04-02 21:41:48,358.3125,-6.5625,133.0,0.029747124117763563,0.0,0.0,186.0,0.0,0.0,0.0,0.0,0.0,0.0,0.0,0.0,1.0,1.0,1.0,1.0,11.0,12.0,13.0,14.0,46.16
2024-04-02 21:41:48,358.3125,-6.5625,133.0,0.029747124117763563,0.0,0.0,-1.0,0.0,0.0,0.0,0.0,0.0,0.0,0.0,0.0,1.0,1.0,1.0,1.0,11.0,12.0,13.0,14.0,45.622
2024-04-02 21:41:48,358.3125,-6.5625,133.0,0.029747124117763563,0.0,0.0,-1.0,0.0,0.0,0.0,0.0,0.0,0.0,0.0,0.0,1.0,1.0,1.0,1.0,11.0,12.0,13.0,14.0,46.16
2024-04-02 21:41:48,358.3125,-6.5625,133.0,0.029747124117763563,0.0,0.0,-1.0,0.0,0.0,0.0,0.0,0.0,0.0,0.0,0.0,1.0,1.0,1.0,1.0,11.0,12.0,13.0,14.0,46.16
2024-04-02 21:41:48,358.3125,-6.5625,133.0,0.029747124117763563,0.0,0.0,-1.0,0.0,0.0,0.0,0.0,0.0,0.0,0.0,0.0,1.0,1.0,1.0,1.0,11.0,12.0,13.0,14.0,46.16
2024-04-02 21:41:48,358.3125,-6.5625,133.0,0.029747124117763563,0.0,0.0,-1.0,0.0,0.0,0.0,0.0,0.0,0.0,0.0,0.0,1.0,1.0,1.0,1.0,11.0,12.0,13.0,14.0,46.16
2024-04-02 21:41:48,358.3125,-6.5625,133.0,0.029747124117763563,0.0,0.0,-1.0,0.0,0.0,0.0,0.0,0.0,0.0,0.0,0.0,1.0,1.0,1.0,1.0,11.0,12.0,13.0,14.0,46.16
2024-04-02 21:41:48,358.3125,-6.5625,133.0,0.029747124117763563,0.0,0.0,-1.0,0.0,0.0,0.0,0.0,0.0,0.0,0.0,0.0,1.0,1.0,1.0,1.0,11.0,12.0,13.0,14.0,46.16
2024-04-02 21:41:48,358.3125,-6.5625,133.0,0.029747124117763563,0.0,0.0,-1.0,0.0,0.0,0.0,0.0,0.0,0.0,0.0,0.0,1.0,1.0,1.0,1.0,11.0,12.0,13.0,14.0,46.16
2024-04-02 21:41:48,358.3125,-6.5625,133.0,0.029747124117763563,0.0,0.0,-1.0,0.0,0.0,0.0,0.0,0.0,0.0,0.0,0.0,1.0,1.0,1.0,1.0,11.0,12.0,13.0,14.0,46.16
2024-04-02 21:41:48,358.3125,-6.5625,133.0,0.029747124117763563,0.0,0.0,-1.0,0.0,0.0,0.0,0.0,0.0,0.0,0.0,0.0,1.0,1.0,1.0,1.0,11.0,12.0,13.0,14.0,46.16
2024-04-02 21:41:48,358.3125,-6.5625,133.0,0.029747124117763563,0.0,0.0,186.0,0.0,0.0,0.0,0.0,0.0,0.0,0.0,0.0,1.0,1.0,1.0,1.0,11.0,12.0,13.0,14.0,46.16
2024-04-02 21:41:49,358.3125,-6.5625,133.0,0.029915088965583998,0.0,0.0,-1.0,0.0,0.0,0.0,0.0,0.0,0.0,0.0,0.0,1.0,1.0,1.0,1.0,11.0,12.0,13.0,14.0,46.16
2024-04-02 21:41:49,358.3125,-6.5625,133.0,0.029915088965583998,0.0,0.0,0.0,0.0,0.0,0.0,0.0,0.0,0.0,0.0,0.0,1.0,1.0,1.0,1.0,11.0,12.0,13.0,14.0,45.084
2024-04-02 21:41:49,358.3125,-6.5625,133.0,0.029915088965583998,0.0,0.0,-1.0,0.0,0.0,0.0,0.0,0.0,0.0,0.0,0.0,1.0,1.0,1.0,1.0,11.0,12.0,13.0,14.0,46.16
2024-04-02 21:41:49,358.3125,-6.5625,133.0,0.029915088965583998,0.0,0.0,182.0,0.0,0.0,0.0,0.0,0.0,0.0,0.0,0.0,1.0,1.0,1.0,1.0,11.0,12.0,13.0,14.0,46.16
2024-04-02 21:41:49,358.3125,-6.5625,133.0,0.029915088965583998,0.0,0.0,-1.0,0.0,0.0,0.0,0.0,0.0,0.0,0.0,0.0,1.0,1.0,1.0,1.0,11.0,12.0,13.0,14.0,46.16
2024-04-02 21:41:49,358.3125,-6.5625,133.0,0.029915088965583998,0.0,0.0,-1.0,0.0,0.0,0.0,0.0,0.0,0.0,0.0,0.0,1.0,1.0,1.0,1.0,11.0,12.0,13.0,14.0,46.16
2024-04-02 21:41:49,358.3125,-6.5625,133.0,0.029915088965583998,0.0,0.0,-1.0,0.0,0.0,0.0,0.0,0.0,0.0,0.0,0.0,1.0,1.0,1.0,1.0,11.0,12.0,13.0,14.0,46.16
2024-04-02 21:41:49,358.3125,-6.5625,133.0,0.029915088965583998,0.0,0.0,-1.0,0.0,0.0,0.0,0.0,0.0,0.0,0.0,0.0,1.0,1.0,1.0,1.0,11.0,12.0,13.0,14.0,46.16
2024-04-02 21:41:49,358.3125,-6.5625,133.0,0.029915088965583998,0.0,0.0,-1.0,0.0,0.0,0.0,0.0,0.0,0.0,0.0,0.0,1.0,1.0,1.0,1.0,11.0,12.0,13.0,14.0,46.16
2024-04-02 21:41:49,358.3125,-6.5625,133.0,0.029915088965583998,0.0,0.0,-1.0,0.0,0.0,0.0,0.0,0.0,0.0,0.0,0.0,1.0,1.0,1.0,1.0,11.0,12.0,13.0,14.0,45.622
2024-04-02 21:41:49,358.3125,-6.5625,133.0,0.029915088965583998,0.0,0.0,-1.0,0.0,0.0,0.0,0.0,0.0,0.0,0.0,0.0,1.0,1.0,1.0,1.0,11.0,12.0,13.0,14.0,46.16
2024-04-02 21:41:49,358.3125,-6.5625,133.0,0.03139271611235247,0.0,0.0,-1.0,0.0,0.0,0.0,0.0,0.0,0.0,0.0,0.0,1.0,1.0,1.0,1.0,11.0,12.0,13.0,14.0,46.16
2024-04-02 21:41:49,358.3125,-6.5625,133.0,0.03139271611235247,0.0,0.0,-1.0,0.0,0.0,0.0,0.0,0.0,0.0,0.0,0.0,1.0,1.0,1.0,1.0,11.0,12.0,13.0,14.0,46.16
2024-04-02 21:41:50,358.3125,-6.5625,133.0,0.03139271611235247,0.0,0.0,-1.0,0.0,0.0,0.0,0.0,0.0,0.0,0.0,0.0,1.0,1.0,1.0,1.0,11.0,12.0,13.0,14.0,46.16
2024-04-02 21:41:50,358.3125,-6.5625,133.0,0.03139271611235247,0.0,0.0,-1.0,0.0,0.0,0.0,0.0,0.0,0.0,0.0,0.0,1.0,1.0,1.0,1.0,11.0,12.0,13.0,14.0,46.16
2024-04-02 21:41:50,358.3125,-6.5625,133.0,0.03139271611235247,0.0,0.0,-1.0,0.0,0.0,0.0,0.0,0.0,0.0,0.0,0.0,1.0,1.0,1.0,1.0,11.0,12.0,13.0,14.0,46.16
2024-04-02 21:41:50,358.3125,-6.5625,133.0,0.03139271611235247,0.0,0.0,-1.0,0.0,0.0,0.0,0.0,0.0,0.0,0.0,0.0,1.0,1.0,1.0,1.0,11.0,12.0,13.0,14.0,45.622
2024-04-02 21:41:50,358.3125,-6.5625,133.0,0.03139271611235247,0.0,0.0,190.0,0.0,0.0,0.0,0.0,0.0,0.0,0.0,0.0,1.0,1.0,1.0,1.0,11.0,12.0,13.0,14.0,46.16
2024-04-02 21:41:50,358.3125,-6.5625,133.0,0.03139271611235247,0.0,0.0,-1.0,0.0,0.0,0.0,0.0,0.0,0.0,0.0,0.0,1.0,1.0,1.0,1.0,11.0,12.0,13.0,14.0,46.16
2024-04-02 21:41:50,358.3125,-6.5625,133.0,0.03139271611235247,0.0,0.0,183.0,0.0,0.0,0.0,0.0,0.0,0.0,0.0,0.0,1.0,1.0,1.0,1.0,11.0,12.0,13.0,14.0,46.16
2024-04-02 21:41:50,358.3125,-6.5625,133.0,0.03139271611235247,0.0,0.0,-1.0,0.0,0.0,0.0,0.0,0.0,0.0,0.0,0.0,1.0,1.0,1.0,1.0,11.0,12.0,13.0,14.0,46.698
2024-04-02 21:41:50,358.3125,-6.5625,133.0,0.03139271611235247,0.0,0.0,-1.0,0.0,0.0,0.0,0.0,0.0,0.0,0.0,0.0,1.0,1.0,1.0,1.0,11.0,12.0,13.0,14.0,46.16
2024-04-02 21:41:50,358.3125,-6.5625,133.0,0.03139271611235247,0.0,0.0,-1.0,0.0,0.0,0.0,0.0,0.0,0.0,0.0,0.0,1.0,1.0,1.0,1.0,11.0,12.0,13.0,14.0,45.622
2024-04-02 21:41:50,358.3125,-6.5625,133.0,0.03137260471751025,0.0,0.0,-1.0,0.0,0.0,0.0,0.0,0.0,0.0,0.0,0.0,1.0,1.0,1.0,1.0,11.0,12.0,13.0,14.0,46.16
2024-04-02 21:41:50,358.3125,-6.5625,133.0,0.03137260471751025,0.0,0.0,-1.0,0.0,0.0,0.0,0.0,0.0,0.0,0.0,0.0,1.0,1.0,1.0,1.0,11.0,12.0,13.0,14.0,46.16
2024-04-02 21:41:50,358.3125,-6.5625,133.0,0.03137260471751025,0.0,0.0,-1.0,0.0,0.0,0.0,0.0,0.0,0.0,0.0,0.0,1.0,1.0,1.0,1.0,11.0,12.0,13.0,14.0,45.622
2024-04-02 21:41:51,358.3125,-6.5625,133.0,0.03137260471751025,0.0,0.0,-1.0,0.0,0.0,0.0,0.0,0.0,0.0,0.0,0.0,1.0,1.0,1.0,1.0,11.0,12.0,13.0,14.0,45.622
2024-04-02 21:41:51,358.3125,-6.5625,133.0,0.03137260471751025,0.0,0.0,-1.0,0.0,0.0,0.0,0.0,0.0,0.0,0.0,0.0,1.0,1.0,1.0,1.0,11.0,12.0,13.0,14.0,46.16
2024-04-02 21:41:51,358.3125,-6.5625,133.0,0.03137260471751025,0.0,0.0,-1.0,0.0,0.0,0.0,0.0,0.0,0.0,0.0,0.0,1.0,1.0,1.0,1.0,11.0,12.0,13.0,14.0,46.16
2024-04-02 21:41:51,358.3125,-6.5625,133.0,0.03137260471751025,0.0,0.0,-1.0,0.0,0.0,0.0,0.0,0.0,0.0,0.0,0.0,1.0,1.0,1.0,1.0,11.0,12.0,13.0,14.0,46.16
2024-04-02 21:41:51,358.3125,-6.5625,133.0,0.03137260471751025,0.0,0.0,-1.0,0.0,0.0,0.0,0.0,0.0,0.0,0.0,0.0,1.0,1.0,1.0,1.0,11.0,12.0,13.0,14.0,46.16
2024-04-02 21:41:51,358.3125,-6.5625,133.0,0.03137260471751025,0.0,0.0,-1.0,0.0,0.0,0.0,0.0,0.0,0.0,0.0,0.0,1.0,1.0,1.0,1.0,11.0,12.0,13.0,14.0,45.622
2024-04-02 21:41:51,358.3125,-6.5625,133.0,0.03137260471751025,0.0,0.0,-1.0,0.0,0.0,0.0,0.0,0.0,0.0,0.0,0.0,1.0,1.0,1.0,1.0,11.0,12.0,13.0,14.0,45.622
