Timestamp,Yaw,Pitch,Roll,Depth,Depth Set,Depth Control,Water,Roll Control,Pitch Control,Thruster1,Thruster2,Thruster3,Thruster4,Thruster5,Thruster6,BCD1,BCD2,BCD3,BCD4,BCD1 Volt,BCD2 Volt,BCD3 Volt,BCD4 Volt,CPU
2024-04-02 20:55:32,0.5625,-7.5,121.1875,0.07907407684153207,0.0,0.0,-1.0,0.0,0.0,0.0,0.0,0.0,0.0,0.0,0.0,0.0,0.0,0.0,0.0,11.0,12.0,13.0,14.0,42.932
2024-04-02 20:55:32,0.5625,-7.5,121.1875,0.07907407684153207,0.0,0.0,-1.0,0.0,0.0,0.0,0.0,0.0,0.0,0.0,0.0,0.0,0.0,0.0,0.0,11.0,12.0,13.0,14.0,43.47
2024-04-02 20:55:32,0.5625,-7.5,121.1875,0.07907407684153207,0.0,0.0,-1.0,0.0,0.0,0.0,0.0,0.0,0.0,0.0,0.0,0.0,0.0,0.0,0.0,11.0,12.0,13.0,14.0,42.932
2024-04-02 20:55:32,0.5625,-7.5,121.1875,0.07907407684153207,0.0,0.0,-1.0,0.0,0.0,0.0,0.0,0.0,0.0,0.0,0.0,0.0,0.0,0.0,0.0,11.0,12.0,13.0,14.0,43.47
2024-04-02 20:55:32,0.5625,-7.5,121.1875,0.07907407684153207,0.0,0.0,-1.0,0.0,0.0,0.0,0.0,0.0,0.0,0.0,0.0,0.0,0.0,0.0,0.0,11.0,12.0,13.0,14.0,42.932
2024-04-02 20:55:32,0.5625,-7.5,121.1875,0.07907407684153207,0.0,0.0,-1.0,0.0,0.0,0.0,0.0,0.0,0.0,0.0,0.0,0.0,0.0,0.0,0.0,11.0,12.0,13.0,14.0,43.47
2024-04-02 20:55:32,0.5625,-7.5,121.1875,0.07907407684153207,0.0,0.0,-1.0,0.0,0.0,0.0,0.0,0.0,0.0,0.0,0.0,0.0,0.0,0.0,0.0,11.0,12.0,13.0,14.0,43.47
2024-04-02 20:55:33,0.5625,-7.5,121.1875,0.07907407684153207,0.0,0.0,-1.0,0.0,0.0,0.0,0.0,0.0,0.0,0.0,0.0,0.0,0.0,0.0,0.0,11.0,12.0,13.0,14.0,42.932
2024-04-02 20:55:33,0.5625,-7.5,121.1875,0.07907407684153207,0.0,0.0,-1.0,0.0,0.0,0.0,0.0,0.0,0.0,0.0,0.0,0.0,0.0,0.0,0.0,11.0,12.0,13.0,14.0,42.932
2024-04-02 20:55:33,0.5625,-7.5,121.1875,0.07907407684153207,0.0,0.0,-1.0,0.0,0.0,0.0,0.0,0.0,0.0,0.0,0.0,0.0,0.0,0.0,0.0,11.0,12.0,13.0,14.0,43.47
2024-04-02 20:55:33,0.5625,-7.5,121.1875,0.07907407684153207,0.0,0.0,-1.0,0.0,0.0,0.0,0.0,0.0,0.0,0.0,0.0,0.0,0.0,0.0,0.0,11.0,12.0,13.0,14.0,43.47
2024-04-02 20:55:33,0.5625,-7.5,121.1875,0.07907407684153207,0.0,0.0,-1.0,0.0,0.0,0.0,0.0,0.0,0.0,0.0,0.0,0.0,0.0,0.0,0.0,11.0,12.0,13.0,14.0,43.47
2024-04-02 20:55:33,0.5625,-7.5,121.1875,0.07907407684153207,0.0,0.0,-1.0,0.0,0.0,0.0,0.0,0.0,0.0,0.0,0.0,0.0,0.0,0.0,0.0,11.0,12.0,13.0,14.0,43.47
2024-04-02 20:55:33,0.5625,-7.5,121.1875,0.07907407684153207,0.0,0.0,-1.0,0.0,0.0,0.0,0.0,0.0,0.0,0.0,0.0,0.0,0.0,0.0,0.0,11.0,12.0,13.0,14.0,43.47
2024-04-02 20:55:33,0.5625,-7.5,121.1875,0.07907407684153207,0.0,0.0,-1.0,0.0,0.0,0.0,0.0,0.0,0.0,0.0,0.0,0.0,0.0,0.0,0.0,11.0,12.0,13.0,14.0,42.932
2024-04-02 20:55:33,0.5625,-7.5,121.1875,0.07906946713308816,0.0,0.0,-1.0,0.0,0.0,0.0,0.0,0.0,0.0,0.0,0.0,0.0,0.0,0.0,0.0,11.0,12.0,13.0,14.0,43.47
2024-04-02 20:55:33,0.5625,-7.5,121.1875,0.07906946713308816,0.0,0.0,-1.0,0.0,0.0,0.0,0.0,0.0,0.0,0.0,0.0,0.0,0.0,0.0,0.0,11.0,12.0,13.0,14.0,43.47
2024-04-02 20:55:33,0.5625,-7.5,121.1875,0.07906946713308816,0.0,0.0,-1.0,0.0,0.0,0.0,0.0,0.0,0.0,0.0,0.0,0.0,0.0,0.0,0.0,11.0,12.0,13.0,14.0,43.47
2024-04-02 20:55:33,0.5625,-7.5,121.1875,0.07906946713308816,0.0,0.0,-1.0,0.0,0.0,0.0,0.0,0.0,0.0,0.0,0.0,0.0,0.0,0.0,0.0,11.0,12.0,13.0,14.0,43.47
2024-04-02 20:55:33,0.5625,-7.5,121.1875,0.07906946713308816,0.0,0.0,-1.0,0.0,0.0,0.0,0.0,0.0,0.0,0.0,0.0,0.0,0.0,0.0,0.0,11.0,12.0,13.0,14.0,43.47
2024-04-02 20:55:34,0.5625,-7.5,121.1875,0.07906946713308816,0.0,0.0,-1.0,0.0,0.0,0.0,0.0,0.0,0.0,0.0,0.0,0.0,0.0,0.0,0.0,11.0,12.0,13.0,14.0,43.47
2024-04-02 20:55:34,0.5625,-7.5,121.1875,0.07906946713308816,0.0,0.0,-1.0,0.0,0.0,0.0,0.0,0.0,0.0,0.0,0.0,0.0,0.0,0.0,0.0,11.0,12.0,13.0,14.0,43.47
2024-04-02 20:55:34,0.5625,-7.5,121.1875,0.07906946713308816,0.0,0.0,-1.0,0.0,0.0,0.0,0.0,0.0,0.0,0.0,0.0,0.0,0.0,0.0,0.0,11.0,12.0,13.0,14.0,44.008
2024-04-02 20:55:34,0.5625,-7.5,121.1875,0.07906946713308816,0.0,0.0,-1.0,0.0,0.0,0.0,0.0,0.0,0.0,0.0,0.0,0.0,0.0,0.0,0.0,11.0,12.0,13.0,14.0,44.008
2024-04-02 20:55:34,0.5625,-7.5,121.1875,0.07906946713308816,0.0,0.0,-1.0,0.0,0.0,0.0,0.0,0.0,0.0,0.0,0.0,0.0,0.0,0.0,0.0,11.0,12.0,13.0,14.0,42.932
2024-04-02 20:55:34,0.5625,-7.5,121.1875,0.07906946713308816,0.0,0.0,-1.0,0.0,0.0,0.0,0.0,0.0,0.0,0.0,0.0,0.0,0.0,0.0,0.0,11.0,12.0,13.0,14.0,42.932
2024-04-02 20:55:34,0.5625,-7.5,121.1875,0.07906946713308816,0.0,0.0,-1.0,0.0,0.0,0.0,0.0,0.0,0.0,0.0,0.0,0.0,0.0,0.0,0.0,11.0,12.0,13.0,14.0,44.008
2024-04-02 20:55:34,0.5625,-7.5,121.1875,0.07906946713308816,0.0,0.0,-1.0,0.0,0.0,0.0,0.0,0.0,0.0,0.0,0.0,0.0,0.0,0.0,0.0,11.0,12.0,13.0,14.0,43.47
2024-04-02 20:55:34,0.5625,-7.5,121.1875,0.08018319948252489,0.0,0.0,-1.0,0.0,0.0,0.0,0.0,0.0,0.0,0.0,0.0,0.0,0.0,0.0,0.0,11.0,12.0,13.0,14.0,42.932
2024-04-02 20:55:34,0.5625,-7.5,121.1875,0.08018319948252489,0.0,0.0,-1.0,0.0,0.0,0.0,0.0,0.0,0.0,0.0,0.0,0.0,0.0,0.0,0.0,11.0,12.0,13.0,14.0,44.008
2024-04-02 20:55:34,0.5625,-7.5,121.1875,0.08018319948252489,0.0,0.0,-1.0,0.0,0.0,0.0,0.0,0.0,0.0,0.0,0.0,0.0,0.0,0.0,0.0,11.0,12.0,13.0,14.0,44.008
2024-04-02 20:55:34,0.5625,-7.5,121.1875,0.08018319948252489,0.0,0.0,-1.0,0.0,0.0,0.0,0.0,0.0,0.0,0.0,0.0,0.0,0.0,0.0,0.0,11.0,12.0,13.0,14.0,43.47
2024-04-02 20:55:34,0.5625,-7.5,121.1875,0.08018319948252489,0.0,0.0,-1.0,0.0,0.0,0.0,0.0,0.0,0.0,0.0,0.0,0.0,0.0,0.0,0.0,11.0,12.0,13.0,14.0,43.47
2024-04-02 20:55:35,0.5625,-7.5,121.1875,0.08018319948252489,0.0,0.0,-1.0,0.0,0.0,0.0,0.0,0.0,0.0,0.0,0.0,0.0,0.0,0.0,0.0,11.0,12.0,13.0,14.0,43.47
2024-04-02 20:55:35,0.5625,-7.5,121.1875,0.08018319948252489,0.0,0.0,-1.0,0.0,0.0,0.0,0.0,0.0,0.0,0.0,0.0,0.0,0.0,0.0,0.0,11.0,12.0,13.0,14.0,44.008
2024-04-02 20:55:35,0.5625,-7.5,121.1875,0.08018319948252489,0.0,0.0,-1.0,0.0,0.0,0.0,0.0,0.0,0.0,0.0,0.0,0.0,0.0,0.0,0.0,11.0,12.0,13.0,14.0,43.47
2024-04-02 20:55:35,0.5625,-7.5,121.1875,0.08018319948252489,0.0,0.0,-1.0,0.0,0.0,0.0,0.0,0.0,0.0,0.0,0.0,0.0,0.0,0.0,0.0,11.0,12.0,13.0,14.0,43.47
2024-04-02 20:55:35,0.5625,-7.5,121.1875,0.08018319948252489,0.0,0.0,-1.0,0.0,0.0,0.0,0.0,0.0,0.0,0.0,0.0,0.0,0.0,0.0,0.0,11.0,12.0,13.0,14.0,43.47
2024-04-02 20:55:35,0.5625,-7.5,121.1875,0.08018319948252489,0.0,0.0,-1.0,0.0,0.0,0.0,0.0,0.0,0.0,0.0,0.0,0.0,0.0,0.0,0.0,11.0,12.0,13.0,14.0,44.008
2024-04-02 20:55:35,0.5625,-7.5,121.1875,0.08018319948252489,0.0,0.0,-1.0,0.0,0.0,0.0,0.0,0.0,0.0,0.0,0.0,0.0,0.0,0.0,0.0,11.0,12.0,13.0,14.0,43.47
2024-04-02 20:55:35,0.5625,-7.5,121.1875,0.08018319948252489,0.0,0.0,-1.0,0.0,0.0,0.0,0.0,0.0,0.0,0.0,0.0,0.0,0.0,0.0,0.0,11.0,12.0,13.0,14.0,44.008
2024-04-02 20:55:35,0.5625,-7.5,121.1875,0.08018319948252489,0.0,0.0,-1.0,0.0,0.0,0.0,0.0,0.0,0.0,0.0,0.0,0.0,0.0,0.0,0.0,11.0,12.0,13.0,14.0,44.008
2024-04-02 20:55:35,0.5625,-7.5,121.1875,0.08018319948252489,0.0,0.0,-1.0,0.0,0.0,0.0,0.0,0.0,0.0,0.0,0.0,0.0,0.0,0.0,0.0,11.0,12.0,13.0,14.0,43.47
2024-04-02 20:55:35,0.5625,-7.5,121.1875,0.07946295651513739,0.0,0.0,-1.0,0.0,0.0,0.0,0.0,0.0,0.0,0.0,0.0,0.0,0.0,0.0,0.0,11.0,12.0,13.0,14.0,43.47
2024-04-02 20:55:35,0.5625,-7.5,121.1875,0.07946295651513739,0.0,0.0,-1.0,0.0,0.0,0.0,0.0,0.0,0.0,0.0,0.0,0.0,0.0,0.0,0.0,11.0,12.0,13.0,14.0,43.47
2024-04-02 20:55:35,0.5625,-7.5,121.1875,0.07946295651513739,0.0,0.0,-1.0,0.0,0.0,0.0,0.0,0.0,0.0,0.0,0.0,0.0,0.0,0.0,0.0,11.0,12.0,13.0,14.0,43.47
2024-04-02 20:55:36,0.5625,-7.5,121.1875,0.07946295651513739,0.0,0.0,-1.0,0.0,0.0,0.0,0.0,0.0,0.0,0.0,0.0,0.0,0.0,0.0,0.0,11.0,12.0,13.0,14.0,43.47
2024-04-02 20:55:36,0.5625,-7.5,121.1875,0.07946295651513739,0.0,0.0,-1.0,0.0,0.0,0.0,0.0,0.0,0.0,0.0,0.0,0.0,0.0,0.0,0.0,11.0,12.0,13.0,14.0,44.008
2024-04-02 20:55:36,0.5625,-7.5,121.1875,0.07946295651513739,0.0,0.0,-1.0,0.0,0.0,0.0,0.0,0.0,0.0,0.0,0.0,0.0,0.0,0.0,0.0,11.0,12.0,13.0,14.0,44.008
2024-04-02 20:55:36,0.5625,-7.5,121.1875,0.07946295651513739,0.0,0.0,-1.0,0.0,0.0,0.0,0.0,0.0,0.0,0.0,0.0,0.0,0.0,0.0,0.0,11.0,12.0,13.0,14.0,43.47
2024-04-02 20:55:36,0.5625,-7.5,121.1875,0.07946295651513739,0.0,0.0,-1.0,0.0,0.0,0.0,0.0,0.0,0.0,0.0,0.0,0.0,0.0,0.0,0.0,11.0,12.0,13.0,14.0,44.008
2024-04-02 20:55:36,0.5625,-7.5,121.1875,0.07946295651513739,0.0,0.0,-1.0,0.0,0.0,0.0,0.0,0.0,0.0,0.0,0.0,0.0,0.0,0.0,0.0,11.0,12.0,13.0,14.0,44.008
2024-04-02 20:55:36,0.5625,-7.5,121.1875,0.07946295651513739,0.0,0.0,-1.0,0.0,0.0,0.0,0.0,0.0,0.0,0.0,0.0,0.0,0.0,0.0,0.0,11.0,12.0,13.0,14.0,44.008
2024-04-02 20:55:36,0.5625,-7.5,121.1875,0.07946295651513739,0.0,0.0,-1.0,0.0,0.0,0.0,0.0,0.0,0.0,0.0,0.0,0.0,0.0,0.0,0.0,11.0,12.0,13.0,14.0,44.008
2024-04-02 20:55:36,0.5625,-7.5,121.1875,0.07946295651513739,0.0,0.0,-1.0,0.0,0.0,0.0,0.0,0.0,0.0,0.0,0.0,0.0,0.0,0.0,0.0,11.0,12.0,13.0,14.0,43.47
2024-04-02 20:55:36,0.5625,-7.5,121.1875,0.07946295651513739,0.0,0.0,-1.0,0.0,0.0,0.0,0.0,0.0,0.0,0.0,0.0,0.0,0.0,0.0,0.0,11.0,12.0,13.0,14.0,44.008
2024-04-02 20:55:36,0.5625,-7.5,121.1875,0.07946295651513739,0.0,0.0,-1.0,0.0,0.0,0.0,0.0,0.0,0.0,0.0,0.0,0.0,0.0,0.0,0.0,11.0,12.0,13.0,14.0,44.008
2024-04-02 20:55:36,0.5625,-7.5,121.1875,0.07946295651513739,0.0,0.0,-1.0,0.0,0.0,0.0,0.0,0.0,0.0,0.0,0.0,0.0,0.0,0.0,0.0,11.0,12.0,13.0,14.0,44.008
2024-04-02 20:55:36,0.5625,-7.5,121.1875,0.07946295651513739,0.0,0.0,-1.0,0.0,0.0,0.0,0.0,0.0,0.0,0.0,0.0,0.0,0.0,0.0,0.0,11.0,12.0,13.0,14.0,44.008
2024-04-02 20:55:36,0.5625,-7.5,121.1875,0.08024031376297093,0.0,0.0,-1.0,0.0,0.0,0.0,0.0,0.0,0.0,0.0,0.0,0.0,0.0,0.0,0.0,11.0,12.0,13.0,14.0,44.008
2024-04-02 20:55:36,0.5625,-7.5,121.1875,0.08024031376297093,0.0,0.0,-1.0,0.0,0.0,0.0,0.0,0.0,0.0,0.0,0.0,0.0,0.0,0.0,0.0,11.0,12.0,13.0,14.0,44.008
2024-04-02 20:55:37,0.5625,-7.5,121.1875,0.08024031376297093,0.0,0.0,-1.0,0.0,0.0,0.0,0.0,0.0,0.0,0.0,0.0,0.0,0.0,0.0,0.0,11.0,12.0,13.0,14.0,43.47
2024-04-02 20:55:37,0.5625,-7.5,121.1875,0.08024031376297093,0.0,0.0,-1.0,0.0,0.0,0.0,0.0,0.0,0.0,0.0,0.0,0.0,0.0,0.0,0.0,11.0,12.0,13.0,14.0,43.47
2024-04-02 20:55:37,0.5625,-7.5,121.1875,0.08024031376297093,0.0,0.0,-1.0,0.0,0.0,0.0,0.0,0.0,0.0,0.0,0.0,0.0,0.0,0.0,0.0,11.0,12.0,13.0,14.0,43.47
2024-04-02 20:55:37,0.5625,-7.5,121.1875,0.08024031376297093,0.0,0.0,-1.0,0.0,0.0,0.0,0.0,0.0,0.0,0.0,0.0,0.0,0.0,0.0,0.0,11.0,12.0,13.0,14.0,43.47
2024-04-02 20:55:37,0.5625,-7.5,121.1875,0.08024031376297093,0.0,0.0,-1.0,0.0,0.0,0.0,0.0,0.0,0.0,0.0,0.0,0.0,0.0,0.0,0.0,11.0,12.0,13.0,14.0,43.47
2024-04-02 20:55:37,0.5625,-7.5,121.1875,0.08024031376297093,0.0,0.0,-1.0,0.0,0.0,0.0,0.0,0.0,0.0,0.0,0.0,0.0,0.0,0.0,0.0,11.0,12.0,13.0,14.0,43.47
2024-04-02 20:55:37,0.5625,-7.5,121.1875,0.08024031376297093,0.0,0.0,-1.0,0.0,0.0,0.0,0.0,0.0,0.0,0.0,0.0,0.0,0.0,0.0,0.0,11.0,12.0,13.0,14.0,44.008
2024-04-02 20:55:37,0.5625,-7.5,121.1875,0.08024031376297093,0.0,0.0,-1.0,0.0,0.0,0.0,0.0,0.0,0.0,0.0,0.0,0.0,0.0,0.0,0.0,11.0,12.0,13.0,14.0,44.008
2024-04-02 20:55:37,0.5625,-7.5,121.1875,0.08024031376297093,0.0,0.0,-1.0,0.0,0.0,0.0,0.0,0.0,0.0,0.0,0.0,0.0,0.0,0.0,0.0,11.0,12.0,13.0,14.0,43.47
2024-04-02 20:55:37,0.5625,-7.5,121.1875,0.08024031376297093,0.0,0.0,-1.0,0.0,0.0,0.0,0.0,0.0,0.0,0.0,0.0,0.0,0.0,0.0,0.0,11.0,12.0,13.0,14.0,44.008
2024-04-02 20:55:37,0.5625,-7.5,121.1875,0.08024031376297093,0.0,0.0,-1.0,0.0,0.0,0.0,0.0,0.0,0.0,0.0,0.0,0.0,0.0,0.0,0.0,11.0,12.0,13.0,14.0,43.47
2024-04-02 20:55:37,0.5625,-7.5,121.1875,0.08024031376297093,0.0,0.0,-1.0,0.0,0.0,0.0,0.0,0.0,0.0,0.0,0.0,0.0,0.0,0.0,0.0,11.0,12.0,13.0,14.0,44.008
2024-04-02 20:55:38,0.5625,-7.5,121.1875,0.08002032709158294,0.0,0.0,-1.0,0.0,0.0,0.0,0.0,0.0,0.0,0.0,0.0,0.0,0.0,0.0,0.0,11.0,12.0,13.0,14.0,44.008
2024-04-02 20:55:38,0.5625,-7.5,121.1875,0.08002032709158294,0.0,0.0,-1.0,0.0,0.0,0.0,0.0,0.0,0.0,0.0,0.0,0.0,0.0,0.0,0.0,11.0,12.0,13.0,14.0,44.008
2024-04-02 20:55:38,0.5625,-7.5,121.1875,0.08002032709158294,0.0,0.0,-1.0,0.0,0.0,0.0,0.0,0.0,0.0,0.0,0.0,0.0,0.0,0.0,0.0,11.0,12.0,13.0,14.0,44.008
2024-04-02 20:55:38,0.5625,-7.5,121.1875,0.08002032709158294,0.0,0.0,-1.0,0.0,0.0,0.0,0.0,0.0,0.0,0.0,0.0,0.0,0.0,0.0,0.0,11.0,12.0,13.0,14.0,44.008
2024-04-02 20:55:38,0.5625,-7.5,121.1875,0.08002032709158294,0.0,0.0,-1.0,0.0,0.0,0.0,0.0,0.0,0.0,0.0,0.0,0.0,0.0,0.0,0.0,11.0,12.0,13.0,14.0,44.546
2024-04-02 20:55:38,0.5625,-7.5,121.1875,0.08002032709158294,0.0,0.0,-1.0,0.0,0.0,0.0,0.0,0.0,0.0,0.0,0.0,0.0,0.0,0.0,0.0,11.0,12.0,13.0,14.0,44.008
2024-04-02 20:55:38,0.5625,-7.5,121.1875,0.08002032709158294,0.0,0.0,-1.0,0.0,0.0,0.0,0.0,0.0,0.0,0.0,0.0,0.0,0.0,0.0,0.0,11.0,12.0,13.0,14.0,43.47
2024-04-02 20:55:38,0.5625,-7.5,121.1875,0.08002032709158294,0.0,0.0,-1.0,0.0,0.0,0.0,0.0,0.0,0.0,0.0,0.0,0.0,0.0,0.0,0.0,11.0,12.0,13.0,14.0,44.008
2024-04-02 20:55:38,0.5625,-7.5,121.1875,0.08002032709158294,0.0,0.0,-1.0,0.0,0.0,0.0,0.0,0.0,0.0,0.0,0.0,0.0,0.0,0.0,0.0,11.0,12.0,13.0,14.0,44.008
2024-04-02 20:55:38,0.5625,-7.5,121.1875,0.08002032709158294,0.0,0.0,-1.0,0.0,0.0,0.0,0.0,0.0,0.0,0.0,0.0,0.0,0.0,0.0,0.0,11.0,12.0,13.0,14.0,44.008
2024-04-02 20:55:38,0.5625,-7.5,121.1875,0.08002032709158294,0.0,0.0,-1.0,0.0,0.0,0.0,0.0,0.0,0.0,0.0,0.0,0.0,0.0,0.0,0.0,11.0,12.0,13.0,14.0,43.47
2024-04-02 20:55:38,0.5625,-7.5,121.1875,0.08002032709158294,0.0,0.0,-1.0,0.0,0.0,0.0,0.0,0.0,0.0,0.0,0.0,0.0,0.0,0.0,0.0,11.0,12.0,13.0,14.0,44.008
2024-04-02 20:55:38,0.5625,-7.5,121.1875,0.08002032709158294,0.0,0.0,-1.0,0.0,0.0,0.0,0.0,0.0,0.0,0.0,0.0,0.0,0.0,0.0,0.0,11.0,12.0,13.0,14.0,44.008
2024-04-02 20:55:38,0.5625,-7.5,121.1875,0.08002032709158294,0.0,0.0,-1.0,0.0,0.0,0.0,0.0,0.0,0.0,0.0,0.0,0.0,0.0,0.0,0.0,11.0,12.0,13.0,14.0,44.008
2024-04-02 20:55:39,0.5625,-7.5,121.1875,0.08002032709158294,0.0,0.0,-1.0,0.0,0.0,0.0,0.0,0.0,0.0,0.0,0.0,0.0,0.0,0.0,0.0,11.0,12.0,13.0,14.0,44.008
2024-04-02 20:55:39,0.5625,-7.5,121.1875,0.07968875707771339,0.0,0.0,-1.0,0.0,0.0,0.0,0.0,0.0,0.0,0.0,0.0,0.0,0.0,0.0,0.0,11.0,12.0,13.0,14.0,44.008
2024-04-02 20:55:39,0.5625,-7.5,121.1875,0.07968875707771339,0.0,0.0,-1.0,0.0,0.0,0.0,0.0,0.0,0.0,0.0,0.0,0.0,0.0,0.0,0.0,11.0,12.0,13.0,14.0,44.008
2024-04-02 20:55:39,0.5625,-7.5,121.1875,0.07968875707771339,0.0,0.0,-1.0,0.0,0.0,0.0,0.0,0.0,0.0,0.0,0.0,0.0,0.0,0.0,0.0,11.0,12.0,13.0,14.0,44.008
2024-04-02 20:55:39,0.5625,-7.5,121.1875,0.07968875707771339,0.0,0.0,-1.0,0.0,0.0,0.0,0.0,0.0,0.0,0.0,0.0,0.0,0.0,0.0,0.0,11.0,12.0,13.0,14.0,44.008
2024-04-02 20:55:39,0.5625,-7.5,121.1875,0.07968875707771339,0.0,0.0,-1.0,0.0,0.0,0.0,0.0,0.0,0.0,0.0,0.0,0.0,0.0,0.0,0.0,11.0,12.0,13.0,14.0,43.47
2024-04-02 20:55:39,0.5625,-7.5,121.1875,0.07968875707771339,0.0,0.0,-1.0,0.0,0.0,0.0,0.0,0.0,0.0,0.0,0.0,0.0,0.0,0.0,0.0,11.0,12.0,13.0,14.0,44.008
2024-04-02 20:55:39,0.5625,-7.5,121.1875,0.07968875707771339,0.0,0.0,-1.0,0.0,0.0,0.0,0.0,0.0,0.0,0.0,0.0,0.0,0.0,0.0,0.0,11.0,12.0,13.0,14.0,43.47
2024-04-02 20:55:39,0.5625,-7.5,121.1875,0.07968875707771339,0.0,0.0,-1.0,0.0,0.0,0.0,0.0,0.0,0.0,0.0,0.0,0.0,0.0,0.0,0.0,11.0,12.0,13.0,14.0,44.008
2024-04-02 20:55:39,0.5625,-7.5,121.1875,0.07968875707771339,0.0,0.0,-1.0,0.0,0.0,0.0,0.0,0.0,0.0,0.0,0.0,0.0,0.0,0.0,0.0,11.0,12.0,13.0,14.0,44.008
2024-04-02 20:55:39,0.5625,-7.5,121.1875,0.07968875707771339,0.0,0.0,-1.0,0.0,0.0,0.0,0.0,0.0,0.0,0.0,0.0,0.0,0.0,0.0,0.0,11.0,12.0,13.0,14.0,44.008
2024-04-02 20:55:39,0.5625,-7.5,121.1875,0.07968875707771339,0.0,0.0,-1.0,0.0,0.0,0.0,0.0,0.0,0.0,0.0,0.0,0.0,0.0,0.0,0.0,11.0,12.0,13.0,14.0,44.008
2024-04-02 20:55:39,0.5625,-7.5,121.1875,0.07968875707771339,0.0,0.0,-1.0,0.0,0.0,0.0,0.0,0.0,0.0,0.0,0.0,0.0,0.0,0.0,0.0,11.0,12.0,13.0,14.0,44.008
2024-04-02 20:55:39,0.5625,-7.5,121.1875,0.07968875707771339,0.0,0.0,-1.0,0.0,0.0,0.0,0.0,0.0,0.0,0.0,0.0,0.0,0.0,0.0,0.0,11.0,12.0,13.0,14.0,44.008
2024-04-02 20:55:40,0.5625,-7.5,121.1875,0.07968875707771339,0.0,0.0,-1.0,0.0,0.0,0.0,0.0,0.0,0.0,0.0,0.0,0.0,0.0,0.0,0.0,11.0,12.0,13.0,14.0,44.008
2024-04-02 20:55:40,0.5625,-7.5,121.1875,0.07968875707771339,0.0,0.0,-1.0,0.0,0.0,0.0,0.0,0.0,0.0,0.0,0.0,0.0,0.0,0.0,0.0,11.0,12.0,13.0,14.0,44.008
2024-04-02 20:55:42,0.5625,-7.5,121.1875,0.0798627573229554,0.0,0.0,-1.0,0.0,0.0,0.0,0.0,0.0,0.0,0.0,0.0,0.0,0.0,0.0,0.0,11.0,12.0,13.0,14.0,44.008
2024-04-02 20:55:42,0.5625,-7.5,121.1875,0.0798627573229554,0.0,0.0,-1.0,0.0,0.0,0.0,0.0,0.0,0.0,0.0,0.0,0.0,0.0,0.0,0.0,11.0,12.0,13.0,14.0,43.47
2024-04-02 20:55:42,0.5625,-7.5,121.1875,0.0798627573229554,0.0,0.0,-1.0,0.0,0.0,0.0,0.0,0.0,0.0,0.0,0.0,0.0,0.0,0.0,0.0,11.0,12.0,13.0,14.0,44.008
2024-04-02 20:55:42,0.5625,-7.5,121.1875,0.0798627573229554,0.0,0.0,-1.0,0.0,0.0,0.0,0.0,0.0,0.0,0.0,0.0,0.0,0.0,0.0,0.0,11.0,12.0,13.0,14.0,43.47
2024-04-02 20:55:42,0.5625,-7.5,121.1875,0.0798627573229554,0.0,0.0,-1.0,0.0,0.0,0.0,0.0,0.0,0.0,0.0,0.0,0.0,0.0,0.0,0.0,11.0,12.0,13.0,14.0,44.008
2024-04-02 20:55:42,0.5625,-7.5,121.1875,0.0798627573229554,0.0,0.0,-1.0,0.0,0.0,0.0,0.0,0.0,0.0,0.0,0.0,0.0,0.0,0.0,0.0,11.0,12.0,13.0,14.0,44.008
2024-04-02 20:55:42,0.5625,-7.5,121.1875,0.0798627573229554,0.0,0.0,-1.0,0.0,0.0,0.0,0.0,0.0,0.0,0.0,0.0,0.0,0.0,0.0,0.0,11.0,12.0,13.0,14.0,44.008
2024-04-02 20:55:42,0.5625,-7.5,121.1875,0.0798627573229554,0.0,0.0,-1.0,0.0,0.0,0.0,0.0,0.0,0.0,0.0,0.0,0.0,0.0,0.0,0.0,11.0,12.0,13.0,14.0,44.008
2024-04-02 20:55:42,0.5625,-7.5,121.1875,0.0798627573229554,0.0,0.0,-1.0,0.0,0.0,0.0,0.0,0.0,0.0,0.0,0.0,0.0,0.0,0.0,0.0,11.0,12.0,13.0,14.0,44.546
2024-04-02 20:55:42,0.5625,-7.5,121.1875,0.0798627573229554,0.0,0.0,-1.0,0.0,0.0,0.0,0.0,0.0,0.0,0.0,0.0,0.0,0.0,0.0,0.0,11.0,12.0,13.0,14.0,44.008
2024-04-02 20:55:43,0.5625,-7.5,121.1875,0.0798627573229554,0.0,0.0,-1.0,0.0,0.0,0.0,0.0,0.0,0.0,0.0,0.0,0.0,0.0,0.0,0.0,11.0,12.0,13.0,14.0,43.47
2024-04-02 20:55:43,0.5625,-7.5,121.1875,0.0798627573229554,0.0,0.0,-1.0,0.0,0.0,0.0,0.0,0.0,0.0,0.0,0.0,0.0,0.0,0.0,0.0,11.0,12.0,13.0,14.0,44.008
2024-04-02 20:55:43,0.5625,-7.5,121.1875,0.0798627573229554,0.0,0.0,-1.0,0.0,0.0,0.0,0.0,0.0,0.0,0.0,0.0,0.0,0.0,0.0,0.0,11.0,12.0,13.0,14.0,44.008
2024-04-02 20:55:43,0.5625,-7.5,121.1875,0.0798627573229554,0.0,0.0,-1.0,0.0,0.0,0.0,0.0,0.0,0.0,0.0,0.0,0.0,0.0,0.0,0.0,11.0,12.0,13.0,14.0,44.008
2024-04-02 20:55:43,0.5625,-7.5,121.1875,0.0798627573229554,0.0,0.0,-1.0,0.0,0.0,0.0,0.0,0.0,0.0,0.0,0.0,0.0,0.0,0.0,0.0,11.0,12.0,13.0,14.0,43.47
2024-04-02 20:55:43,0.5625,-7.5,121.1875,0.07908923887995535,0.0,0.0,-1.0,0.0,0.0,0.0,0.0,0.0,0.0,0.0,0.0,0.0,0.0,0.0,0.0,11.0,12.0,13.0,14.0,44.008
2024-04-02 20:55:43,0.5625,-7.5,121.1875,0.07908923887995535,0.0,0.0,-1.0,0.0,0.0,0.0,0.0,0.0,0.0,0.0,0.0,0.0,0.0,0.0,0.0,11.0,12.0,13.0,14.0,43.47
2024-04-02 20:55:43,0.5625,-7.5,121.1875,0.07908923887995535,0.0,0.0,-1.0,0.0,0.0,0.0,0.0,0.0,0.0,0.0,0.0,0.0,0.0,0.0,0.0,11.0,12.0,13.0,14.0,44.008
2024-04-02 20:55:43,0.5625,-7.5,121.1875,0.07908923887995535,0.0,0.0,-1.0,0.0,0.0,0.0,0.0,0.0,0.0,0.0,0.0,0.0,0.0,0.0,0.0,11.0,12.0,13.0,14.0,44.008
2024-04-02 20:55:43,0.5625,-7.5,121.1875,0.07908923887995535,0.0,0.0,-1.0,0.0,0.0,0.0,0.0,0.0,0.0,0.0,0.0,0.0,0.0,0.0,0.0,11.0,12.0,13.0,14.0,44.008
2024-04-02 20:55:43,0.5625,-7.5,121.1875,0.07908923887995535,0.0,0.0,-1.0,0.0,0.0,0.0,0.0,0.0,0.0,0.0,0.0,0.0,0.0,0.0,0.0,11.0,12.0,13.0,14.0,44.008
2024-04-02 20:55:43,0.5625,-7.5,121.1875,0.07908923887995535,0.0,0.0,-1.0,0.0,0.0,0.0,0.0,0.0,0.0,0.0,0.0,0.0,0.0,0.0,0.0,11.0,12.0,13.0,14.0,44.008
2024-04-02 20:55:43,0.5625,-7.5,121.1875,0.07908923887995535,0.0,0.0,-1.0,0.0,0.0,0.0,0.0,0.0,0.0,0.0,0.0,0.0,0.0,0.0,0.0,11.0,12.0,13.0,14.0,44.008
2024-04-02 20:55:43,0.5625,-7.5,121.1875,0.07908923887995535,0.0,0.0,-1.0,0.0,0.0,0.0,0.0,0.0,0.0,0.0,0.0,0.0,0.0,0.0,0.0,11.0,12.0,13.0,14.0,44.546
2024-04-02 20:55:43,0.5625,-7.5,121.1875,0.07908923887995535,0.0,0.0,-1.0,0.0,0.0,0.0,0.0,0.0,0.0,0.0,0.0,0.0,0.0,0.0,0.0,11.0,12.0,13.0,14.0,44.008
2024-04-02 20:55:44,0.5625,-7.5,121.1875,0.07908923887995535,0.0,0.0,-1.0,0.0,0.0,0.0,0.0,0.0,0.0,0.0,0.0,0.0,0.0,0.0,0.0,11.0,12.0,13.0,14.0,44.546
2024-04-02 20:55:44,0.5625,-7.5,121.1875,0.07908923887995535,0.0,0.0,-1.0,0.0,0.0,0.0,0.0,0.0,0.0,0.0,0.0,0.0,0.0,0.0,0.0,11.0,12.0,13.0,14.0,43.47
2024-04-02 20:55:44,0.5625,-7.5,121.1875,0.07908923887995535,0.0,0.0,-1.0,0.0,0.0,0.0,0.0,0.0,0.0,0.0,0.0,0.0,0.0,0.0,0.0,11.0,12.0,13.0,14.0,44.008
2024-04-02 20:55:44,0.5625,-7.5,121.1875,0.07908923887995535,0.0,0.0,-1.0,0.0,0.0,0.0,0.0,0.0,0.0,0.0,0.0,0.0,0.0,0.0,0.0,11.0,12.0,13.0,14.0,44.008
2024-04-02 20:55:44,0.5625,-7.5,121.1875,0.07908923887995535,0.0,0.0,-1.0,0.0,0.0,0.0,0.0,0.0,0.0,0.0,0.0,0.0,0.0,0.0,0.0,11.0,12.0,13.0,14.0,44.008
2024-04-02 20:55:44,0.5625,-7.5,121.1875,0.08044634624604997,0.0,0.0,-1.0,0.0,0.0,0.0,0.0,0.0,0.0,0.0,0.0,0.0,0.0,0.0,0.0,11.0,12.0,13.0,14.0,44.546
2024-04-02 20:55:44,0.5625,-7.5,121.1875,0.08044634624604997,0.0,0.0,-1.0,0.0,0.0,0.0,0.0,0.0,0.0,0.0,0.0,0.0,0.0,0.0,0.0,11.0,12.0,13.0,14.0,44.008
2024-04-02 20:55:44,0.5625,-7.5,121.1875,0.08044634624604997,0.0,0.0,-1.0,0.0,0.0,0.0,0.0,0.0,0.0,0.0,0.0,0.0,0.0,0.0,0.0,11.0,12.0,13.0,14.0,44.008
2024-04-02 20:55:44,0.5625,-7.5,121.1875,0.08044634624604997,0.0,0.0,-1.0,0.0,0.0,0.0,0.0,0.0,0.0,0.0,0.0,0.0,0.0,0.0,0.0,11.0,12.0,13.0,14.0,44.008
2024-04-02 20:55:44,0.5625,-7.5,121.1875,0.08044634624604997,0.0,0.0,-1.0,0.0,0.0,0.0,0.0,0.0,0.0,0.0,0.0,0.0,0.0,0.0,0.0,11.0,12.0,13.0,14.0,44.008
2024-04-02 20:55:44,0.5625,-7.5,121.1875,0.08044634624604997,0.0,0.0,-1.0,0.0,0.0,0.0,0.0,0.0,0.0,0.0,0.0,0.0,0.0,0.0,0.0,11.0,12.0,13.0,14.0,44.008
2024-04-02 20:55:44,0.5625,-7.5,121.1875,0.08044634624604997,0.0,0.0,-1.0,0.0,0.0,0.0,0.0,0.0,0.0,0.0,0.0,0.0,0.0,0.0,0.0,11.0,12.0,13.0,14.0,44.546
2024-04-02 20:55:44,0.5625,-7.5,121.1875,0.08044634624604997,0.0,0.0,-1.0,0.0,0.0,0.0,0.0,0.0,0.0,0.0,0.0,0.0,0.0,0.0,0.0,11.0,12.0,13.0,14.0,44.008
2024-04-02 20:55:44,0.5625,-7.5,121.1875,0.08044634624604997,0.0,0.0,-1.0,0.0,0.0,0.0,0.0,0.0,0.0,0.0,0.0,0.0,0.0,0.0,0.0,11.0,12.0,13.0,14.0,44.008
2024-04-02 20:55:45,0.5625,-7.5,121.1875,0.08044634624604997,0.0,0.0,-1.0,0.0,0.0,0.0,0.0,0.0,0.0,0.0,0.0,0.0,0.0,0.0,0.0,11.0,12.0,13.0,14.0,44.546
2024-04-02 20:55:45,0.5625,-7.5,121.1875,0.08044634624604997,0.0,0.0,-1.0,0.0,0.0,0.0,0.0,0.0,0.0,0.0,0.0,0.0,0.0,0.0,0.0,11.0,12.0,13.0,14.0,44.008
2024-04-02 20:55:45,0.5625,-7.5,121.1875,0.08044634624604997,0.0,0.0,-1.0,0.0,0.0,0.0,0.0,0.0,0.0,0.0,0.0,0.0,0.0,0.0,0.0,11.0,12.0,13.0,14.0,44.546
2024-04-02 20:55:45,0.5625,-7.5,121.1875,0.08044634624604997,0.0,0.0,-1.0,0.0,0.0,0.0,0.0,0.0,0.0,0.0,0.0,0.0,0.0,0.0,0.0,11.0,12.0,13.0,14.0,45.084
2024-04-02 20:55:45,0.5625,-7.5,121.1875,0.08044634624604997,0.0,0.0,-1.0,0.0,0.0,0.0,0.0,0.0,0.0,0.0,0.0,0.0,0.0,0.0,0.0,11.0,12.0,13.0,14.0,45.084
2024-04-02 20:55:45,0.5625,-7.5,121.1875,0.07916755497366756,0.0,0.0,-1.0,0.0,0.0,0.0,0.0,0.0,0.0,0.0,0.0,0.0,0.0,0.0,0.0,11.0,12.0,13.0,14.0,44.008
2024-04-02 20:55:45,0.5625,-7.5,121.1875,0.07916755497366756,0.0,0.0,-1.0,0.0,0.0,0.0,0.0,0.0,0.0,0.0,0.0,0.0,0.0,0.0,0.0,11.0,12.0,13.0,14.0,45.084
2024-04-02 20:55:45,0.5625,-7.5,121.1875,0.07916755497366756,0.0,0.0,-1.0,0.0,0.0,0.0,0.0,0.0,0.0,0.0,0.0,0.0,0.0,0.0,0.0,11.0,12.0,13.0,14.0,45.084
2024-04-02 20:55:45,0.5625,-7.5,121.1875,0.07916755497366756,0.0,0.0,-1.0,0.0,0.0,0.0,0.0,0.0,0.0,0.0,0.0,0.0,0.0,0.0,0.0,11.0,12.0,13.0,14.0,44.008
2024-04-02 20:55:45,0.5625,-7.5,121.1875,0.07916755497366756,0.0,0.0,-1.0,0.0,0.0,0.0,0.0,0.0,0.0,0.0,0.0,0.0,0.0,0.0,0.0,11.0,12.0,13.0,14.0,44.546
2024-04-02 20:55:45,0.5625,-7.5,121.1875,0.07916755497366756,0.0,0.0,-1.0,0.0,0.0,0.0,0.0,0.0,0.0,0.0,0.0,0.0,0.0,0.0,0.0,11.0,12.0,13.0,14.0,44.008
2024-04-02 20:55:45,0.5625,-7.5,121.1875,0.07916755497366756,0.0,0.0,-1.0,0.0,0.0,0.0,0.0,0.0,0.0,0.0,0.0,0.0,0.0,0.0,0.0,11.0,12.0,13.0,14.0,44.546
2024-04-02 20:55:45,0.5625,-7.5,121.1875,0.07916755497366756,0.0,0.0,-1.0,0.0,0.0,0.0,0.0,0.0,0.0,0.0,0.0,0.0,0.0,0.0,0.0,11.0,12.0,13.0,14.0,44.008
2024-04-02 20:55:45,0.5625,-7.5,121.1875,0.07916755497366756,0.0,0.0,-1.0,0.0,0.0,0.0,0.0,0.0,0.0,0.0,0.0,0.0,0.0,0.0,0.0,11.0,12.0,13.0,14.0,44.008
2024-04-02 20:55:46,0.5625,-7.5,121.1875,0.07916755497366756,0.0,0.0,-1.0,0.0,0.0,0.0,0.0,0.0,0.0,0.0,0.0,0.0,0.0,0.0,0.0,11.0,12.0,13.0,14.0,44.546
2024-04-02 20:55:46,0.5625,-7.5,121.1875,0.07916755497366756,0.0,0.0,-1.0,0.0,0.0,0.0,0.0,0.0,0.0,0.0,0.0,0.0,0.0,0.0,0.0,11.0,12.0,13.0,14.0,44.008
2024-04-02 20:55:46,0.5625,-7.5,121.1875,0.07916755497366756,0.0,0.0,-1.0,0.0,0.0,0.0,0.0,0.0,0.0,0.0,0.0,0.0,0.0,0.0,0.0,11.0,12.0,13.0,14.0,44.546
2024-04-02 20:55:46,0.5625,-7.5,121.1875,0.07916755497366756,0.0,0.0,-1.0,0.0,0.0,0.0,0.0,0.0,0.0,0.0,0.0,0.0,0.0,0.0,0.0,11.0,12.0,13.0,14.0,44.546
2024-04-02 20:55:46,0.5625,-7.5,121.1875,0.07916755497366756,0.0,0.0,-1.0,0.0,0.0,0.0,0.0,0.0,0.0,0.0,0.0,0.0,0.0,0.0,0.0,11.0,12.0,13.0,14.0,44.546
2024-04-02 20:55:46,0.5625,-7.5,121.1875,0.07916755497366756,0.0,0.0,-1.0,0.0,0.0,0.0,0.0,0.0,0.0,0.0,0.0,0.0,0.0,0.0,0.0,11.0,12.0,13.0,14.0,44.008
2024-04-02 20:55:46,0.5625,-7.5,121.1875,0.07881598769649929,0.0,0.0,-1.0,0.0,0.0,0.0,0.0,0.0,0.0,0.0,0.0,0.0,0.0,0.0,0.0,11.0,12.0,13.0,14.0,44.008
2024-04-02 20:55:46,0.5625,-7.5,121.1875,0.07881598769649929,0.0,0.0,-1.0,0.0,0.0,0.0,0.0,0.0,0.0,0.0,0.0,0.0,0.0,0.0,0.0,11.0,12.0,13.0,14.0,44.546
2024-04-02 20:55:46,0.5625,-7.5,121.1875,0.07881598769649929,0.0,0.0,-1.0,0.0,0.0,0.0,0.0,0.0,0.0,0.0,0.0,0.0,0.0,0.0,0.0,11.0,12.0,13.0,14.0,44.008
2024-04-02 20:55:46,0.5625,-7.5,121.1875,0.07881598769649929,0.0,0.0,-1.0,0.0,0.0,0.0,0.0,0.0,0.0,0.0,0.0,0.0,0.0,0.0,0.0,11.0,12.0,13.0,14.0,44.546
2024-04-02 20:55:46,0.5625,-7.5,121.1875,0.07881598769649929,0.0,0.0,-1.0,0.0,0.0,0.0,0.0,0.0,0.0,0.0,0.0,0.0,0.0,0.0,0.0,11.0,12.0,13.0,14.0,44.546
2024-04-02 20:55:46,0.5625,-7.5,121.1875,0.07881598769649929,0.0,0.0,-1.0,0.0,0.0,0.0,0.0,0.0,0.0,0.0,0.0,0.0,0.0,0.0,0.0,11.0,12.0,13.0,14.0,44.008
2024-04-02 20:55:46,0.5625,-7.5,121.1875,0.07881598769649929,0.0,0.0,-1.0,0.0,0.0,0.0,0.0,0.0,0.0,0.0,0.0,0.0,0.0,0.0,0.0,11.0,12.0,13.0,14.0,44.008
2024-04-02 20:55:46,0.5625,-7.5,121.1875,0.07881598769649929,0.0,0.0,-1.0,0.0,0.0,0.0,0.0,0.0,0.0,0.0,0.0,0.0,0.0,0.0,0.0,11.0,12.0,13.0,14.0,45.084
2024-04-02 20:55:47,0.5625,-7.5,121.1875,0.07881598769649929,0.0,0.0,-1.0,0.0,0.0,0.0,0.0,0.0,0.0,0.0,0.0,0.0,0.0,0.0,0.0,11.0,12.0,13.0,14.0,44.008
2024-04-02 20:55:47,0.5625,-7.5,121.1875,0.07881598769649929,0.0,0.0,-1.0,0.0,0.0,0.0,0.0,0.0,0.0,0.0,0.0,0.0,0.0,0.0,0.0,11.0,12.0,13.0,14.0,45.084
2024-04-02 20:55:47,0.5625,-7.5,121.1875,0.07881598769649929,0.0,0.0,-1.0,0.0,0.0,0.0,0.0,0.0,0.0,0.0,0.0,0.0,0.0,0.0,0.0,11.0,12.0,13.0,14.0,44.546
2024-04-02 20:55:47,0.5625,-7.5,121.1875,0.07881598769649929,0.0,0.0,-1.0,0.0,0.0,0.0,0.0,0.0,0.0,0.0,0.0,0.0,0.0,0.0,0.0,11.0,12.0,13.0,14.0,45.084
2024-04-02 20:55:47,0.5625,-7.5,121.1875,0.07881598769649929,0.0,0.0,-1.0,0.0,0.0,0.0,0.0,0.0,0.0,0.0,0.0,0.0,0.0,0.0,0.0,11.0,12.0,13.0,14.0,45.084
2024-04-02 20:55:47,0.5625,-7.5,121.1875,0.07881598769649929,0.0,0.0,-1.0,0.0,0.0,0.0,0.0,0.0,0.0,0.0,0.0,0.0,0.0,0.0,0.0,11.0,12.0,13.0,14.0,44.008
2024-04-02 20:55:47,0.5625,-7.5,121.1875,0.07881598769649929,0.0,0.0,-1.0,0.0,0.0,0.0,0.0,0.0,0.0,0.0,0.0,0.0,0.0,0.0,0.0,11.0,12.0,13.0,14.0,44.008
2024-04-02 20:55:47,0.5625,-7.5,121.1875,0.0801154819913491,0.0,0.0,-1.0,0.0,0.0,0.0,0.0,0.0,0.0,0.0,0.0,0.0,0.0,0.0,0.0,11.0,12.0,13.0,14.0,44.546
2024-04-02 20:55:47,0.5625,-7.5,121.1875,0.0801154819913491,0.0,0.0,-1.0,0.0,0.0,0.0,0.0,0.0,0.0,0.0,0.0,0.0,0.0,0.0,0.0,11.0,12.0,13.0,14.0,45.084
2024-04-02 20:55:47,0.5625,-7.5,121.1875,0.0801154819913491,0.0,0.0,-1.0,0.0,0.0,0.0,0.0,0.0,0.0,0.0,0.0,0.0,0.0,0.0,0.0,11.0,12.0,13.0,14.0,44.546
2024-04-02 20:55:47,0.5625,-7.5,121.1875,0.0801154819913491,0.0,0.0,-1.0,0.0,0.0,0.0,0.0,0.0,0.0,0.0,0.0,0.0,0.0,0.0,0.0,11.0,12.0,13.0,14.0,44.546
2024-04-02 20:55:47,0.5625,-7.5,121.1875,0.0801154819913491,0.0,0.0,-1.0,0.0,0.0,0.0,0.0,0.0,0.0,0.0,0.0,0.0,0.0,0.0,0.0,11.0,12.0,13.0,14.0,45.084
2024-04-02 20:55:47,0.5625,-7.5,121.1875,0.0801154819913491,0.0,0.0,-1.0,0.0,0.0,0.0,0.0,0.0,0.0,0.0,0.0,0.0,0.0,0.0,0.0,11.0,12.0,13.0,14.0,44.546
2024-04-02 20:55:48,0.5625,-7.5,121.1875,0.0801154819913491,0.0,0.0,-1.0,0.0,0.0,0.0,0.0,0.0,0.0,0.0,0.0,0.0,0.0,0.0,0.0,11.0,12.0,13.0,14.0,44.546
2024-04-02 20:55:48,0.5625,-7.5,121.1875,0.0801154819913491,0.0,0.0,-1.0,0.0,0.0,0.0,0.0,0.0,0.0,0.0,0.0,0.0,0.0,0.0,0.0,11.0,12.0,13.0,14.0,44.546
2024-04-02 20:55:48,0.5625,-7.5,121.1875,0.0801154819913491,0.0,0.0,-1.0,0.0,0.0,0.0,0.0,0.0,0.0,0.0,0.0,0.0,0.0,0.0,0.0,11.0,12.0,13.0,14.0,45.084
2024-04-02 20:55:48,0.5625,-7.5,121.1875,0.0801154819913491,0.0,0.0,-1.0,0.0,0.0,0.0,0.0,0.0,0.0,0.0,0.0,0.0,0.0,0.0,0.0,11.0,12.0,13.0,14.0,44.546
2024-04-02 20:55:48,0.5625,-7.5,121.1875,0.0801154819913491,0.0,0.0,-1.0,0.0,0.0,0.0,0.0,0.0,0.0,0.0,0.0,0.0,0.0,0.0,0.0,11.0,12.0,13.0,14.0,45.084
2024-04-02 20:55:48,0.5625,-7.5,121.1875,0.0801154819913491,0.0,0.0,-1.0,0.0,0.0,0.0,0.0,0.0,0.0,0.0,0.0,0.0,0.0,0.0,0.0,11.0,12.0,13.0,14.0,45.084
2024-04-02 20:55:48,0.5625,-7.5,121.1875,0.0801154819913491,0.0,0.0,-1.0,0.0,0.0,0.0,0.0,0.0,0.0,0.0,0.0,0.0,0.0,0.0,0.0,11.0,12.0,13.0,14.0,45.084
2024-04-02 20:55:48,0.5625,-7.5,121.1875,0.0801154819913491,0.0,0.0,-1.0,0.0,0.0,0.0,0.0,0.0,0.0,0.0,0.0,0.0,0.0,0.0,0.0,11.0,12.0,13.0,14.0,45.084
2024-04-02 20:55:48,0.5625,-7.5,121.1875,0.0801154819913491,0.0,0.0,-1.0,0.0,0.0,0.0,0.0,0.0,0.0,0.0,0.0,0.0,0.0,0.0,0.0,11.0,12.0,13.0,14.0,45.084
2024-04-02 20:55:48,0.5625,-7.5,121.1875,0.07960493951389305,0.0,0.0,-1.0,0.0,0.0,0.0,0.0,0.0,0.0,0.0,0.0,0.0,0.0,0.0,0.0,11.0,12.0,13.0,14.0,45.084
2024-04-02 20:55:48,0.5625,-7.5,121.1875,0.07960493951389305,0.0,0.0,-1.0,0.0,0.0,0.0,0.0,0.0,0.0,0.0,0.0,0.0,0.0,0.0,0.0,11.0,12.0,13.0,14.0,45.622
2024-04-02 20:55:48,0.5625,-7.5,121.1875,0.07960493951389305,0.0,0.0,-1.0,0.0,0.0,0.0,0.0,0.0,0.0,0.0,0.0,0.0,0.0,0.0,0.0,11.0,12.0,13.0,14.0,45.084
2024-04-02 20:55:48,0.5625,-7.5,121.1875,0.07960493951389305,0.0,0.0,-1.0,0.0,0.0,0.0,0.0,0.0,0.0,0.0,0.0,0.0,0.0,0.0,0.0,11.0,12.0,13.0,14.0,45.622
2024-04-02 20:55:48,0.5625,-7.5,121.1875,0.07960493951389305,0.0,0.0,-1.0,0.0,0.0,0.0,0.0,0.0,0.0,0.0,0.0,0.0,0.0,0.0,0.0,11.0,12.0,13.0,14.0,45.084
2024-04-02 20:55:49,0.5625,-7.5,121.1875,0.07960493951389305,0.0,0.0,-1.0,0.0,0.0,0.0,0.0,0.0,0.0,0.0,0.0,0.0,0.0,0.0,0.0,11.0,12.0,13.0,14.0,45.622
2024-04-02 20:55:49,0.5625,-7.5,121.1875,0.07960493951389305,0.0,0.0,-1.0,0.0,0.0,0.0,0.0,0.0,0.0,0.0,0.0,0.0,0.0,0.0,0.0,11.0,12.0,13.0,14.0,45.622
2024-04-02 20:55:49,0.5625,-7.5,121.1875,0.07960493951389305,0.0,0.0,-1.0,0.0,0.0,0.0,0.0,0.0,0.0,0.0,0.0,0.0,0.0,0.0,0.0,11.0,12.0,13.0,14.0,46.16
2024-04-02 20:55:49,0.5625,-7.5,121.1875,0.07960493951389305,0.0,0.0,-1.0,0.0,0.0,0.0,0.0,0.0,0.0,0.0,0.0,0.0,0.0,0.0,0.0,11.0,12.0,13.0,14.0,45.084
2024-04-02 20:55:49,0.5625,-7.5,121.1875,0.07960493951389305,0.0,0.0,-1.0,0.0,0.0,0.0,0.0,0.0,0.0,0.0,0.0,0.0,0.0,0.0,0.0,11.0,12.0,13.0,14.0,45.084
2024-04-02 20:55:49,0.5625,-7.5,121.1875,0.07960493951389305,0.0,0.0,-1.0,0.0,0.0,0.0,0.0,0.0,0.0,0.0,0.0,0.0,0.0,0.0,0.0,11.0,12.0,13.0,14.0,45.622
2024-04-02 20:55:49,0.5625,-7.5,121.1875,0.07960493951389305,0.0,0.0,-1.0,0.0,0.0,0.0,0.0,0.0,0.0,0.0,0.0,0.0,0.0,0.0,0.0,11.0,12.0,13.0,14.0,45.084
2024-04-02 20:55:49,0.5625,-7.5,121.1875,0.07960493951389305,0.0,0.0,-1.0,0.0,0.0,0.0,0.0,0.0,0.0,0.0,0.0,0.0,0.0,0.0,0.0,11.0,12.0,13.0,14.0,46.16
2024-04-02 20:55:49,0.5625,-7.5,121.1875,0.07960493951389305,0.0,0.0,-1.0,0.0,0.0,0.0,0.0,0.0,0.0,0.0,0.0,0.0,0.0,0.0,0.0,11.0,12.0,13.0,14.0,45.622
2024-04-02 20:55:49,0.5625,-7.5,121.1875,0.07960493951389305,0.0,0.0,-1.0,0.0,0.0,0.0,0.0,0.0,0.0,0.0,0.0,0.0,0.0,0.0,0.0,11.0,12.0,13.0,14.0,46.16
2024-04-02 20:55:50,0.5625,-7.5,121.1875,0.07799434526084872,0.0,0.0,-1.0,0.0,0.0,0.0,0.0,0.0,0.0,0.0,0.0,0.0,0.0,0.0,0.0,11.0,12.0,13.0,14.0,46.16
2024-04-02 20:55:50,0.5625,-7.5,121.1875,0.07799434526084872,0.0,0.0,-1.0,0.0,0.0,0.0,0.0,0.0,0.0,0.0,0.0,0.0,0.0,0.0,0.0,11.0,12.0,13.0,14.0,46.16
2024-04-02 20:55:50,0.5625,-7.5,121.1875,0.07799434526084872,0.0,0.0,-1.0,0.0,0.0,0.0,0.0,0.0,0.0,0.0,0.0,0.0,0.0,0.0,0.0,11.0,12.0,13.0,14.0,46.16
2024-04-02 20:55:50,0.5625,-7.5,121.1875,0.07799434526084872,0.0,0.0,-1.0,0.0,0.0,0.0,0.0,0.0,0.0,0.0,0.0,0.0,0.0,0.0,0.0,11.0,12.0,13.0,14.0,46.16
2024-04-02 20:55:50,0.5625,-7.5,121.1875,0.07799434526084872,0.0,0.0,-1.0,0.0,0.0,0.0,0.0,0.0,0.0,0.0,0.0,0.0,0.0,0.0,0.0,11.0,12.0,13.0,14.0,46.16
2024-04-02 20:55:50,0.5625,-7.5,121.1875,0.07799434526084872,0.0,0.0,-1.0,0.0,0.0,0.0,0.0,0.0,0.0,0.0,0.0,0.0,0.0,0.0,0.0,11.0,12.0,13.0,14.0,45.622
2024-04-02 20:55:50,0.5625,-7.5,121.1875,0.07799434526084872,0.0,0.0,-1.0,0.0,0.0,0.0,0.0,0.0,0.0,0.0,0.0,0.0,0.0,0.0,0.0,11.0,12.0,13.0,14.0,46.698
2024-04-02 20:55:50,0.5625,-7.5,121.1875,0.07799434526084872,0.0,0.0,-1.0,0.0,0.0,0.0,0.0,0.0,0.0,0.0,0.0,0.0,0.0,0.0,0.0,11.0,12.0,13.0,14.0,46.698
2024-04-02 20:55:50,0.5625,-7.5,121.1875,0.07799434526084872,0.0,0.0,-1.0,0.0,0.0,0.0,0.0,0.0,0.0,0.0,0.0,0.0,0.0,0.0,0.0,11.0,12.0,13.0,14.0,46.16
2024-04-02 20:55:50,0.5625,-7.5,121.1875,0.07799434526084872,0.0,0.0,-1.0,0.0,0.0,0.0,0.0,0.0,0.0,0.0,0.0,0.0,0.0,0.0,0.0,11.0,12.0,13.0,14.0,46.698
2024-04-02 20:55:50,0.5625,-7.5,121.1875,0.07799434526084872,0.0,0.0,-1.0,0.0,0.0,0.0,0.0,0.0,0.0,0.0,0.0,0.0,0.0,0.0,0.0,11.0,12.0,13.0,14.0,46.16
2024-04-02 20:55:50,0.5625,-7.5,121.1875,0.07799434526084872,0.0,0.0,-1.0,0.0,0.0,0.0,0.0,0.0,0.0,0.0,0.0,0.0,0.0,0.0,0.0,11.0,12.0,13.0,14.0,46.698
2024-04-02 20:55:51,0.5625,-7.5,121.1875,0.07799434526084872,0.0,0.0,-1.0,0.0,0.0,0.0,0.0,0.0,0.0,0.0,0.0,0.0,0.0,0.0,0.0,11.0,12.0,13.0,14.0,46.698
2024-04-02 20:55:51,0.5625,-7.5,121.1875,0.07799434526084872,0.0,0.0,-1.0,0.0,0.0,0.0,0.0,0.0,0.0,0.0,0.0,0.0,0.0,0.0,0.0,11.0,12.0,13.0,14.0,46.16
2024-04-02 20:55:51,0.5625,-7.5,121.1875,0.07799434526084872,0.0,0.0,-1.0,0.0,0.0,0.0,0.0,0.0,0.0,0.0,0.0,0.0,0.0,0.0,0.0,11.0,12.0,13.0,14.0,46.698
2024-04-02 20:55:51,0.5625,-7.5,121.1875,0.07837509708852192,0.0,0.0,-1.0,0.0,0.0,0.0,0.0,0.0,0.0,0.0,0.0,0.0,0.0,0.0,0.0,11.0,12.0,13.0,14.0,46.16
2024-04-02 20:55:51,0.5625,-7.5,121.1875,0.07837509708852192,0.0,0.0,-1.0,0.0,0.0,0.0,0.0,0.0,0.0,0.0,0.0,0.0,0.0,0.0,0.0,11.0,12.0,13.0,14.0,46.16
2024-04-02 20:55:51,0.5625,-7.5,121.1875,0.07837509708852192,0.0,0.0,-1.0,0.0,0.0,0.0,0.0,0.0,0.0,0.0,0.0,0.0,0.0,0.0,0.0,11.0,12.0,13.0,14.0,46.16
2024-04-02 20:55:51,0.5625,-7.5,121.1875,0.07837509708852192,0.0,0.0,-1.0,0.0,0.0,0.0,0.0,0.0,0.0,0.0,0.0,0.0,0.0,0.0,0.0,11.0,12.0,13.0,14.0,45.622
2024-04-02 20:55:51,0.5625,-7.5,121.1875,0.07837509708852192,0.0,0.0,-1.0,0.0,0.0,0.0,0.0,0.0,0.0,0.0,0.0,0.0,0.0,0.0,0.0,11.0,12.0,13.0,14.0,46.16
2024-04-02 20:55:51,0.5625,-7.5,121.1875,0.07837509708852192,0.0,0.0,-1.0,0.0,0.0,0.0,0.0,0.0,0.0,0.0,0.0,0.0,0.0,0.0,0.0,11.0,12.0,13.0,14.0,46.16
2024-04-02 20:55:51,0.5625,-7.5,121.1875,0.07837509708852192,0.0,0.0,-1.0,0.0,0.0,0.0,0.0,0.0,0.0,0.0,0.0,0.0,0.0,0.0,0.0,11.0,12.0,13.0,14.0,45.622
2024-04-02 20:55:51,0.5625,-7.5,121.1875,0.07837509708852192,0.0,0.0,-1.0,0.0,0.0,0.0,0.0,0.0,0.0,0.0,0.0,0.0,0.0,0.0,0.0,11.0,12.0,13.0,14.0,46.16
2024-04-02 20:55:51,0.5625,-7.5,121.1875,0.07837509708852192,0.0,0.0,-1.0,0.0,0.0,0.0,0.0,0.0,0.0,0.0,0.0,0.0,0.0,0.0,0.0,11.0,12.0,13.0,14.0,45.084
2024-04-02 20:55:51,0.5625,-7.5,121.1875,0.07837509708852192,0.0,0.0,-1.0,0.0,0.0,0.0,0.0,0.0,0.0,0.0,0.0,0.0,0.0,0.0,0.0,11.0,12.0,13.0,14.0,45.622
2024-04-02 20:55:52,0.5625,-7.5,121.1875,0.07837509708852192,0.0,0.0,-1.0,0.0,0.0,0.0,0.0,0.0,0.0,0.0,0.0,0.0,0.0,0.0,0.0,11.0,12.0,13.0,14.0,45.622
2024-04-02 20:55:52,0.5625,-7.5,121.1875,0.07837509708852192,0.0,0.0,-1.0,0.0,0.0,0.0,0.0,0.0,0.0,0.0,0.0,0.0,0.0,0.0,0.0,11.0,12.0,13.0,14.0,45.622
2024-04-02 20:55:52,0.5625,-7.5,121.1875,0.07837509708852192,0.0,0.0,-1.0,0.0,0.0,0.0,0.0,0.0,0.0,0.0,0.0,0.0,0.0,0.0,0.0,11.0,12.0,13.0,14.0,45.084
2024-04-02 20:55:52,0.5625,-7.5,121.1875,0.0808678353953756,0.0,0.0,-1.0,0.0,0.0,0.0,0.0,0.0,0.0,0.0,0.0,0.0,0.0,0.0,0.0,11.0,12.0,13.0,14.0,45.622
2024-04-02 20:55:52,0.5625,-7.5,121.1875,0.0808678353953756,0.0,0.0,-1.0,0.0,0.0,0.0,0.0,0.0,0.0,0.0,0.0,0.0,0.0,0.0,0.0,11.0,12.0,13.0,14.0,45.622
2024-04-02 20:55:52,0.5625,-7.5,121.1875,0.0808678353953756,0.0,0.0,-1.0,0.0,0.0,0.0,0.0,0.0,0.0,0.0,0.0,0.0,0.0,0.0,0.0,11.0,12.0,13.0,14.0,45.622
2024-04-02 20:55:52,0.5625,-7.5,121.1875,0.0808678353953756,0.0,0.0,-1.0,0.0,0.0,0.0,0.0,0.0,0.0,0.0,0.0,0.0,0.0,0.0,0.0,11.0,12.0,13.0,14.0,45.622
2024-04-02 20:55:52,0.5625,-7.5,121.1875,0.0808678353953756,0.0,0.0,-1.0,0.0,0.0,0.0,0.0,0.0,0.0,0.0,0.0,0.0,0.0,0.0,0.0,11.0,12.0,13.0,14.0,45.622
2024-04-02 20:55:52,0.5625,-7.5,121.1875,0.0808678353953756,0.0,0.0,-1.0,0.0,0.0,0.0,0.0,0.0,0.0,0.0,0.0,0.0,0.0,0.0,0.0,11.0,12.0,13.0,14.0,45.622
2024-04-02 20:55:52,0.5625,-7.5,121.1875,0.0808678353953756,0.0,0.0,-1.0,0.0,0.0,0.0,0.0,0.0,0.0,0.0,0.0,0.0,0.0,0.0,0.0,11.0,12.0,13.0,14.0,45.084
2024-04-02 20:55:52,0.5625,-7.5,121.1875,0.0808678353953756,0.0,0.0,-1.0,0.0,0.0,0.0,0.0,0.0,0.0,0.0,0.0,0.0,0.0,0.0,0.0,11.0,12.0,13.0,14.0,45.622
2024-04-02 20:55:52,0.5625,-7.5,121.1875,0.0808678353953756,0.0,0.0,-1.0,0.0,0.0,0.0,0.0,0.0,0.0,0.0,0.0,0.0,0.0,0.0,0.0,11.0,12.0,13.0,14.0,45.084
2024-04-02 20:55:52,0.5625,-7.5,121.1875,0.0808678353953756,0.0,0.0,-1.0,0.0,0.0,0.0,0.0,0.0,0.0,0.0,0.0,0.0,0.0,0.0,0.0,11.0,12.0,13.0,14.0,45.622
2024-04-02 20:55:53,0.5625,-7.5,121.1875,0.0808678353953756,0.0,0.0,-1.0,0.0,0.0,0.0,0.0,0.0,0.0,0.0,0.0,0.0,0.0,0.0,0.0,11.0,12.0,13.0,14.0,45.622
2024-04-02 20:55:53,0.5625,-7.5,121.1875,0.0808678353953756,0.0,0.0,-1.0,0.0,0.0,0.0,0.0,0.0,0.0,0.0,0.0,0.0,0.0,0.0,0.0,11.0,12.0,13.0,14.0,45.622
2024-04-02 20:55:53,0.5625,-7.5,121.1875,0.0808678353953756,0.0,0.0,-1.0,0.0,0.0,0.0,0.0,0.0,0.0,0.0,0.0,0.0,0.0,0.0,0.0,11.0,12.0,13.0,14.0,45.084
2024-04-02 20:55:53,0.5625,-7.5,121.1875,0.0808678353953756,0.0,0.0,-1.0,0.0,0.0,0.0,0.0,0.0,0.0,0.0,0.0,0.0,0.0,0.0,0.0,11.0,12.0,13.0,14.0,45.084
2024-04-02 20:55:53,0.5625,-7.5,121.1875,0.0808678353953756,0.0,0.0,-1.0,0.0,0.0,0.0,0.0,0.0,0.0,0.0,0.0,0.0,0.0,0.0,0.0,11.0,12.0,13.0,14.0,45.084
2024-04-02 20:55:53,0.5625,-7.5,121.1875,0.07696385145071678,0.0,0.0,-1.0,0.0,0.0,0.0,0.0,0.0,0.0,0.0,0.0,0.0,0.0,0.0,0.0,11.0,12.0,13.0,14.0,45.622
2024-04-02 20:55:53,0.5625,-7.5,121.1875,0.07696385145071678,0.0,0.0,-1.0,0.0,0.0,0.0,0.0,0.0,0.0,0.0,0.0,0.0,0.0,0.0,0.0,11.0,12.0,13.0,14.0,45.084
2024-04-02 20:55:53,0.5625,-7.5,121.1875,0.07696385145071678,0.0,0.0,-1.0,0.0,0.0,0.0,0.0,0.0,0.0,0.0,0.0,0.0,0.0,0.0,0.0,11.0,12.0,13.0,14.0,45.622
2024-04-02 20:55:53,0.5625,-7.5,121.1875,0.07696385145071678,0.0,0.0,-1.0,0.0,0.0,0.0,0.0,0.0,0.0,0.0,0.0,0.0,0.0,0.0,0.0,11.0,12.0,13.0,14.0,45.622
2024-04-02 20:55:53,0.5625,-7.5,121.1875,0.07696385145071678,0.0,0.0,-1.0,0.0,0.0,0.0,0.0,0.0,0.0,0.0,0.0,0.0,0.0,0.0,0.0,11.0,12.0,13.0,14.0,45.084
2024-04-02 20:55:53,0.5625,-7.5,121.1875,0.07696385145071678,0.0,0.0,-1.0,0.0,0.0,0.0,0.0,0.0,0.0,0.0,0.0,0.0,0.0,0.0,0.0,11.0,12.0,13.0,14.0,45.084
2024-04-02 20:55:53,0.5625,-7.5,121.1875,0.07696385145071678,0.0,0.0,-1.0,0.0,0.0,0.0,0.0,0.0,0.0,0.0,0.0,0.0,0.0,0.0,0.0,11.0,12.0,13.0,14.0,45.622
2024-04-02 20:55:53,0.5625,-7.5,121.1875,0.07696385145071678,0.0,0.0,-1.0,0.0,0.0,0.0,0.0,0.0,0.0,0.0,0.0,0.0,0.0,0.0,0.0,11.0,12.0,13.0,14.0,45.084
2024-04-02 20:55:53,0.5625,-7.5,121.1875,0.07696385145071678,0.0,0.0,-1.0,0.0,0.0,0.0,0.0,0.0,0.0,0.0,0.0,0.0,0.0,0.0,0.0,11.0,12.0,13.0,14.0,45.084
2024-04-02 20:55:53,0.5625,-7.5,121.1875,0.07696385145071678,0.0,0.0,-1.0,0.0,0.0,0.0,0.0,0.0,0.0,0.0,0.0,0.0,0.0,0.0,0.0,11.0,12.0,13.0,14.0,45.622
2024-04-02 20:55:54,0.5625,-7.5,121.1875,0.07696385145071678,0.0,0.0,-1.0,0.0,0.0,0.0,0.0,0.0,0.0,0.0,0.0,0.0,0.0,0.0,0.0,11.0,12.0,13.0,14.0,45.622
2024-04-02 20:55:54,0.5625,-7.5,121.1875,0.07696385145071678,0.0,0.0,-1.0,0.0,0.0,0.0,0.0,0.0,0.0,0.0,0.0,0.0,0.0,0.0,0.0,11.0,12.0,13.0,14.0,45.084
2024-04-02 20:55:54,0.5625,-7.5,121.1875,0.07696385145071678,0.0,0.0,-1.0,0.0,0.0,0.0,0.0,0.0,0.0,0.0,0.0,0.0,0.0,0.0,0.0,11.0,12.0,13.0,14.0,45.622
2024-04-02 20:55:54,0.5625,-7.5,121.1875,0.07696385145071678,0.0,0.0,-1.0,0.0,0.0,0.0,0.0,0.0,0.0,0.0,0.0,0.0,0.0,0.0,0.0,11.0,12.0,13.0,14.0,45.084
2024-04-02 20:55:54,0.5625,-7.5,121.1875,0.07696385145071678,0.0,0.0,-1.0,0.0,0.0,0.0,0.0,0.0,0.0,0.0,0.0,0.0,0.0,0.0,0.0,11.0,12.0,13.0,14.0,45.622
2024-04-02 20:55:54,0.5625,-7.5,121.1875,0.07696385145071678,0.0,0.0,-1.0,0.0,0.0,0.0,0.0,0.0,0.0,0.0,0.0,0.0,0.0,0.0,0.0,11.0,12.0,13.0,14.0,45.622
2024-04-02 20:55:54,0.5625,-7.5,121.1875,0.07852798836206065,0.0,0.0,-1.0,0.0,0.0,0.0,0.0,0.0,0.0,0.0,0.0,0.0,0.0,0.0,0.0,11.0,12.0,13.0,14.0,45.622
2024-04-02 20:55:54,0.5625,-7.5,121.1875,0.07852798836206065,0.0,0.0,-1.0,0.0,0.0,0.0,0.0,0.0,0.0,0.0,0.0,0.0,0.0,0.0,0.0,11.0,12.0,13.0,14.0,45.084
2024-04-02 20:55:54,0.5625,-7.5,121.1875,0.07852798836206065,0.0,0.0,-1.0,0.0,0.0,0.0,0.0,0.0,0.0,0.0,0.0,0.0,0.0,0.0,0.0,11.0,12.0,13.0,14.0,45.622
2024-04-02 20:55:54,0.5625,-7.5,121.1875,0.07852798836206065,0.0,0.0,-1.0,0.0,0.0,0.0,0.0,0.0,0.0,0.0,0.0,0.0,0.0,0.0,0.0,11.0,12.0,13.0,14.0,45.622
2024-04-02 20:55:54,0.5625,-7.5,121.1875,0.07852798836206065,0.0,0.0,-1.0,0.0,0.0,0.0,0.0,0.0,0.0,0.0,0.0,0.0,0.0,0.0,0.0,11.0,12.0,13.0,14.0,45.084
2024-04-02 20:55:54,0.5625,-7.5,121.1875,0.07852798836206065,0.0,0.0,-1.0,0.0,0.0,0.0,0.0,0.0,0.0,0.0,0.0,0.0,0.0,0.0,0.0,11.0,12.0,13.0,14.0,45.084
2024-04-02 20:55:54,0.5625,-7.5,121.1875,0.07852798836206065,0.0,0.0,-1.0,0.0,0.0,0.0,0.0,0.0,0.0,0.0,0.0,0.0,0.0,0.0,0.0,11.0,12.0,13.0,14.0,45.622
2024-04-02 20:55:54,0.5625,-7.5,121.1875,0.07852798836206065,0.0,0.0,-1.0,0.0,0.0,0.0,0.0,0.0,0.0,0.0,0.0,0.0,0.0,0.0,0.0,11.0,12.0,13.0,14.0,45.622
2024-04-02 20:55:55,0.5625,-7.5,121.1875,0.07852798836206065,0.0,0.0,-1.0,0.0,0.0,0.0,0.0,0.0,0.0,0.0,0.0,0.0,0.0,0.0,0.0,11.0,12.0,13.0,14.0,45.084
2024-04-02 20:55:55,0.5625,-7.5,121.1875,0.07852798836206065,0.0,0.0,-1.0,0.0,0.0,0.0,0.0,0.0,0.0,0.0,0.0,0.0,0.0,0.0,0.0,11.0,12.0,13.0,14.0,45.084
2024-04-02 20:55:55,0.5625,-7.5,121.1875,0.07852798836206065,0.0,0.0,-1.0,0.0,0.0,0.0,0.0,0.0,0.0,0.0,0.0,0.0,0.0,0.0,0.0,11.0,12.0,13.0,14.0,45.084
2024-04-02 20:55:55,0.5625,-7.5,121.1875,0.07852798836206065,0.0,0.0,-1.0,0.0,0.0,0.0,0.0,0.0,0.0,0.0,0.0,0.0,0.0,0.0,0.0,11.0,12.0,13.0,14.0,45.084
2024-04-02 20:55:55,0.5625,-7.5,121.1875,0.07852798836206065,0.0,0.0,-1.0,0.0,0.0,0.0,0.0,0.0,0.0,0.0,0.0,0.0,0.0,0.0,0.0,11.0,12.0,13.0,14.0,45.084
2024-04-02 20:55:55,0.5625,-7.5,121.1875,0.07699551965775552,0.0,0.0,-1.0,0.0,0.0,0.0,0.0,0.0,0.0,0.0,0.0,0.0,0.0,0.0,0.0,11.0,12.0,13.0,14.0,45.084
2024-04-02 20:55:55,0.5625,-7.5,121.1875,0.07699551965775552,0.0,0.0,-1.0,0.0,0.0,0.0,0.0,0.0,0.0,0.0,0.0,0.0,0.0,0.0,0.0,11.0,12.0,13.0,14.0,45.084
2024-04-02 20:55:55,0.5625,-7.5,121.1875,0.07699551965775552,0.0,0.0,-1.0,0.0,0.0,0.0,0.0,0.0,0.0,0.0,0.0,0.0,0.0,0.0,0.0,11.0,12.0,13.0,14.0,45.084
2024-04-02 20:55:55,0.5625,-7.5,121.1875,0.07699551965775552,0.0,0.0,-1.0,0.0,0.0,0.0,0.0,0.0,0.0,0.0,0.0,0.0,0.0,0.0,0.0,11.0,12.0,13.0,14.0,45.084
2024-04-02 20:55:55,0.5625,-7.5,121.1875,0.07699551965775552,0.0,0.0,-1.0,0.0,0.0,0.0,0.0,0.0,0.0,0.0,0.0,0.0,0.0,0.0,0.0,11.0,12.0,13.0,14.0,45.622
2024-04-02 20:55:55,0.5625,-7.5,121.1875,0.07699551965775552,0.0,0.0,-1.0,0.0,0.0,0.0,0.0,0.0,0.0,0.0,0.0,0.0,0.0,0.0,0.0,11.0,12.0,13.0,14.0,45.622
2024-04-02 20:55:55,0.5625,-7.5,121.1875,0.07699551965775552,0.0,0.0,-1.0,0.0,0.0,0.0,0.0,0.0,0.0,0.0,0.0,0.0,0.0,0.0,0.0,11.0,12.0,13.0,14.0,45.622
2024-04-02 20:55:56,0.5625,-7.5,121.1875,0.07699551965775552,0.0,0.0,-1.0,0.0,0.0,0.0,0.0,0.0,0.0,0.0,0.0,0.0,0.0,0.0,0.0,11.0,12.0,13.0,14.0,45.622
2024-04-02 20:55:56,0.5625,-7.5,121.1875,0.07699551965775552,0.0,0.0,-1.0,0.0,0.0,0.0,0.0,0.0,0.0,0.0,0.0,0.0,0.0,0.0,0.0,11.0,12.0,13.0,14.0,45.084
2024-04-02 20:55:56,0.5625,-7.5,121.1875,0.07699551965775552,0.0,0.0,-1.0,0.0,0.0,0.0,0.0,0.0,0.0,0.0,0.0,0.0,0.0,0.0,0.0,11.0,12.0,13.0,14.0,45.622
2024-04-02 20:55:56,0.5625,-7.5,121.1875,0.07699551965775552,0.0,0.0,-1.0,0.0,0.0,0.0,0.0,0.0,0.0,0.0,0.0,0.0,0.0,0.0,0.0,11.0,12.0,13.0,14.0,45.622
2024-04-02 20:55:56,0.5625,-7.5,121.1875,0.07699551965775552,0.0,0.0,-1.0,0.0,0.0,0.0,0.0,0.0,0.0,0.0,0.0,0.0,0.0,0.0,0.0,11.0,12.0,13.0,14.0,45.084
2024-04-02 20:55:56,0.5625,-7.5,121.1875,0.07699551965775552,0.0,0.0,-1.0,0.0,0.0,0.0,0.0,0.0,0.0,0.0,0.0,0.0,0.0,0.0,0.0,11.0,12.0,13.0,14.0,44.546
2024-04-02 20:55:56,0.5625,-7.5,121.1875,0.07699551965775552,0.0,0.0,-1.0,0.0,0.0,0.0,0.0,0.0,0.0,0.0,0.0,0.0,0.0,0.0,0.0,11.0,12.0,13.0,14.0,45.084
2024-04-02 20:55:56,0.5625,-7.5,121.1875,0.07699551965775552,0.0,0.0,-1.0,0.0,0.0,0.0,0.0,0.0,0.0,0.0,0.0,0.0,0.0,0.0,0.0,11.0,12.0,13.0,14.0,45.084
2024-04-02 20:55:56,0.5625,-7.5,121.1875,0.07855872817660596,0.0,0.0,-1.0,0.0,0.0,0.0,0.0,0.0,0.0,0.0,0.0,0.0,0.0,0.0,0.0,11.0,12.0,13.0,14.0,45.084
2024-04-02 20:55:56,0.5625,-7.5,121.1875,0.07855872817660596,0.0,0.0,-1.0,0.0,0.0,0.0,0.0,0.0,0.0,0.0,0.0,0.0,0.0,0.0,0.0,11.0,12.0,13.0,14.0,45.084
2024-04-02 20:55:56,0.5625,-7.5,121.1875,0.07855872817660596,0.0,0.0,-1.0,0.0,0.0,0.0,0.0,0.0,0.0,0.0,0.0,0.0,0.0,0.0,0.0,11.0,12.0,13.0,14.0,45.084
2024-04-02 20:55:56,0.5625,-7.5,121.1875,0.07855872817660596,0.0,0.0,-1.0,0.0,0.0,0.0,0.0,0.0,0.0,0.0,0.0,0.0,0.0,0.0,0.0,11.0,12.0,13.0,14.0,45.622
2024-04-02 20:55:56,0.5625,-7.5,121.1875,0.07855872817660596,0.0,0.0,-1.0,0.0,0.0,0.0,0.0,0.0,0.0,0.0,0.0,0.0,0.0,0.0,0.0,11.0,12.0,13.0,14.0,45.084
2024-04-02 20:55:56,0.5625,-7.5,121.1875,0.07855872817660596,0.0,0.0,-1.0,0.0,0.0,0.0,0.0,0.0,0.0,0.0,0.0,0.0,0.0,0.0,0.0,11.0,12.0,13.0,14.0,45.084
2024-04-02 20:55:56,0.5625,-7.5,121.1875,0.07855872817660596,0.0,0.0,-1.0,0.0,0.0,0.0,0.0,0.0,0.0,0.0,0.0,0.0,0.0,0.0,0.0,11.0,12.0,13.0,14.0,45.084
2024-04-02 20:55:57,0.5625,-7.5,121.1875,0.07855872817660596,0.0,0.0,-1.0,0.0,0.0,0.0,0.0,0.0,0.0,0.0,0.0,0.0,0.0,0.0,0.0,11.0,12.0,13.0,14.0,45.084
2024-04-02 20:55:57,0.5625,-7.5,121.1875,0.07855872817660596,0.0,0.0,-1.0,0.0,0.0,0.0,0.0,0.0,0.0,0.0,0.0,0.0,0.0,0.0,0.0,11.0,12.0,13.0,14.0,45.084
2024-04-02 20:55:57,0.5625,-7.5,121.1875,0.07855872817660596,0.0,0.0,-1.0,0.0,0.0,0.0,0.0,0.0,0.0,0.0,0.0,0.0,0.0,0.0,0.0,11.0,12.0,13.0,14.0,45.084
2024-04-02 20:55:57,0.5625,-7.5,121.1875,0.07855872817660596,0.0,0.0,-1.0,0.0,0.0,0.0,0.0,0.0,0.0,0.0,0.0,0.0,0.0,0.0,0.0,11.0,12.0,13.0,14.0,45.084
2024-04-02 20:55:57,0.5625,-7.5,121.1875,0.07855872817660596,0.0,0.0,-1.0,0.0,0.0,0.0,0.0,0.0,0.0,0.0,0.0,0.0,0.0,0.0,0.0,11.0,12.0,13.0,14.0,45.084
2024-04-02 20:55:57,0.5625,-7.5,121.1875,0.07855872817660596,0.0,0.0,-1.0,0.0,0.0,0.0,0.0,0.0,0.0,0.0,0.0,0.0,0.0,0.0,0.0,11.0,12.0,13.0,14.0,45.084
2024-04-02 20:55:57,0.5625,-7.5,121.1875,0.07855872817660596,0.0,0.0,-1.0,0.0,0.0,0.0,0.0,0.0,0.0,0.0,0.0,0.0,0.0,0.0,0.0,11.0,12.0,13.0,14.0,45.622
2024-04-02 20:55:57,0.5625,-7.5,121.1875,0.07855872817660596,0.0,0.0,-1.0,0.0,0.0,0.0,0.0,0.0,0.0,0.0,0.0,0.0,0.0,0.0,0.0,11.0,12.0,13.0,14.0,45.084
2024-04-02 20:55:57,0.5625,-7.5,121.1875,0.07824862163892543,0.0,0.0,-1.0,0.0,0.0,0.0,0.0,0.0,0.0,0.0,0.0,0.0,0.0,0.0,0.0,11.0,12.0,13.0,14.0,45.084
2024-04-02 20:55:57,0.5625,-7.5,121.1875,0.07824862163892543,0.0,0.0,-1.0,0.0,0.0,0.0,0.0,0.0,0.0,0.0,0.0,0.0,0.0,0.0,0.0,11.0,12.0,13.0,14.0,45.622
2024-04-02 20:55:57,0.5625,-7.5,121.1875,0.07824862163892543,0.0,0.0,-1.0,0.0,0.0,0.0,0.0,0.0,0.0,0.0,0.0,0.0,0.0,0.0,0.0,11.0,12.0,13.0,14.0,45.622
2024-04-02 20:55:57,0.5625,-7.5,121.1875,0.07824862163892543,0.0,0.0,-1.0,0.0,0.0,0.0,0.0,0.0,0.0,0.0,0.0,0.0,0.0,0.0,0.0,11.0,12.0,13.0,14.0,45.084
2024-04-02 20:55:57,0.5625,-7.5,121.1875,0.07824862163892543,0.0,0.0,-1.0,0.0,0.0,0.0,0.0,0.0,0.0,0.0,0.0,0.0,0.0,0.0,0.0,11.0,12.0,13.0,14.0,45.084
2024-04-02 20:55:57,0.5625,-7.5,121.1875,0.07824862163892543,0.0,0.0,-1.0,0.0,0.0,0.0,0.0,0.0,0.0,0.0,0.0,0.0,0.0,0.0,0.0,11.0,12.0,13.0,14.0,45.084
2024-04-02 20:55:58,0.5625,-7.5,121.1875,0.07824862163892543,0.0,0.0,-1.0,0.0,0.0,0.0,0.0,0.0,0.0,0.0,0.0,0.0,0.0,0.0,0.0,11.0,12.0,13.0,14.0,45.084
2024-04-02 20:55:58,0.5625,-7.5,121.1875,0.07824862163892543,0.0,0.0,-1.0,0.0,0.0,0.0,0.0,0.0,0.0,0.0,0.0,0.0,0.0,0.0,0.0,11.0,12.0,13.0,14.0,45.084
2024-04-02 20:55:58,0.5625,-7.5,121.1875,0.07824862163892543,0.0,0.0,-1.0,0.0,0.0,0.0,0.0,0.0,0.0,0.0,0.0,0.0,0.0,0.0,0.0,11.0,12.0,13.0,14.0,45.084
2024-04-02 20:55:58,0.5625,-7.5,121.1875,0.07824862163892543,0.0,0.0,-1.0,0.0,0.0,0.0,0.0,0.0,0.0,0.0,0.0,0.0,0.0,0.0,0.0,11.0,12.0,13.0,14.0,45.622
2024-04-02 20:55:58,0.5625,-7.5,121.1875,0.07824862163892543,0.0,0.0,-1.0,0.0,0.0,0.0,0.0,0.0,0.0,0.0,0.0,0.0,0.0,0.0,0.0,11.0,12.0,13.0,14.0,45.084
2024-04-02 20:55:58,0.5625,-7.5,121.1875,0.07824862163892543,0.0,0.0,-1.0,0.0,0.0,0.0,0.0,0.0,0.0,0.0,0.0,0.0,0.0,0.0,0.0,11.0,12.0,13.0,14.0,45.084
2024-04-02 20:55:58,0.5625,-7.5,121.1875,0.07824862163892543,0.0,0.0,-1.0,0.0,0.0,0.0,0.0,0.0,0.0,0.0,0.0,0.0,0.0,0.0,0.0,11.0,12.0,13.0,14.0,45.084
2024-04-02 20:55:58,0.5625,-7.5,121.1875,0.07824862163892543,0.0,0.0,-1.0,0.0,0.0,0.0,0.0,0.0,0.0,0.0,0.0,0.0,0.0,0.0,0.0,11.0,12.0,13.0,14.0,45.084
2024-04-02 20:55:58,0.5625,-7.5,121.1875,0.07773518323032058,0.0,0.0,-1.0,0.0,0.0,0.0,0.0,0.0,0.0,0.0,0.0,0.0,0.0,0.0,0.0,11.0,12.0,13.0,14.0,45.084
2024-04-02 20:55:58,0.5625,-7.5,121.1875,0.07773518323032058,0.0,0.0,-1.0,0.0,0.0,0.0,0.0,0.0,0.0,0.0,0.0,0.0,0.0,0.0,0.0,11.0,12.0,13.0,14.0,45.084
2024-04-02 20:55:58,0.5625,-7.5,121.1875,0.07773518323032058,0.0,0.0,-1.0,0.0,0.0,0.0,0.0,0.0,0.0,0.0,0.0,0.0,0.0,0.0,0.0,11.0,12.0,13.0,14.0,45.084
2024-04-02 20:55:58,0.5625,-7.5,121.1875,0.07773518323032058,0.0,0.0,-1.0,0.0,0.0,0.0,0.0,0.0,0.0,0.0,0.0,0.0,0.0,0.0,0.0,11.0,12.0,13.0,14.0,45.622
2024-04-02 20:55:58,0.5625,-7.5,121.1875,0.07773518323032058,0.0,0.0,-1.0,0.0,0.0,0.0,0.0,0.0,0.0,0.0,0.0,0.0,0.0,0.0,0.0,11.0,12.0,13.0,14.0,45.084
2024-04-02 20:55:58,0.5625,-7.5,121.1875,0.07773518323032058,0.0,0.0,-1.0,0.0,0.0,0.0,0.0,0.0,0.0,0.0,0.0,0.0,0.0,0.0,0.0,11.0,12.0,13.0,14.0,45.622
2024-04-02 20:55:59,0.5625,-7.5,121.1875,0.07773518323032058,0.0,0.0,-1.0,0.0,0.0,0.0,0.0,0.0,0.0,0.0,0.0,0.0,0.0,0.0,0.0,11.0,12.0,13.0,14.0,45.084
2024-04-02 20:55:59,0.5625,-7.5,121.1875,0.07773518323032058,0.0,0.0,-1.0,0.0,0.0,0.0,0.0,0.0,0.0,0.0,0.0,0.0,0.0,0.0,0.0,11.0,12.0,13.0,14.0,45.084
2024-04-02 20:55:59,0.5625,-7.5,121.1875,0.07773518323032058,0.0,0.0,-1.0,0.0,0.0,0.0,0.0,0.0,0.0,0.0,0.0,0.0,0.0,0.0,0.0,11.0,12.0,13.0,14.0,45.084
2024-04-02 20:55:59,0.5625,-7.5,121.1875,0.07773518323032058,0.0,0.0,-1.0,0.0,0.0,0.0,0.0,0.0,0.0,0.0,0.0,0.0,0.0,0.0,0.0,11.0,12.0,13.0,14.0,45.084
2024-04-02 20:55:59,0.5625,-7.5,121.1875,0.07773518323032058,0.0,0.0,-1.0,0.0,0.0,0.0,0.0,0.0,0.0,0.0,0.0,0.0,0.0,0.0,0.0,11.0,12.0,13.0,14.0,45.084
2024-04-02 20:55:59,0.5625,-7.5,121.1875,0.07773518323032058,0.0,0.0,-1.0,0.0,0.0,0.0,0.0,0.0,0.0,0.0,0.0,0.0,0.0,0.0,0.0,11.0,12.0,13.0,14.0,45.084
2024-04-02 20:55:59,0.5625,-7.5,121.1875,0.07773518323032058,0.0,0.0,-1.0,0.0,0.0,0.0,0.0,0.0,0.0,0.0,0.0,0.0,0.0,0.0,0.0,11.0,12.0,13.0,14.0,45.084
2024-04-02 20:55:59,0.5625,-7.5,121.1875,0.07773518323032058,0.0,0.0,-1.0,0.0,0.0,0.0,0.0,0.0,0.0,0.0,0.0,0.0,0.0,0.0,0.0,11.0,12.0,13.0,14.0,45.084
2024-04-02 20:55:59,0.5625,-7.5,121.1875,0.07773518323032058,0.0,0.0,-1.0,0.0,0.0,0.0,0.0,0.0,0.0,0.0,0.0,0.0,0.0,0.0,0.0,11.0,12.0,13.0,14.0,45.084
2024-04-02 20:55:59,0.5625,-7.5,121.1875,0.07773518323032058,0.0,0.0,-1.0,0.0,0.0,0.0,0.0,0.0,0.0,0.0,0.0,0.0,0.0,0.0,0.0,11.0,12.0,13.0,14.0,45.084
2024-04-02 20:55:59,0.5625,-7.5,121.1875,0.07765306964682621,0.0,0.0,-1.0,0.0,0.0,0.0,0.0,0.0,0.0,0.0,0.0,0.0,0.0,0.0,0.0,11.0,12.0,13.0,14.0,45.084
2024-04-02 20:55:59,0.5625,-7.5,121.1875,0.07765306964682621,0.0,0.0,-1.0,0.0,0.0,0.0,0.0,0.0,0.0,0.0,0.0,0.0,0.0,0.0,0.0,11.0,12.0,13.0,14.0,45.622
2024-04-02 20:55:59,0.5625,-7.5,121.1875,0.07765306964682621,0.0,0.0,-1.0,0.0,0.0,0.0,0.0,0.0,0.0,0.0,0.0,0.0,0.0,0.0,0.0,11.0,12.0,13.0,14.0,45.084
2024-04-02 20:55:59,0.5625,-7.5,121.1875,0.07765306964682621,0.0,0.0,-1.0,0.0,0.0,0.0,0.0,0.0,0.0,0.0,0.0,0.0,0.0,0.0,0.0,11.0,12.0,13.0,14.0,45.622
2024-04-02 20:55:59,0.5625,-7.5,121.1875,0.07765306964682621,0.0,0.0,-1.0,0.0,0.0,0.0,0.0,0.0,0.0,0.0,0.0,0.0,0.0,0.0,0.0,11.0,12.0,13.0,14.0,45.084
2024-04-02 20:56:00,0.5625,-7.5,121.1875,0.07765306964682621,0.0,0.0,-1.0,0.0,0.0,0.0,0.0,0.0,0.0,0.0,0.0,0.0,0.0,0.0,0.0,11.0,12.0,13.0,14.0,45.084
2024-04-02 20:56:00,0.5625,-7.5,121.1875,0.07765306964682621,0.0,0.0,-1.0,0.0,0.0,0.0,0.0,0.0,0.0,0.0,0.0,0.0,0.0,0.0,0.0,11.0,12.0,13.0,14.0,45.084
2024-04-02 20:56:00,0.5625,-7.5,121.1875,0.07765306964682621,0.0,0.0,-1.0,0.0,0.0,0.0,0.0,0.0,0.0,0.0,0.0,0.0,0.0,0.0,0.0,11.0,12.0,13.0,14.0,45.084
2024-04-02 20:56:00,0.5625,-7.5,121.1875,0.07765306964682621,0.0,0.0,-1.0,0.0,0.0,0.0,0.0,0.0,0.0,0.0,0.0,0.0,0.0,0.0,0.0,11.0,12.0,13.0,14.0,45.622
2024-04-02 20:56:00,0.5625,-7.5,121.1875,0.07765306964682621,0.0,0.0,-1.0,0.0,0.0,0.0,0.0,0.0,0.0,0.0,0.0,0.0,0.0,0.0,0.0,11.0,12.0,13.0,14.0,45.084
2024-04-02 20:56:00,0.5625,-7.5,121.1875,0.07765306964682621,0.0,0.0,-1.0,0.0,0.0,0.0,0.0,0.0,0.0,0.0,0.0,0.0,0.0,0.0,0.0,11.0,12.0,13.0,14.0,45.084
2024-04-02 20:56:00,0.5625,-7.5,121.1875,0.07765306964682621,0.0,0.0,-1.0,0.0,0.0,0.0,0.0,0.0,0.0,0.0,0.0,0.0,0.0,0.0,0.0,11.0,12.0,13.0,14.0,45.084
2024-04-02 20:56:00,0.5625,-7.5,121.1875,0.07765306964682621,0.0,0.0,-1.0,0.0,0.0,0.0,0.0,0.0,0.0,0.0,0.0,0.0,0.0,0.0,0.0,11.0,12.0,13.0,14.0,45.084
2024-04-02 20:56:00,0.5625,-7.5,121.1875,0.07765306964682621,0.0,0.0,-1.0,0.0,0.0,0.0,0.0,0.0,0.0,0.0,0.0,0.0,0.0,0.0,0.0,11.0,12.0,13.0,14.0,45.084
2024-04-02 20:56:00,0.5625,-7.5,121.1875,0.07765306964682621,0.0,0.0,-1.0,0.0,0.0,0.0,0.0,0.0,0.0,0.0,0.0,0.0,0.0,0.0,0.0,11.0,12.0,13.0,14.0,45.084
2024-04-02 20:56:00,0.5625,-7.5,121.1875,0.07747956464542828,0.0,0.0,-1.0,0.0,0.0,0.0,0.0,0.0,0.0,0.0,0.0,0.0,0.0,0.0,0.0,11.0,12.0,13.0,14.0,45.622
2024-04-02 20:56:00,0.5625,-7.5,121.1875,0.07747956464542828,0.0,0.0,-1.0,0.0,0.0,0.0,0.0,0.0,0.0,0.0,0.0,0.0,0.0,0.0,0.0,11.0,12.0,13.0,14.0,45.084
2024-04-02 20:56:00,0.5625,-7.5,121.1875,0.07747956464542828,0.0,0.0,-1.0,0.0,0.0,0.0,0.0,0.0,0.0,0.0,0.0,0.0,0.0,0.0,0.0,11.0,12.0,13.0,14.0,45.084
2024-04-02 20:56:00,0.5625,-7.5,121.1875,0.07747956464542828,0.0,0.0,-1.0,0.0,0.0,0.0,0.0,0.0,0.0,0.0,0.0,0.0,0.0,0.0,0.0,11.0,12.0,13.0,14.0,45.622
2024-04-02 20:56:00,0.5625,-7.5,121.1875,0.07747956464542828,0.0,0.0,-1.0,0.0,0.0,0.0,0.0,0.0,0.0,0.0,0.0,0.0,0.0,0.0,0.0,11.0,12.0,13.0,14.0,45.622
2024-04-02 20:56:01,0.5625,-7.5,121.1875,0.07747956464542828,0.0,0.0,-1.0,0.0,0.0,0.0,0.0,0.0,0.0,0.0,0.0,0.0,0.0,0.0,0.0,11.0,12.0,13.0,14.0,45.622
2024-04-02 20:56:01,0.5625,-7.5,121.1875,0.07747956464542828,0.0,0.0,-1.0,0.0,0.0,0.0,0.0,0.0,0.0,0.0,0.0,0.0,0.0,0.0,0.0,11.0,12.0,13.0,14.0,45.084
2024-04-02 20:56:01,0.5625,-7.5,121.1875,0.07747956464542828,0.0,0.0,-1.0,0.0,0.0,0.0,0.0,0.0,0.0,0.0,0.0,0.0,0.0,0.0,0.0,11.0,12.0,13.0,14.0,45.084
2024-04-02 20:56:01,0.5625,-7.5,121.1875,0.07747956464542828,0.0,0.0,-1.0,0.0,0.0,0.0,0.0,0.0,0.0,0.0,0.0,0.0,0.0,0.0,0.0,11.0,12.0,13.0,14.0,45.084
2024-04-02 20:56:01,0.5625,-7.5,121.1875,0.07747956464542828,0.0,0.0,-1.0,0.0,0.0,0.0,0.0,0.0,0.0,0.0,0.0,0.0,0.0,0.0,0.0,11.0,12.0,13.0,14.0,45.084
2024-04-02 20:56:01,0.5625,-7.5,121.1875,0.07747956464542828,0.0,0.0,-1.0,0.0,0.0,0.0,0.0,0.0,0.0,0.0,0.0,0.0,0.0,0.0,0.0,11.0,12.0,13.0,14.0,45.084
2024-04-02 20:56:01,0.5625,-7.5,121.1875,0.07747956464542828,0.0,0.0,-1.0,0.0,0.0,0.0,0.0,0.0,0.0,0.0,0.0,0.0,0.0,0.0,0.0,11.0,12.0,13.0,14.0,45.084
2024-04-02 20:56:01,0.5625,-7.5,121.1875,0.07747956464542828,0.0,0.0,-1.0,0.0,0.0,0.0,0.0,0.0,0.0,0.0,0.0,0.0,0.0,0.0,0.0,11.0,12.0,13.0,14.0,45.084
2024-04-02 20:56:01,0.5625,-7.5,121.1875,0.07747956464542828,0.0,0.0,-1.0,0.0,0.0,0.0,0.0,0.0,0.0,0.0,0.0,0.0,0.0,0.0,0.0,11.0,12.0,13.0,14.0,45.084
2024-04-02 20:56:01,0.5625,-7.5,121.1875,0.07747956464542828,0.0,0.0,-1.0,0.0,0.0,0.0,0.0,0.0,0.0,0.0,0.0,0.0,0.0,0.0,0.0,11.0,12.0,13.0,14.0,45.084
2024-04-02 20:56:01,0.5625,-7.5,121.1875,0.07761913090071555,0.0,0.0,-1.0,0.0,0.0,0.0,0.0,0.0,0.0,0.0,0.0,0.0,0.0,0.0,0.0,11.0,12.0,13.0,14.0,45.084
2024-04-02 20:56:01,0.5625,-7.5,121.1875,0.07761913090071555,0.0,0.0,-1.0,0.0,0.0,0.0,0.0,0.0,0.0,0.0,0.0,0.0,0.0,0.0,0.0,11.0,12.0,13.0,14.0,45.084
2024-04-02 20:56:01,0.5625,-7.5,121.1875,0.07761913090071555,0.0,0.0,-1.0,0.0,0.0,0.0,0.0,0.0,0.0,0.0,0.0,0.0,0.0,0.0,0.0,11.0,12.0,13.0,14.0,45.622
2024-04-02 20:56:02,0.5625,-7.5,121.1875,0.07761913090071555,0.0,0.0,-1.0,0.0,0.0,0.0,0.0,0.0,0.0,0.0,0.0,0.0,0.0,0.0,0.0,11.0,12.0,13.0,14.0,46.16
2024-04-02 20:56:02,0.5625,-7.5,121.1875,0.07761913090071555,0.0,0.0,-1.0,0.0,0.0,0.0,0.0,0.0,0.0,0.0,0.0,0.0,0.0,0.0,0.0,11.0,12.0,13.0,14.0,45.622
2024-04-02 20:56:02,0.5625,-7.5,121.1875,0.07761913090071555,0.0,0.0,-1.0,0.0,0.0,0.0,0.0,0.0,0.0,0.0,0.0,0.0,0.0,0.0,0.0,11.0,12.0,13.0,14.0,45.622
2024-04-02 20:56:02,0.5625,-7.5,121.1875,0.07761913090071555,0.0,0.0,-1.0,0.0,0.0,0.0,0.0,0.0,0.0,0.0,0.0,0.0,0.0,0.0,0.0,11.0,12.0,13.0,14.0,46.16
2024-04-02 20:56:02,0.5625,-7.5,121.1875,0.07761913090071555,0.0,0.0,-1.0,0.0,0.0,0.0,0.0,0.0,0.0,0.0,0.0,0.0,0.0,0.0,0.0,11.0,12.0,13.0,14.0,46.16
2024-04-02 20:56:02,0.5625,-7.5,121.1875,0.07761913090071555,0.0,0.0,-1.0,0.0,0.0,0.0,0.0,0.0,0.0,0.0,0.0,0.0,0.0,0.0,0.0,11.0,12.0,13.0,14.0,46.16
2024-04-02 20:56:02,0.5625,-7.5,121.1875,0.07761913090071555,0.0,0.0,-1.0,0.0,0.0,0.0,0.0,0.0,0.0,0.0,0.0,0.0,0.0,0.0,0.0,11.0,12.0,13.0,14.0,46.16
2024-04-02 20:56:02,0.5625,-7.5,121.1875,0.07761913090071555,0.0,0.0,-1.0,0.0,0.0,0.0,0.0,0.0,0.0,0.0,0.0,0.0,0.0,0.0,0.0,11.0,12.0,13.0,14.0,46.16
2024-04-02 20:56:02,0.5625,-7.5,121.1875,0.07761913090071555,0.0,0.0,-1.0,0.0,0.0,0.0,0.0,0.0,0.0,0.0,0.0,0.0,0.0,0.0,0.0,11.0,12.0,13.0,14.0,45.084
2024-04-02 20:56:02,0.5625,-7.5,121.1875,0.07761913090071555,0.0,0.0,-1.0,0.0,0.0,0.0,0.0,0.0,0.0,0.0,0.0,0.0,0.0,0.0,0.0,11.0,12.0,13.0,14.0,46.16
2024-04-02 20:56:02,0.5625,-7.5,121.1875,0.07761913090071555,0.0,0.0,-1.0,0.0,0.0,0.0,0.0,0.0,0.0,0.0,0.0,0.0,0.0,0.0,0.0,11.0,12.0,13.0,14.0,46.16
2024-04-02 20:56:02,0.5625,-7.5,121.1875,0.07761913090071555,0.0,0.0,-1.0,0.0,0.0,0.0,0.0,0.0,0.0,0.0,0.0,0.0,0.0,0.0,0.0,11.0,12.0,13.0,14.0,46.16
2024-04-02 20:56:02,0.5625,-7.5,121.1875,0.07761913090071555,0.0,0.0,-1.0,0.0,0.0,0.0,0.0,0.0,0.0,0.0,0.0,0.0,0.0,0.0,0.0,11.0,12.0,13.0,14.0,46.16
2024-04-02 20:56:03,0.5625,-7.5,121.1875,0.07652090679722681,0.0,0.0,-1.0,0.0,0.0,0.0,0.0,0.0,0.0,0.0,0.0,0.0,0.0,0.0,0.0,11.0,12.0,13.0,14.0,46.698
2024-04-02 20:56:03,0.5625,-7.5,121.1875,0.07652090679722681,0.0,0.0,-1.0,0.0,0.0,0.0,0.0,0.0,0.0,0.0,0.0,0.0,0.0,0.0,0.0,11.0,12.0,13.0,14.0,46.698
2024-04-02 20:56:03,0.5625,-7.5,121.1875,0.07652090679722681,0.0,0.0,-1.0,0.0,0.0,0.0,0.0,0.0,0.0,0.0,0.0,0.0,0.0,0.0,0.0,11.0,12.0,13.0,14.0,46.698
2024-04-02 20:56:03,0.5625,-7.5,121.1875,0.07652090679722681,0.0,0.0,-1.0,0.0,0.0,0.0,0.0,0.0,0.0,0.0,0.0,0.0,0.0,0.0,0.0,11.0,12.0,13.0,14.0,47.236
2024-04-02 20:56:03,0.5625,-7.5,121.1875,0.07652090679722681,0.0,0.0,-1.0,0.0,0.0,0.0,0.0,0.0,0.0,0.0,0.0,0.0,0.0,0.0,0.0,11.0,12.0,13.0,14.0,46.698
2024-04-02 20:56:03,0.5625,-7.5,121.1875,0.07652090679722681,0.0,0.0,-1.0,0.0,0.0,0.0,0.0,0.0,0.0,0.0,0.0,0.0,0.0,0.0,0.0,11.0,12.0,13.0,14.0,46.16
2024-04-02 20:56:03,0.5625,-7.5,121.1875,0.07652090679722681,0.0,0.0,-1.0,0.0,0.0,0.0,0.0,0.0,0.0,0.0,0.0,0.0,0.0,0.0,0.0,11.0,12.0,13.0,14.0,46.16
2024-04-02 20:56:03,0.5625,-7.5,121.1875,0.07652090679722681,0.0,0.0,-1.0,0.0,0.0,0.0,0.0,0.0,0.0,0.0,0.0,0.0,0.0,0.0,0.0,11.0,12.0,13.0,14.0,47.236
2024-04-02 20:56:03,0.5625,-7.5,121.1875,0.07652090679722681,0.0,0.0,-1.0,0.0,0.0,0.0,0.0,0.0,0.0,0.0,0.0,0.0,0.0,0.0,0.0,11.0,12.0,13.0,14.0,47.236
2024-04-02 20:56:03,0.5625,-7.5,121.1875,0.07652090679722681,0.0,0.0,-1.0,0.0,0.0,0.0,0.0,0.0,0.0,0.0,0.0,0.0,0.0,0.0,0.0,11.0,12.0,13.0,14.0,46.698
2024-04-02 20:56:03,0.5625,-7.5,121.1875,0.07652090679722681,0.0,0.0,-1.0,0.0,0.0,0.0,0.0,0.0,0.0,0.0,0.0,0.0,0.0,0.0,0.0,11.0,12.0,13.0,14.0,47.774
2024-04-02 20:56:03,0.5625,-7.5,121.1875,0.07652090679722681,0.0,0.0,-1.0,0.0,0.0,0.0,0.0,0.0,0.0,0.0,0.0,0.0,0.0,0.0,0.0,11.0,12.0,13.0,14.0,47.236
2024-04-02 20:56:04,0.5625,-7.5,121.1875,0.07652090679722681,0.0,0.0,-1.0,0.0,0.0,0.0,0.0,0.0,0.0,0.0,0.0,0.0,0.0,0.0,0.0,11.0,12.0,13.0,14.0,47.774
2024-04-02 20:56:04,0.5625,-7.5,121.1875,0.07652090679722681,0.0,0.0,-1.0,0.0,0.0,0.0,0.0,0.0,0.0,0.0,0.0,0.0,0.0,0.0,0.0,11.0,12.0,13.0,14.0,47.774
