Timestamp,Yaw,Pitch,Roll,Depth,Depth Set,Depth Control,Water,Roll Control,Pitch Control,Thruster1,Thruster2,Thruster3,Thruster4,Thruster5,Thruster6,BCD1,BCD2,BCD3,BCD4,BCD1 Volt,BCD2 Volt,BCD3 Volt,BCD4 Volt,CPU
2024-04-03 17:55:52,0.0,2.5,51.875,0.08109106364494345,0.0,0.0,-1.0,0.0,0.0,0.0,0.0,0.0,0.0,0.0,0.0,0.0,0.0,0.0,0.0,-1.0,-1.0,-1.0,-1.0,32.71
2024-04-03 17:55:52,0.0,2.5,51.875,0.08109106364494345,0.0,0.0,106.0,0.0,0.0,0.0,0.0,0.0,0.0,0.0,0.0,0.0,0.0,0.0,0.0,-1.0,-1.0,-1.0,-1.0,33.248
2024-04-03 17:55:53,0.0,2.5,51.875,0.08521198082700279,0.0,0.0,-1.0,0.0,0.0,0.0,0.0,0.0,0.0,0.0,0.0,0.0,0.0,0.0,0.0,-1.0,-1.0,-1.0,-1.0,33.248
2024-04-03 17:55:53,0.0,2.5,51.875,0.08521198082700279,0.0,0.0,-1.0,0.0,0.0,0.0,0.0,0.0,0.0,0.0,0.0,0.0,0.0,0.0,0.0,-1.0,-1.0,-1.0,-1.0,33.248
2024-04-03 17:55:53,0.0,2.5,51.875,0.08521198082700279,0.0,0.0,-1.0,0.0,0.0,0.0,0.0,0.0,0.0,0.0,0.0,0.0,0.0,0.0,0.0,-1.0,-1.0,-1.0,-1.0,33.248
2024-04-03 17:55:53,0.0,2.5,51.875,0.08521198082700279,0.0,0.0,-1.0,0.0,0.0,0.0,0.0,0.0,0.0,0.0,0.0,0.0,0.0,0.0,0.0,-1.0,-1.0,-1.0,-1.0,32.71
2024-04-03 17:55:53,0.0,2.5,51.875,0.08521198082700279,0.0,0.0,-1.0,0.0,0.0,0.0,0.0,0.0,0.0,0.0,0.0,0.0,0.0,0.0,0.0,-1.0,-1.0,-1.0,-1.0,33.248
2024-04-03 17:55:53,0.0,2.5,51.875,0.08521198082700279,0.0,0.0,-1.0,0.0,0.0,0.0,0.0,0.0,0.0,0.0,0.0,0.0,0.0,0.0,0.0,-1.0,-1.0,-1.0,-1.0,32.71
2024-04-03 17:55:53,0.0,2.5,51.875,0.08521198082700279,0.0,0.0,-1.0,0.0,0.0,0.0,0.0,0.0,0.0,0.0,0.0,0.0,0.0,0.0,0.0,-1.0,-1.0,-1.0,-1.0,33.786
2024-04-03 17:55:53,0.0,2.5,51.875,0.08521198082700279,0.0,0.0,-1.0,0.0,0.0,0.0,0.0,0.0,0.0,0.0,0.0,0.0,0.0,0.0,0.0,-1.0,-1.0,-1.0,-1.0,32.71
2024-04-03 17:55:53,0.0,2.5,51.875,0.08521198082700279,0.0,0.0,-1.0,0.0,0.0,0.0,0.0,0.0,0.0,0.0,0.0,0.0,0.0,0.0,0.0,-1.0,-1.0,-1.0,-1.0,32.71
2024-04-03 17:55:53,0.0,2.5,51.875,0.08521198082700279,0.0,0.0,-1.0,0.0,0.0,0.0,0.0,0.0,0.0,0.0,0.0,0.0,0.0,0.0,0.0,-1.0,-1.0,-1.0,-1.0,33.248
2024-04-03 17:55:53,0.0,2.5,51.875,0.08521198082700279,0.0,0.0,-1.0,0.0,0.0,0.0,0.0,0.0,0.0,0.0,0.0,0.0,0.0,0.0,0.0,-1.0,-1.0,-1.0,-1.0,32.71
2024-04-03 17:55:53,0.0,2.5,51.875,0.08521198082700279,0.0,0.0,-1.0,0.0,0.0,0.0,0.0,0.0,0.0,0.0,0.0,0.0,0.0,0.0,0.0,-1.0,-1.0,-1.0,-1.0,33.248
2024-04-03 17:55:53,0.0,2.5,51.875,0.08521198082700279,0.0,0.0,-1.0,0.0,0.0,0.0,0.0,0.0,0.0,0.0,0.0,0.0,0.0,0.0,0.0,-1.0,-1.0,-1.0,-1.0,32.172
2024-04-03 17:55:53,0.0,2.5,51.875,0.08521198082700279,0.0,0.0,106.0,0.0,0.0,0.0,0.0,0.0,0.0,0.0,0.0,0.0,0.0,0.0,0.0,-1.0,-1.0,-1.0,-1.0,33.248
2024-04-03 17:55:54,0.0,2.5,51.875,0.0819968747036589,0.0,0.0,-1.0,0.0,0.0,0.0,0.0,0.0,0.0,0.0,0.0,0.0,0.0,0.0,0.0,-1.0,-1.0,-1.0,-1.0,33.248
2024-04-03 17:55:54,0.0,2.5,51.875,0.0819968747036589,0.0,0.0,-1.0,0.0,0.0,0.0,0.0,0.0,0.0,0.0,0.0,0.0,0.0,0.0,0.0,-1.0,-1.0,-1.0,-1.0,33.248
2024-04-03 17:55:54,0.0,2.5,51.875,0.0819968747036589,0.0,0.0,106.0,0.0,0.0,0.0,0.0,0.0,0.0,0.0,0.0,0.0,0.0,0.0,0.0,-1.0,-1.0,-1.0,-1.0,32.71
2024-04-03 17:55:54,0.0,2.5,51.875,0.0819968747036589,0.0,0.0,-1.0,0.0,0.0,0.0,0.0,0.0,0.0,0.0,0.0,0.0,0.0,0.0,0.0,-1.0,-1.0,-1.0,-1.0,33.248
2024-04-03 17:55:54,0.0,2.5,51.875,0.0819968747036589,0.0,0.0,-1.0,0.0,0.0,0.0,0.0,0.0,0.0,0.0,0.0,0.0,0.0,0.0,0.0,-1.0,-1.0,-1.0,-1.0,33.248
2024-04-03 17:55:54,0.0,2.5,51.875,0.0819968747036589,0.0,0.0,-1.0,0.0,0.0,0.0,0.0,0.0,0.0,0.0,0.0,0.0,0.0,0.0,0.0,-1.0,-1.0,-1.0,-1.0,33.248
2024-04-03 17:55:54,0.0,2.5,51.875,0.0819968747036589,0.0,0.0,-1.0,0.0,0.0,0.0,0.0,0.0,0.0,0.0,0.0,0.0,0.0,0.0,0.0,-1.0,-1.0,-1.0,-1.0,33.248
2024-04-03 17:55:54,0.0,2.5,51.875,0.0819968747036589,0.0,0.0,-1.0,0.0,0.0,0.0,0.0,0.0,0.0,0.0,0.0,0.0,0.0,0.0,0.0,-1.0,-1.0,-1.0,-1.0,33.248
2024-04-03 17:55:54,0.0,2.5,51.875,0.0819968747036589,0.0,0.0,-1.0,0.0,0.0,0.0,0.0,0.0,0.0,0.0,0.0,0.0,0.0,0.0,0.0,-1.0,-1.0,-1.0,-1.0,32.71
2024-04-03 17:55:54,0.0,2.5,51.875,0.0819968747036589,0.0,0.0,-1.0,0.0,0.0,0.0,0.0,0.0,0.0,0.0,0.0,0.0,0.0,0.0,0.0,-1.0,-1.0,-1.0,-1.0,32.71
2024-04-03 17:55:54,0.0,2.5,51.875,0.0819968747036589,0.0,0.0,-1.0,0.0,0.0,0.0,0.0,0.0,0.0,0.0,0.0,0.0,0.0,0.0,0.0,-1.0,-1.0,-1.0,-1.0,32.71
2024-04-03 17:55:54,0.0,2.5,51.875,0.0819968747036589,0.0,0.0,-1.0,0.0,0.0,0.0,0.0,0.0,0.0,0.0,0.0,0.0,0.0,0.0,0.0,-1.0,-1.0,-1.0,-1.0,32.71
2024-04-03 17:55:54,0.0,2.5,51.875,0.0819968747036589,0.0,0.0,-1.0,0.0,0.0,0.0,0.0,0.0,0.0,0.0,0.0,0.0,0.0,0.0,0.0,-1.0,-1.0,-1.0,-1.0,33.248
2024-04-03 17:55:54,0.0,2.5,51.875,0.08086017370259857,0.0,0.0,106.0,0.0,0.0,0.0,0.0,0.0,0.0,0.0,0.0,0.0,0.0,0.0,0.0,-1.0,-1.0,-1.0,-1.0,32.71
2024-04-03 17:55:54,0.0,2.5,51.875,0.08086017370259857,0.0,0.0,-1.0,0.0,0.0,0.0,0.0,0.0,0.0,0.0,0.0,0.0,0.0,0.0,0.0,-1.0,-1.0,-1.0,-1.0,33.248
2024-04-03 17:55:55,0.0,2.5,51.875,0.08086017370259857,0.0,0.0,-1.0,0.0,0.0,0.0,0.0,0.0,0.0,0.0,0.0,0.0,0.0,0.0,0.0,-1.0,-1.0,-1.0,-1.0,33.248
2024-04-03 17:55:55,0.0,2.5,51.875,0.08086017370259857,0.0,0.0,105.0,0.0,0.0,0.0,0.0,0.0,0.0,0.0,0.0,0.0,0.0,0.0,0.0,-1.0,-1.0,-1.0,-1.0,33.248
2024-04-03 17:55:55,0.0,2.5,51.875,0.08086017370259857,0.0,0.0,-1.0,0.0,0.0,0.0,0.0,0.0,0.0,0.0,0.0,0.0,0.0,0.0,0.0,-1.0,-1.0,-1.0,-1.0,33.248
2024-04-03 17:55:55,0.0,2.5,51.875,0.08086017370259857,0.0,0.0,-1.0,0.0,0.0,0.0,0.0,0.0,0.0,0.0,0.0,0.0,0.0,0.0,0.0,-1.0,-1.0,-1.0,-1.0,33.248
2024-04-03 17:55:55,0.0,2.5,51.875,0.08086017370259857,0.0,0.0,-1.0,0.0,0.0,0.0,0.0,0.0,0.0,0.0,0.0,0.0,0.0,0.0,0.0,-1.0,-1.0,-1.0,-1.0,33.248
2024-04-03 17:55:55,0.0,2.5,51.875,0.08086017370259857,0.0,0.0,-1.0,0.0,0.0,0.0,0.0,0.0,0.0,0.0,0.0,0.0,0.0,0.0,0.0,-1.0,-1.0,-1.0,-1.0,33.248
2024-04-03 17:55:55,0.0,2.5,51.875,0.08086017370259857,0.0,0.0,-1.0,0.0,0.0,0.0,0.0,0.0,0.0,0.0,0.0,0.0,0.0,0.0,0.0,-1.0,-1.0,-1.0,-1.0,33.248
2024-04-03 17:55:55,0.0,2.5,51.875,0.08086017370259857,0.0,0.0,-1.0,0.0,0.0,0.0,0.0,0.0,0.0,0.0,0.0,0.0,0.0,0.0,0.0,-1.0,-1.0,-1.0,-1.0,33.248
2024-04-03 17:55:55,0.0,2.5,51.875,0.08086017370259857,0.0,0.0,-1.0,0.0,0.0,0.0,0.0,0.0,0.0,0.0,0.0,0.0,0.0,0.0,0.0,-1.0,-1.0,-1.0,-1.0,33.248
2024-04-03 17:55:55,0.0,2.5,51.875,0.08086017370259857,0.0,0.0,-1.0,0.0,0.0,0.0,0.0,0.0,0.0,0.0,0.0,0.0,0.0,0.0,0.0,-1.0,-1.0,-1.0,-1.0,33.248
2024-04-03 17:55:55,0.0,2.5,51.875,0.08086017370259857,0.0,0.0,-1.0,0.0,0.0,0.0,0.0,0.0,0.0,0.0,0.0,0.0,0.0,0.0,0.0,-1.0,-1.0,-1.0,-1.0,33.248
2024-04-03 17:55:55,0.0,2.5,51.875,0.08086017370259857,0.0,0.0,-1.0,0.0,0.0,0.0,0.0,0.0,0.0,0.0,0.0,0.0,0.0,0.0,0.0,-1.0,-1.0,-1.0,-1.0,33.248
2024-04-03 17:55:55,0.0,2.5,51.875,0.08175625920204047,0.0,0.0,108.0,0.0,0.0,0.0,0.0,0.0,0.0,0.0,0.0,0.0,0.0,0.0,0.0,-1.0,-1.0,-1.0,-1.0,32.71
2024-04-03 17:55:55,0.0,2.5,51.875,0.08175625920204047,0.0,0.0,-1.0,0.0,0.0,0.0,0.0,0.0,0.0,0.0,0.0,0.0,0.0,0.0,0.0,-1.0,-1.0,-1.0,-1.0,32.71
2024-04-03 17:55:56,0.0,2.5,51.875,0.08175625920204047,0.0,0.0,-1.0,0.0,0.0,0.0,0.0,0.0,0.0,0.0,0.0,0.0,0.0,0.0,0.0,-1.0,-1.0,-1.0,-1.0,32.71
2024-04-03 17:55:56,0.0,2.5,51.875,0.08175625920204047,0.0,0.0,0.0,0.0,0.0,0.0,0.0,0.0,0.0,0.0,0.0,0.0,0.0,0.0,0.0,-1.0,-1.0,-1.0,-1.0,33.248
2024-04-03 17:55:56,0.0,2.5,51.875,0.08175625920204047,0.0,0.0,-1.0,0.0,0.0,0.0,0.0,0.0,0.0,0.0,0.0,0.0,0.0,0.0,0.0,-1.0,-1.0,-1.0,-1.0,33.786
2024-04-03 17:55:56,0.0,2.5,51.875,0.08175625920204047,0.0,0.0,-1.0,0.0,0.0,0.0,0.0,0.0,0.0,0.0,0.0,0.0,0.0,0.0,0.0,-1.0,-1.0,-1.0,-1.0,33.248
2024-04-03 17:55:56,0.0,2.5,51.875,0.08175625920204047,0.0,0.0,-1.0,0.0,0.0,0.0,0.0,0.0,0.0,0.0,0.0,0.0,0.0,0.0,0.0,-1.0,-1.0,-1.0,-1.0,33.248
2024-04-03 17:55:56,0.0,2.5,51.875,0.08175625920204047,0.0,0.0,-1.0,0.0,0.0,0.0,0.0,0.0,0.0,0.0,0.0,0.0,0.0,0.0,0.0,-1.0,-1.0,-1.0,-1.0,33.248
2024-04-03 17:55:56,0.0,2.5,51.875,0.08175625920204047,0.0,0.0,106.0,0.0,0.0,0.0,0.0,0.0,0.0,0.0,0.0,0.0,0.0,0.0,0.0,-1.0,-1.0,-1.0,-1.0,33.248
2024-04-03 17:55:56,0.0,2.5,51.875,0.08175625920204047,0.0,0.0,-1.0,0.0,0.0,0.0,0.0,0.0,0.0,0.0,0.0,0.0,0.0,0.0,0.0,-1.0,-1.0,-1.0,-1.0,32.71
2024-04-03 17:55:56,0.0,2.5,51.875,0.08175625920204047,0.0,0.0,-1.0,0.0,0.0,0.0,0.0,0.0,0.0,0.0,0.0,0.0,0.0,0.0,0.0,-1.0,-1.0,-1.0,-1.0,33.248
2024-04-03 17:55:56,0.0,2.5,51.875,0.08175625920204047,0.0,0.0,107.0,0.0,0.0,0.0,0.0,0.0,0.0,0.0,0.0,0.0,0.0,0.0,0.0,-1.0,-1.0,-1.0,-1.0,33.248
2024-04-03 17:55:56,0.0,2.5,51.875,0.08175625920204047,0.0,0.0,-1.0,0.0,0.0,0.0,0.0,0.0,0.0,0.0,0.0,0.0,0.0,0.0,0.0,-1.0,-1.0,-1.0,-1.0,33.248
2024-04-03 17:55:56,0.0,2.5,51.875,0.08201759912898299,0.0,0.0,-1.0,0.0,0.0,0.0,0.0,0.0,0.0,0.0,0.0,0.0,0.0,0.0,0.0,-1.0,-1.0,-1.0,-1.0,33.248
2024-04-03 17:55:56,0.0,2.5,51.875,0.08201759912898299,0.0,0.0,-1.0,0.0,0.0,0.0,0.0,0.0,0.0,0.0,0.0,0.0,0.0,0.0,0.0,-1.0,-1.0,-1.0,-1.0,33.786
2024-04-03 17:55:57,0.0,2.5,51.875,0.08201759912898299,0.0,0.0,-1.0,0.0,0.0,0.0,0.0,0.0,0.0,0.0,0.0,0.0,0.0,0.0,0.0,-1.0,-1.0,-1.0,-1.0,33.248
2024-04-03 17:55:57,0.0,2.5,51.875,0.08201759912898299,0.0,0.0,-1.0,0.0,0.0,0.0,0.0,0.0,0.0,0.0,0.0,0.0,0.0,0.0,0.0,-1.0,-1.0,-1.0,-1.0,33.248
2024-04-03 17:55:57,0.0,2.5,51.875,0.08201759912898299,0.0,0.0,-1.0,0.0,0.0,0.0,0.0,0.0,0.0,0.0,0.0,0.0,0.0,0.0,0.0,-1.0,-1.0,-1.0,-1.0,32.71
2024-04-03 17:55:57,0.0,2.5,51.875,0.08201759912898299,0.0,0.0,-1.0,0.0,0.0,0.0,0.0,0.0,0.0,0.0,0.0,0.0,0.0,0.0,0.0,-1.0,-1.0,-1.0,-1.0,33.248
2024-04-03 17:55:57,0.0,2.5,51.875,0.08201759912898299,0.0,0.0,0.0,0.0,0.0,0.0,0.0,0.0,0.0,0.0,0.0,0.0,0.0,0.0,0.0,-1.0,-1.0,-1.0,-1.0,33.248
2024-04-03 17:55:57,0.0,2.5,51.875,0.08201759912898299,0.0,0.0,-1.0,0.0,0.0,0.0,0.0,0.0,0.0,0.0,0.0,0.0,0.0,0.0,0.0,-1.0,-1.0,-1.0,-1.0,33.786
2024-04-03 17:55:57,0.0,2.5,51.875,0.08201759912898299,0.0,0.0,107.0,0.0,0.0,0.0,0.0,0.0,0.0,0.0,0.0,0.0,0.0,0.0,0.0,-1.0,-1.0,-1.0,-1.0,33.248
2024-04-03 17:55:57,0.0,2.5,51.875,0.08201759912898299,0.0,0.0,-1.0,0.0,0.0,0.0,0.0,0.0,0.0,0.0,0.0,0.0,0.0,0.0,0.0,-1.0,-1.0,-1.0,-1.0,33.248
2024-04-03 17:55:57,0.0,2.5,51.875,0.08201759912898299,0.0,0.0,-1.0,0.0,0.0,0.0,0.0,0.0,0.0,0.0,0.0,0.0,0.0,0.0,0.0,-1.0,-1.0,-1.0,-1.0,32.71
2024-04-03 17:55:57,0.0,2.5,51.875,0.08201759912898299,0.0,0.0,-1.0,0.0,0.0,0.0,0.0,0.0,0.0,0.0,0.0,0.0,0.0,0.0,0.0,-1.0,-1.0,-1.0,-1.0,33.248
2024-04-03 17:55:57,0.0,2.5,51.875,0.08201759912898299,0.0,0.0,-1.0,0.0,0.0,0.0,0.0,0.0,0.0,0.0,0.0,0.0,0.0,0.0,0.0,-1.0,-1.0,-1.0,-1.0,33.248
2024-04-03 17:55:57,0.0,2.5,51.875,0.0819580069393878,0.0,0.0,106.0,0.0,0.0,0.0,0.0,0.0,0.0,0.0,0.0,0.0,0.0,0.0,0.0,-1.0,-1.0,-1.0,-1.0,33.786
2024-04-03 17:55:57,0.0,2.5,51.875,0.0819580069393878,0.0,0.0,-1.0,0.0,0.0,0.0,0.0,0.0,0.0,0.0,0.0,0.0,0.0,0.0,0.0,-1.0,-1.0,-1.0,-1.0,33.248
2024-04-03 17:55:58,0.0,2.5,51.875,0.0819580069393878,0.0,0.0,-1.0,0.0,0.0,0.0,0.0,0.0,0.0,0.0,0.0,0.0,0.0,0.0,0.0,-1.0,-1.0,-1.0,-1.0,32.71
2024-04-03 17:55:58,0.0,2.5,51.875,0.0819580069393878,0.0,0.0,-1.0,0.0,0.0,0.0,0.0,0.0,0.0,0.0,0.0,0.0,0.0,0.0,0.0,-1.0,-1.0,-1.0,-1.0,33.248
2024-04-03 17:55:58,0.0,2.5,51.875,0.0819580069393878,0.0,0.0,-1.0,0.0,0.0,0.0,0.0,0.0,0.0,0.0,0.0,0.0,0.0,0.0,0.0,-1.0,-1.0,-1.0,-1.0,33.248
2024-04-03 17:55:58,0.0,2.5,51.875,0.0819580069393878,0.0,0.0,-1.0,0.0,0.0,0.0,0.0,0.0,0.0,0.0,0.0,0.0,0.0,0.0,0.0,-1.0,-1.0,-1.0,-1.0,32.71
2024-04-03 17:55:58,0.0,2.5,51.875,0.0819580069393878,0.0,0.0,-1.0,0.0,0.0,0.0,0.0,0.0,0.0,0.0,0.0,0.0,0.0,0.0,0.0,-1.0,-1.0,-1.0,-1.0,33.248
2024-04-03 17:55:58,0.0,2.5,51.875,0.0819580069393878,0.0,0.0,-1.0,0.0,0.0,0.0,0.0,0.0,0.0,0.0,0.0,0.0,0.0,0.0,0.0,-1.0,-1.0,-1.0,-1.0,33.248
2024-04-03 17:55:58,0.0,2.5,51.875,0.0819580069393878,0.0,0.0,-1.0,0.0,0.0,0.0,0.0,0.0,0.0,0.0,0.0,0.0,0.0,0.0,0.0,-1.0,-1.0,-1.0,-1.0,33.248
2024-04-03 17:55:58,0.0,2.5,51.875,0.0819580069393878,0.0,0.0,-1.0,0.0,0.0,0.0,0.0,0.0,0.0,0.0,0.0,0.0,0.0,0.0,0.0,-1.0,-1.0,-1.0,-1.0,33.248
2024-04-03 17:55:58,0.0,2.5,51.875,0.0819580069393878,0.0,0.0,-1.0,0.0,0.0,0.0,0.0,0.0,0.0,0.0,0.0,0.0,0.0,0.0,0.0,-1.0,-1.0,-1.0,-1.0,33.248
2024-04-03 17:55:58,0.0,2.5,51.875,0.0819580069393878,0.0,0.0,-1.0,0.0,0.0,0.0,0.0,0.0,0.0,0.0,0.0,0.0,0.0,0.0,0.0,-1.0,-1.0,-1.0,-1.0,33.248
2024-04-03 17:55:58,0.0,2.5,51.875,0.0819580069393878,0.0,0.0,-1.0,0.0,0.0,0.0,0.0,0.0,0.0,0.0,0.0,0.0,0.0,0.0,0.0,-1.0,-1.0,-1.0,-1.0,33.248
2024-04-03 17:55:58,0.0,2.5,51.875,0.0819580069393878,0.0,0.0,-1.0,0.0,0.0,0.0,0.0,0.0,0.0,0.0,0.0,0.0,0.0,0.0,0.0,-1.0,-1.0,-1.0,-1.0,33.248
2024-04-03 17:55:58,0.0,2.5,51.875,0.0819580069393878,0.0,0.0,-1.0,0.0,0.0,0.0,0.0,0.0,0.0,0.0,0.0,0.0,0.0,0.0,0.0,-1.0,-1.0,-1.0,-1.0,33.248
2024-04-03 17:55:58,0.0,2.5,51.875,0.08076724250178295,0.0,0.0,108.0,0.0,0.0,0.0,0.0,0.0,0.0,0.0,0.0,0.0,0.0,0.0,0.0,-1.0,-1.0,-1.0,-1.0,33.248
2024-04-03 17:55:59,0.0,2.5,51.875,0.08076724250178295,0.0,0.0,-1.0,0.0,0.0,0.0,0.0,0.0,0.0,0.0,0.0,0.0,0.0,0.0,0.0,-1.0,-1.0,-1.0,-1.0,33.248
2024-04-03 17:55:59,0.0,2.5,51.875,0.08076724250178295,0.0,0.0,-1.0,0.0,0.0,0.0,0.0,0.0,0.0,0.0,0.0,0.0,0.0,0.0,0.0,-1.0,-1.0,-1.0,-1.0,33.248
2024-04-03 17:55:59,0.0,2.5,51.875,0.08076724250178295,0.0,0.0,-1.0,0.0,0.0,0.0,0.0,0.0,0.0,0.0,0.0,0.0,0.0,0.0,0.0,-1.0,-1.0,-1.0,-1.0,33.248
2024-04-03 17:55:59,0.0,2.5,51.875,0.08076724250178295,0.0,0.0,-1.0,0.0,0.0,0.0,0.0,0.0,0.0,0.0,0.0,0.0,0.0,0.0,0.0,-1.0,-1.0,-1.0,-1.0,33.248
2024-04-03 17:55:59,0.0,2.5,51.875,0.08076724250178295,0.0,0.0,-1.0,0.0,0.0,0.0,0.0,0.0,0.0,0.0,0.0,0.0,0.0,0.0,0.0,-1.0,-1.0,-1.0,-1.0,33.786
2024-04-03 17:55:59,0.0,2.5,51.875,0.08076724250178295,0.0,0.0,-1.0,0.0,0.0,0.0,0.0,0.0,0.0,0.0,0.0,0.0,0.0,0.0,0.0,-1.0,-1.0,-1.0,-1.0,33.248
2024-04-03 17:55:59,0.0,2.5,51.875,0.08076724250178295,0.0,0.0,-1.0,0.0,0.0,0.0,0.0,0.0,0.0,0.0,0.0,0.0,0.0,0.0,0.0,-1.0,-1.0,-1.0,-1.0,33.248
2024-04-03 17:55:59,0.0,2.5,51.875,0.08076724250178295,0.0,0.0,-1.0,0.0,0.0,0.0,0.0,0.0,0.0,0.0,0.0,0.0,0.0,0.0,0.0,-1.0,-1.0,-1.0,-1.0,33.248
2024-04-03 17:55:59,0.0,2.5,51.875,0.08076724250178295,0.0,0.0,-1.0,0.0,0.0,0.0,0.0,0.0,0.0,0.0,0.0,0.0,0.0,0.0,0.0,-1.0,-1.0,-1.0,-1.0,33.248
2024-04-03 17:55:59,0.0,2.5,51.875,0.08076724250178295,0.0,0.0,-1.0,0.0,0.0,0.0,0.0,0.0,0.0,0.0,0.0,0.0,0.0,0.0,0.0,-1.0,-1.0,-1.0,-1.0,33.248
2024-04-03 17:55:59,0.0,2.5,51.875,0.08076724250178295,0.0,0.0,106.0,0.0,0.0,0.0,0.0,0.0,0.0,0.0,0.0,0.0,0.0,0.0,0.0,-1.0,-1.0,-1.0,-1.0,33.248
2024-04-03 17:55:59,0.0,2.5,51.875,0.08076724250178295,0.0,0.0,-1.0,0.0,0.0,0.0,0.0,0.0,0.0,0.0,0.0,0.0,0.0,0.0,0.0,-1.0,-1.0,-1.0,-1.0,33.248
2024-04-03 17:55:59,0.0,2.5,51.875,0.07951544801108888,0.0,0.0,-1.0,0.0,0.0,0.0,0.0,0.0,0.0,0.0,0.0,0.0,0.0,0.0,0.0,-1.0,-1.0,-1.0,-1.0,33.248
2024-04-03 17:55:59,0.0,2.5,51.875,0.07951544801108888,0.0,0.0,-1.0,0.0,0.0,0.0,0.0,0.0,0.0,0.0,0.0,0.0,0.0,0.0,0.0,-1.0,-1.0,-1.0,-1.0,33.248
2024-04-03 17:56:00,0.0,2.5,51.875,0.07951544801108888,0.0,0.0,-1.0,0.0,0.0,0.0,0.0,0.0,0.0,0.0,0.0,0.0,0.0,0.0,0.0,-1.0,-1.0,-1.0,-1.0,33.786
2024-04-03 17:56:00,0.0,2.5,51.875,0.07951544801108888,0.0,0.0,107.0,0.0,0.0,0.0,0.0,0.0,0.0,0.0,0.0,0.0,0.0,0.0,0.0,-1.0,-1.0,-1.0,-1.0,33.248
2024-04-03 17:56:00,0.0,2.5,51.875,0.07951544801108888,0.0,0.0,-1.0,0.0,0.0,0.0,0.0,0.0,0.0,0.0,0.0,0.0,0.0,0.0,0.0,-1.0,-1.0,-1.0,-1.0,33.786
2024-04-03 17:56:00,0.0,2.5,51.875,0.07951544801108888,0.0,0.0,106.0,0.0,0.0,0.0,0.0,0.0,0.0,0.0,0.0,0.0,0.0,0.0,0.0,-1.0,-1.0,-1.0,-1.0,33.248
2024-04-03 17:56:00,0.0,2.5,51.875,0.07951544801108888,0.0,0.0,-1.0,0.0,0.0,0.0,0.0,0.0,0.0,0.0,0.0,0.0,0.0,0.0,0.0,-1.0,-1.0,-1.0,-1.0,33.248
2024-04-03 17:56:00,0.0,2.5,51.875,0.07951544801108888,0.0,0.0,106.0,0.0,0.0,0.0,0.0,0.0,0.0,0.0,0.0,0.0,0.0,0.0,0.0,-1.0,-1.0,-1.0,-1.0,33.248
2024-04-03 17:56:00,0.0,2.5,51.875,0.07951544801108888,0.0,0.0,-1.0,0.0,0.0,0.0,0.0,0.0,0.0,0.0,0.0,0.0,0.0,0.0,0.0,-1.0,-1.0,-1.0,-1.0,33.786
2024-04-03 17:56:00,0.0,2.5,51.875,0.07951544801108888,0.0,0.0,106.0,0.0,0.0,0.0,0.0,0.0,0.0,0.0,0.0,0.0,0.0,0.0,0.0,-1.0,-1.0,-1.0,-1.0,33.248
2024-04-03 17:56:00,0.0,2.5,51.875,0.07951544801108888,0.0,0.0,-1.0,0.0,0.0,0.0,0.0,0.0,0.0,0.0,0.0,0.0,0.0,0.0,0.0,-1.0,-1.0,-1.0,-1.0,33.248
2024-04-03 17:56:00,0.0,2.5,51.875,0.07413522042656692,0.0,0.0,106.0,0.0,0.0,0.0,0.0,0.0,0.0,0.0,0.0,0.0,0.0,0.0,0.0,-1.0,-1.0,-1.0,-1.0,33.248
2024-04-03 17:56:01,0.0,2.5,51.875,0.07413522042656692,0.0,0.0,-1.0,0.0,0.0,0.0,0.0,0.0,0.0,0.0,0.0,0.0,0.0,0.0,0.0,-1.0,-1.0,-1.0,-1.0,33.248
2024-04-03 17:56:01,0.0,2.5,51.875,0.07413522042656692,0.0,0.0,-1.0,0.0,0.0,0.0,0.0,0.0,0.0,0.0,0.0,0.0,0.0,0.0,0.0,-1.0,-1.0,-1.0,-1.0,33.248
2024-04-03 17:56:01,0.0,2.5,51.875,0.07413522042656692,0.0,0.0,-1.0,0.0,0.0,0.0,0.0,0.0,0.0,0.0,0.0,0.0,0.0,0.0,0.0,-1.0,-1.0,-1.0,-1.0,32.71
2024-04-03 17:56:01,0.0,2.5,51.875,0.07413522042656692,0.0,0.0,-1.0,0.0,0.0,0.0,0.0,0.0,0.0,0.0,0.0,0.0,0.0,0.0,0.0,-1.0,-1.0,-1.0,-1.0,33.248
2024-04-03 17:56:01,0.0,2.5,51.875,0.07413522042656692,0.0,0.0,-1.0,0.0,0.0,0.0,0.0,0.0,0.0,0.0,0.0,0.0,0.0,0.0,0.0,-1.0,-1.0,-1.0,-1.0,33.786
2024-04-03 17:56:01,0.0,2.5,51.875,0.07413522042656692,0.0,0.0,-1.0,0.0,0.0,0.0,0.0,0.0,0.0,0.0,0.0,0.0,0.0,0.0,0.0,-1.0,-1.0,-1.0,-1.0,33.786
2024-04-03 17:56:01,0.0,2.5,51.875,0.07413522042656692,0.0,0.0,-1.0,0.0,0.0,0.0,0.0,0.0,0.0,0.0,0.0,0.0,0.0,0.0,0.0,-1.0,-1.0,-1.0,-1.0,33.248
2024-04-03 17:56:01,0.0,2.5,51.875,0.07413522042656692,0.0,0.0,-1.0,0.0,0.0,0.0,0.0,0.0,0.0,0.0,0.0,0.0,0.0,0.0,0.0,-1.0,-1.0,-1.0,-1.0,33.248
2024-04-03 17:56:01,0.0,2.5,51.875,0.07413522042656692,0.0,0.0,-1.0,0.0,0.0,0.0,0.0,0.0,0.0,0.0,0.0,0.0,0.0,0.0,0.0,-1.0,-1.0,-1.0,-1.0,33.248
2024-04-03 17:56:01,0.0,2.5,51.875,0.07413522042656692,0.0,0.0,-1.0,0.0,0.0,0.0,0.0,0.0,0.0,0.0,0.0,0.0,0.0,0.0,0.0,-1.0,-1.0,-1.0,-1.0,33.248
2024-04-03 17:56:01,0.0,2.5,51.875,0.07413522042656692,0.0,0.0,-1.0,0.0,0.0,0.0,0.0,0.0,0.0,0.0,0.0,0.0,0.0,0.0,0.0,-1.0,-1.0,-1.0,-1.0,33.786
2024-04-03 17:56:01,0.0,2.5,51.875,0.07413522042656692,0.0,0.0,-1.0,0.0,0.0,0.0,0.0,0.0,0.0,0.0,0.0,0.0,0.0,0.0,0.0,-1.0,-1.0,-1.0,-1.0,33.248
2024-04-03 17:56:01,0.0,2.5,51.875,0.0798685387706392,0.0,0.0,106.0,0.0,0.0,0.0,0.0,0.0,0.0,0.0,0.0,0.0,0.0,0.0,0.0,-1.0,-1.0,-1.0,-1.0,33.248
2024-04-03 17:56:01,0.0,2.5,51.875,0.0798685387706392,0.0,0.0,-1.0,0.0,0.0,0.0,0.0,0.0,0.0,0.0,0.0,0.0,0.0,0.0,0.0,-1.0,-1.0,-1.0,-1.0,33.786
2024-04-03 17:56:02,0.0,2.5,51.875,0.0798685387706392,0.0,0.0,-1.0,0.0,0.0,0.0,0.0,0.0,0.0,0.0,0.0,0.0,0.0,0.0,0.0,-1.0,-1.0,-1.0,-1.0,33.248
2024-04-03 17:56:02,0.0,2.5,51.875,0.0798685387706392,0.0,0.0,105.0,0.0,0.0,0.0,0.0,0.0,0.0,0.0,0.0,0.0,0.0,0.0,0.0,-1.0,-1.0,-1.0,-1.0,33.248
2024-04-03 17:56:02,0.0,2.5,51.875,0.0798685387706392,0.0,0.0,-1.0,0.0,0.0,0.0,0.0,0.0,0.0,0.0,0.0,0.0,0.0,0.0,0.0,-1.0,-1.0,-1.0,-1.0,33.248
2024-04-03 17:56:02,0.0,2.5,51.875,0.0798685387706392,0.0,0.0,-1.0,0.0,0.0,0.0,0.0,0.0,0.0,0.0,0.0,0.0,0.0,0.0,0.0,-1.0,-1.0,-1.0,-1.0,33.248
2024-04-03 17:56:02,0.0,2.5,51.875,0.0798685387706392,0.0,0.0,-1.0,0.0,0.0,0.0,0.0,0.0,0.0,0.0,0.0,0.0,0.0,0.0,0.0,-1.0,-1.0,-1.0,-1.0,33.786
2024-04-03 17:56:02,0.0,2.5,51.875,0.0798685387706392,0.0,0.0,-1.0,0.0,0.0,0.0,0.0,0.0,0.0,0.0,0.0,0.0,0.0,0.0,0.0,-1.0,-1.0,-1.0,-1.0,33.786
2024-04-03 17:56:02,0.0,2.5,51.875,0.0798685387706392,0.0,0.0,-1.0,0.0,0.0,0.0,0.0,0.0,0.0,0.0,0.0,0.0,0.0,0.0,0.0,-1.0,-1.0,-1.0,-1.0,33.248
2024-04-03 17:56:02,0.0,2.5,51.875,0.0798685387706392,0.0,0.0,-1.0,0.0,0.0,0.0,0.0,0.0,0.0,0.0,0.0,0.0,0.0,0.0,0.0,-1.0,-1.0,-1.0,-1.0,33.786
2024-04-03 17:56:02,0.0,2.5,51.875,0.0798685387706392,0.0,0.0,-1.0,0.0,0.0,0.0,0.0,0.0,0.0,0.0,0.0,0.0,0.0,0.0,0.0,-1.0,-1.0,-1.0,-1.0,33.786
2024-04-03 17:56:02,0.0,2.5,51.875,0.0798685387706392,0.0,0.0,0.0,0.0,0.0,0.0,0.0,0.0,0.0,0.0,0.0,0.0,0.0,0.0,0.0,-1.0,-1.0,-1.0,-1.0,33.248
2024-04-03 17:56:02,0.0,2.5,51.875,0.07893231633740358,0.0,0.0,-1.0,0.0,0.0,0.0,0.0,0.0,0.0,0.0,0.0,0.0,0.0,0.0,0.0,-1.0,-1.0,-1.0,-1.0,33.786
2024-04-03 17:56:02,0.0,2.5,51.875,0.07893231633740358,0.0,0.0,-1.0,0.0,0.0,0.0,0.0,0.0,0.0,0.0,0.0,0.0,0.0,0.0,0.0,-1.0,-1.0,-1.0,-1.0,33.786
2024-04-03 17:56:02,0.0,2.5,51.875,0.07893231633740358,0.0,0.0,-1.0,0.0,0.0,0.0,0.0,0.0,0.0,0.0,0.0,0.0,0.0,0.0,0.0,-1.0,-1.0,-1.0,-1.0,33.248
2024-04-03 17:56:03,0.0,2.5,51.875,0.07893231633740358,0.0,0.0,-1.0,0.0,0.0,0.0,0.0,0.0,0.0,0.0,0.0,0.0,0.0,0.0,0.0,-1.0,-1.0,-1.0,-1.0,33.248
2024-04-03 17:56:03,0.0,2.5,51.875,0.07893231633740358,0.0,0.0,106.0,0.0,0.0,0.0,0.0,0.0,0.0,0.0,0.0,0.0,0.0,0.0,0.0,-1.0,-1.0,-1.0,-1.0,33.786
2024-04-03 17:56:03,0.0,2.5,51.875,0.07893231633740358,0.0,0.0,-1.0,0.0,0.0,0.0,0.0,0.0,0.0,0.0,0.0,0.0,0.0,0.0,0.0,-1.0,-1.0,-1.0,-1.0,33.248
2024-04-03 17:56:03,0.0,2.5,51.875,0.07893231633740358,0.0,0.0,-1.0,0.0,0.0,0.0,0.0,0.0,0.0,0.0,0.0,0.0,0.0,0.0,0.0,-1.0,-1.0,-1.0,-1.0,33.248
2024-04-03 17:56:03,0.0,2.5,51.875,0.07893231633740358,0.0,0.0,107.0,0.0,0.0,0.0,0.0,0.0,0.0,0.0,0.0,0.0,0.0,0.0,0.0,-1.0,-1.0,-1.0,-1.0,33.248
2024-04-03 17:56:03,0.0,2.5,51.875,0.07893231633740358,0.0,0.0,-1.0,0.0,0.0,0.0,0.0,0.0,0.0,0.0,0.0,0.0,0.0,0.0,0.0,-1.0,-1.0,-1.0,-1.0,33.248
2024-04-03 17:56:03,0.0,2.5,51.875,0.07893231633740358,0.0,0.0,-1.0,0.0,0.0,0.0,0.0,0.0,0.0,0.0,0.0,0.0,0.0,0.0,0.0,-1.0,-1.0,-1.0,-1.0,33.786
2024-04-03 17:56:03,0.0,2.5,51.875,0.07893231633740358,0.0,0.0,0.0,0.0,0.0,0.0,0.0,0.0,0.0,0.0,0.0,0.0,0.0,0.0,0.0,-1.0,-1.0,-1.0,-1.0,33.786
2024-04-03 17:56:03,0.0,2.5,51.875,0.07893231633740358,0.0,0.0,-1.0,0.0,0.0,0.0,0.0,0.0,0.0,0.0,0.0,0.0,0.0,0.0,0.0,-1.0,-1.0,-1.0,-1.0,33.786
2024-04-03 17:56:03,0.0,2.5,51.875,0.07893231633740358,0.0,0.0,-1.0,0.0,0.0,0.0,0.0,0.0,0.0,0.0,0.0,0.0,0.0,0.0,0.0,-1.0,-1.0,-1.0,-1.0,33.248
2024-04-03 17:56:03,0.0,2.5,51.875,0.08013519449678132,0.0,0.0,107.0,0.0,0.0,0.0,0.0,0.0,0.0,0.0,0.0,0.0,0.0,0.0,0.0,-1.0,-1.0,-1.0,-1.0,33.248
2024-04-03 17:56:03,0.0,2.5,51.875,0.08013519449678132,0.0,0.0,-1.0,0.0,0.0,0.0,0.0,0.0,0.0,0.0,0.0,0.0,0.0,0.0,0.0,-1.0,-1.0,-1.0,-1.0,34.324
2024-04-03 17:56:03,0.0,2.5,51.875,0.08013519449678132,0.0,0.0,-1.0,0.0,0.0,0.0,0.0,0.0,0.0,0.0,0.0,0.0,0.0,0.0,0.0,-1.0,-1.0,-1.0,-1.0,33.786
2024-04-03 17:56:03,0.0,2.5,51.875,0.08013519449678132,0.0,0.0,-1.0,0.0,0.0,0.0,0.0,0.0,0.0,0.0,0.0,0.0,0.0,0.0,0.0,-1.0,-1.0,-1.0,-1.0,33.248
2024-04-03 17:56:04,0.0,2.5,51.875,0.08013519449678132,0.0,0.0,-1.0,0.0,0.0,0.0,0.0,0.0,0.0,0.0,0.0,0.0,0.0,0.0,0.0,-1.0,-1.0,-1.0,-1.0,33.248
2024-04-03 17:56:04,0.0,2.5,51.875,0.08013519449678132,0.0,0.0,105.0,0.0,0.0,0.0,0.0,0.0,0.0,0.0,0.0,0.0,0.0,0.0,0.0,-1.0,-1.0,-1.0,-1.0,33.786
2024-04-03 17:56:04,0.0,2.5,51.875,0.08013519449678132,0.0,0.0,-1.0,0.0,0.0,0.0,0.0,0.0,0.0,0.0,0.0,0.0,0.0,0.0,0.0,-1.0,-1.0,-1.0,-1.0,33.248
2024-04-03 17:56:04,0.0,2.5,51.875,0.08013519449678132,0.0,0.0,-1.0,0.0,0.0,0.0,0.0,0.0,0.0,0.0,0.0,0.0,0.0,0.0,0.0,-1.0,-1.0,-1.0,-1.0,33.248
2024-04-03 17:56:04,0.0,2.5,51.875,0.08013519449678132,0.0,0.0,107.0,0.0,0.0,0.0,0.0,0.0,0.0,0.0,0.0,0.0,0.0,0.0,0.0,-1.0,-1.0,-1.0,-1.0,33.248
2024-04-03 17:56:04,0.0,2.5,51.875,0.08013519449678132,0.0,0.0,-1.0,0.0,0.0,0.0,0.0,0.0,0.0,0.0,0.0,0.0,0.0,0.0,0.0,-1.0,-1.0,-1.0,-1.0,33.786
2024-04-03 17:56:04,0.0,2.5,51.875,0.08013519449678132,0.0,0.0,-1.0,0.0,0.0,0.0,0.0,0.0,0.0,0.0,0.0,0.0,0.0,0.0,0.0,-1.0,-1.0,-1.0,-1.0,33.248
2024-04-03 17:56:04,0.0,2.5,51.875,0.08013519449678132,0.0,0.0,107.0,0.0,0.0,0.0,0.0,0.0,0.0,0.0,0.0,0.0,0.0,0.0,0.0,-1.0,-1.0,-1.0,-1.0,33.248
2024-04-03 17:56:04,0.0,2.5,51.875,0.08013519449678132,0.0,0.0,-1.0,0.0,0.0,0.0,0.0,0.0,0.0,0.0,0.0,0.0,0.0,0.0,0.0,-1.0,-1.0,-1.0,-1.0,33.786
2024-04-03 17:56:04,0.0,2.5,51.875,0.08013519449678132,0.0,0.0,-1.0,0.0,0.0,0.0,0.0,0.0,0.0,0.0,0.0,0.0,0.0,0.0,0.0,-1.0,-1.0,-1.0,-1.0,33.248
2024-04-03 17:56:04,0.0,2.5,51.875,0.07893365672665784,0.0,0.0,105.0,0.0,0.0,0.0,0.0,0.0,0.0,0.0,0.0,0.0,0.0,0.0,0.0,-1.0,-1.0,-1.0,-1.0,33.248
2024-04-03 17:56:05,0.0,2.5,51.875,0.07893365672665784,0.0,0.0,-1.0,0.0,0.0,0.0,0.0,0.0,0.0,0.0,0.0,0.0,0.0,0.0,0.0,-1.0,-1.0,-1.0,-1.0,33.786
2024-04-03 17:56:05,0.0,2.5,51.875,0.07909609255778305,0.0,0.0,106.0,0.0,0.0,0.0,0.0,0.0,0.0,0.0,0.0,0.0,0.0,0.0,0.0,-1.0,-1.0,-1.0,-1.0,34.324
2024-04-03 17:56:05,0.0,2.5,51.875,0.07909609255778305,0.0,0.0,-1.0,0.0,0.0,0.0,0.0,0.0,0.0,0.0,0.0,0.0,0.0,0.0,0.0,-1.0,-1.0,-1.0,-1.0,33.786
2024-04-03 17:56:05,0.0,2.5,51.875,0.07909609255778305,0.0,0.0,-1.0,0.0,0.0,0.0,0.0,0.0,0.0,0.0,0.0,0.0,0.0,0.0,0.0,-1.0,-1.0,-1.0,-1.0,33.786
2024-04-03 17:56:05,0.0,2.5,51.875,0.07909609255778305,0.0,0.0,106.0,0.0,0.0,0.0,0.0,0.0,0.0,0.0,0.0,0.0,0.0,0.0,0.0,-1.0,-1.0,-1.0,-1.0,34.324
2024-04-03 17:56:05,0.0,2.5,51.875,0.07909609255778305,0.0,0.0,-1.0,0.0,0.0,0.0,0.0,0.0,0.0,0.0,0.0,0.0,0.0,0.0,0.0,-1.0,-1.0,-1.0,-1.0,33.786
2024-04-03 17:56:05,0.0,2.5,51.875,0.07909609255778305,0.0,0.0,-1.0,0.0,0.0,0.0,0.0,0.0,0.0,0.0,0.0,0.0,0.0,0.0,0.0,-1.0,-1.0,-1.0,-1.0,33.786
2024-04-03 17:56:06,0.0,2.5,51.875,0.07909609255778305,0.0,0.0,106.0,0.0,0.0,0.0,0.0,0.0,0.0,0.0,0.0,0.0,0.0,0.0,0.0,-1.0,-1.0,-1.0,-1.0,34.324
2024-04-03 17:56:06,0.0,2.5,51.875,0.07909609255778305,0.0,0.0,-1.0,0.0,0.0,0.0,0.0,0.0,0.0,0.0,0.0,0.0,0.0,0.0,0.0,-1.0,-1.0,-1.0,-1.0,33.248
2024-04-03 17:56:06,0.0,2.5,51.875,0.07909609255778305,0.0,0.0,-1.0,0.0,0.0,0.0,0.0,0.0,0.0,0.0,0.0,0.0,0.0,0.0,0.0,-1.0,-1.0,-1.0,-1.0,34.324
2024-04-03 17:56:06,0.0,2.5,51.875,0.07909609255778305,0.0,0.0,106.0,0.0,0.0,0.0,0.0,0.0,0.0,0.0,0.0,0.0,0.0,0.0,0.0,-1.0,-1.0,-1.0,-1.0,33.786
2024-04-03 17:56:06,0.0,2.5,51.875,0.07909609255778305,0.0,0.0,-1.0,0.0,0.0,0.0,0.0,0.0,0.0,0.0,0.0,0.0,0.0,0.0,0.0,-1.0,-1.0,-1.0,-1.0,34.324
2024-04-03 17:56:06,0.0,2.5,51.875,0.07909609255778305,0.0,0.0,-1.0,0.0,0.0,0.0,0.0,0.0,0.0,0.0,0.0,0.0,0.0,0.0,0.0,-1.0,-1.0,-1.0,-1.0,33.248
2024-04-03 17:56:06,0.0,2.5,51.875,0.07623686616567174,0.0,0.0,-1.0,0.0,0.0,0.0,0.0,0.0,0.0,0.0,0.0,0.0,0.0,0.0,0.0,-1.0,-1.0,-1.0,-1.0,33.786
2024-04-03 17:56:06,0.0,2.5,51.875,0.07623686616567174,0.0,0.0,-1.0,0.0,0.0,0.0,0.0,0.0,0.0,0.0,0.0,0.0,0.0,0.0,0.0,-1.0,-1.0,-1.0,-1.0,33.248
2024-04-03 17:56:06,0.0,2.5,51.875,0.07623686616567174,0.0,0.0,106.0,0.0,0.0,0.0,0.0,0.0,0.0,0.0,0.0,0.0,0.0,0.0,0.0,-1.0,-1.0,-1.0,-1.0,33.786
2024-04-03 17:56:06,0.0,2.5,51.875,0.07623686616567174,0.0,0.0,-1.0,0.0,0.0,0.0,0.0,0.0,0.0,0.0,0.0,0.0,0.0,0.0,0.0,-1.0,-1.0,-1.0,-1.0,33.786
2024-04-03 17:56:06,0.0,2.5,51.875,0.07623686616567174,0.0,0.0,-1.0,0.0,0.0,0.0,0.0,0.0,0.0,0.0,0.0,0.0,0.0,0.0,0.0,-1.0,-1.0,-1.0,-1.0,34.324
2024-04-03 17:56:06,0.0,2.5,51.875,0.07623686616567174,0.0,0.0,107.0,0.0,0.0,0.0,0.0,0.0,0.0,0.0,0.0,0.0,0.0,0.0,0.0,-1.0,-1.0,-1.0,-1.0,34.324
2024-04-03 17:56:06,0.0,2.5,51.875,0.07623686616567174,0.0,0.0,-1.0,0.0,0.0,0.0,0.0,0.0,0.0,0.0,0.0,0.0,0.0,0.0,0.0,-1.0,-1.0,-1.0,-1.0,33.248
2024-04-03 17:56:06,0.0,2.5,51.875,0.07623686616567174,0.0,0.0,-1.0,0.0,0.0,0.0,0.0,0.0,0.0,0.0,0.0,0.0,0.0,0.0,0.0,-1.0,-1.0,-1.0,-1.0,34.324
2024-04-03 17:56:07,0.0,2.5,51.875,0.07623686616567174,0.0,0.0,-1.0,0.0,0.0,0.0,0.0,0.0,0.0,0.0,0.0,0.0,0.0,0.0,0.0,-1.0,-1.0,-1.0,-1.0,33.248
2024-04-03 17:56:07,0.0,2.5,51.875,0.07623686616567174,0.0,0.0,-1.0,0.0,0.0,0.0,0.0,0.0,0.0,0.0,0.0,0.0,0.0,0.0,0.0,-1.0,-1.0,-1.0,-1.0,33.786
2024-04-03 17:56:07,0.0,2.5,51.875,0.07623686616567174,0.0,0.0,-1.0,0.0,0.0,0.0,0.0,0.0,0.0,0.0,0.0,0.0,0.0,0.0,0.0,-1.0,-1.0,-1.0,-1.0,33.786
2024-04-03 17:56:07,0.0,2.5,51.875,0.07623686616567174,0.0,0.0,-1.0,0.0,0.0,0.0,0.0,0.0,0.0,0.0,0.0,0.0,0.0,0.0,0.0,-1.0,-1.0,-1.0,-1.0,34.324
2024-04-03 17:56:07,0.0,2.5,51.875,0.07940162834792328,0.0,0.0,-1.0,0.0,0.0,0.0,0.0,0.0,0.0,0.0,0.0,0.0,0.0,0.0,0.0,-1.0,-1.0,-1.0,-1.0,34.324
2024-04-03 17:56:07,0.0,2.5,51.875,0.07940162834792328,0.0,0.0,-1.0,0.0,0.0,0.0,0.0,0.0,0.0,0.0,0.0,0.0,0.0,0.0,0.0,-1.0,-1.0,-1.0,-1.0,34.324
2024-04-03 17:56:07,0.0,2.5,51.875,0.07940162834792328,0.0,0.0,-1.0,0.0,0.0,0.0,0.0,0.0,0.0,0.0,0.0,0.0,0.0,0.0,0.0,-1.0,-1.0,-1.0,-1.0,33.786
2024-04-03 17:56:07,0.0,2.5,51.875,0.07940162834792328,0.0,0.0,-1.0,0.0,0.0,0.0,0.0,0.0,0.0,0.0,0.0,0.0,0.0,0.0,0.0,-1.0,-1.0,-1.0,-1.0,33.786
2024-04-03 17:56:07,0.0,2.5,51.875,0.07940162834792328,0.0,0.0,-1.0,0.0,0.0,0.0,0.0,0.0,0.0,0.0,0.0,0.0,0.0,0.0,0.0,-1.0,-1.0,-1.0,-1.0,34.324
2024-04-03 17:56:07,0.0,2.5,51.875,0.07940162834792328,0.0,0.0,-1.0,0.0,0.0,0.0,0.0,0.0,0.0,0.0,0.0,0.0,0.0,0.0,0.0,-1.0,-1.0,-1.0,-1.0,33.786
2024-04-03 17:56:07,0.0,2.5,51.875,0.07940162834792328,0.0,0.0,-1.0,0.0,0.0,0.0,0.0,0.0,0.0,0.0,0.0,0.0,0.0,0.0,0.0,-1.0,-1.0,-1.0,-1.0,34.324
2024-04-03 17:56:07,0.0,2.5,51.875,0.07940162834792328,0.0,0.0,-1.0,0.0,0.0,0.0,0.0,0.0,0.0,0.0,0.0,0.0,0.0,0.0,0.0,-1.0,-1.0,-1.0,-1.0,34.324
2024-04-03 17:56:07,0.0,2.5,51.875,0.07940162834792328,0.0,0.0,-1.0,0.0,0.0,0.0,0.0,0.0,0.0,0.0,0.0,0.0,0.0,0.0,0.0,-1.0,-1.0,-1.0,-1.0,33.786
2024-04-03 17:56:07,0.0,2.5,51.875,0.07940162834792328,0.0,0.0,-1.0,0.0,0.0,0.0,0.0,0.0,0.0,0.0,0.0,0.0,0.0,0.0,0.0,-1.0,-1.0,-1.0,-1.0,34.324
2024-04-03 17:56:08,0.0,2.5,51.875,0.07940162834792328,0.0,0.0,-1.0,0.0,0.0,0.0,0.0,0.0,0.0,0.0,0.0,0.0,0.0,0.0,0.0,-1.0,-1.0,-1.0,-1.0,34.324
2024-04-03 17:56:08,0.0,2.5,51.875,0.07940162834792328,0.0,0.0,-1.0,0.0,0.0,0.06658536585365854,-0.06658536585365854,-0.06658536585365854,0.06658536585365854,-0.09792682926829269,-0.09792682926829269,0.0,0.0,0.0,0.0,-1.0,-1.0,-1.0,-1.0,33.786
2024-04-03 17:56:08,0.0,2.5,51.875,0.07940162834792328,0.0,0.0,107.0,0.0,0.0,0.0,0.0,0.0,0.0,-0.0,0.0,0.0,0.0,0.0,0.0,-1.0,-1.0,-1.0,-1.0,33.248
2024-04-03 17:56:08,0.0,2.5,51.875,0.08506906608119039,0.0,0.0,-1.0,0.0,0.0,0.0,0.0,0.0,0.0,-0.0,0.0,0.0,0.0,0.0,0.0,-1.0,-1.0,-1.0,-1.0,33.248
2024-04-03 17:56:08,0.0,2.5,51.875,0.08506906608119039,0.0,0.0,-1.0,0.0,0.0,0.0,0.0,0.0,0.0,0.9676524390243902,0.9676524390243902,0.0,0.0,0.0,0.0,-1.0,-1.0,-1.0,-1.0,34.324
2024-04-03 17:56:08,0.0,2.5,51.875,0.08506906608119039,0.0,0.0,-1.0,0.0,0.0,0.0,0.0,0.0,0.0,0.9989939024390244,0.9989939024390244,0.0,0.0,0.0,0.0,-1.0,-1.0,-1.0,-1.0,34.324
2024-04-03 17:56:08,0.0,2.5,51.875,0.08506906608119039,0.0,0.0,-1.0,0.0,0.0,0.0,0.0,0.0,0.0,0.8501219512195122,0.8501219512195122,0.0,0.0,0.0,0.0,-1.0,-1.0,-1.0,-1.0,34.324
2024-04-03 17:56:08,0.0,2.5,51.875,0.08506906608119039,0.0,0.0,106.0,0.0,0.0,0.0,0.0,0.0,0.0,-0.0,0.0,0.0,0.0,0.0,0.0,-1.0,-1.0,-1.0,-1.0,34.324
2024-04-03 17:56:08,0.0,2.5,51.875,0.08506906608119039,0.0,0.0,-1.0,0.0,0.0,0.0,0.0,0.0,0.0,-0.0,0.0,0.0,0.0,0.0,0.0,-1.0,-1.0,-1.0,-1.0,33.786
2024-04-03 17:56:08,0.0,2.5,51.875,0.08506906608119039,0.0,0.0,-1.0,0.0,0.0,0.0,0.0,0.0,0.0,-0.0,0.0,0.0,0.0,0.0,0.0,-1.0,-1.0,-1.0,-1.0,33.248
2024-04-03 17:56:08,0.0,2.5,51.875,0.08506906608119039,0.0,0.0,0.0,0.0,0.0,0.0,0.0,0.0,0.0,-0.0,0.0,0.0,0.0,0.0,0.0,-1.0,-1.0,-1.0,-1.0,34.324
2024-04-03 17:56:08,0.0,2.5,51.875,0.08506906608119039,0.0,0.0,-1.0,0.0,0.0,0.0,0.0,0.0,0.0,-0.0,0.0,0.0,0.0,0.0,0.0,-1.0,-1.0,-1.0,-1.0,34.324
2024-04-03 17:56:08,0.0,2.5,51.875,0.08506906608119039,0.0,0.0,-1.0,0.0,0.0,0.0,0.0,0.0,0.0,-0.0,0.0,0.0,0.0,0.0,0.0,-1.0,-1.0,-1.0,-1.0,33.786
2024-04-03 17:56:09,0.0,2.5,51.875,0.08506906608119039,0.0,0.0,106.0,0.0,0.0,0.0,0.0,0.0,0.0,-0.0,0.0,0.0,0.0,0.0,0.0,-1.0,-1.0,-1.0,-1.0,34.324
2024-04-03 17:56:09,0.0,2.5,51.875,0.08506906608119039,0.0,0.0,-1.0,0.0,0.0,0.0,0.0,0.0,0.0,-0.0,0.0,0.0,0.0,0.0,0.0,-1.0,-1.0,-1.0,-1.0,34.324
2024-04-03 17:56:09,0.0,2.5,51.875,0.08046377594707929,0.0,0.0,-1.0,0.0,0.0,-0.23112804878048782,0.23112804878048782,0.23112804878048782,-0.23112804878048782,-0.9989939024390244,-0.9989939024390244,0.0,0.0,0.0,0.0,-1.0,-1.0,-1.0,-1.0,33.786
2024-04-03 17:56:09,0.0,2.5,51.875,0.08046377594707929,0.0,0.0,-1.0,0.0,0.0,-0.24679878048780488,0.24679878048780488,0.24679878048780488,-0.24679878048780488,-0.9989939024390244,-0.9989939024390244,0.0,0.0,0.0,0.0,-1.0,-1.0,-1.0,-1.0,34.324
2024-04-03 17:56:09,0.0,2.5,51.875,0.08046377594707929,0.0,0.0,-1.0,0.0,0.0,-0.1449390243902439,0.1449390243902439,0.1449390243902439,-0.1449390243902439,-0.9284756097560976,-0.9284756097560976,0.0,0.0,0.0,0.0,-1.0,-1.0,-1.0,-1.0,34.324
2024-04-03 17:56:09,0.0,2.5,51.875,0.08046377594707929,0.0,0.0,-1.0,0.0,0.0,0.0,0.0,0.0,0.0,-0.0,0.0,0.0,0.0,0.0,0.0,-1.0,-1.0,-1.0,-1.0,34.324
2024-04-03 17:56:09,0.0,2.5,51.875,0.08046377594707929,0.0,0.0,-1.0,0.0,0.0,0.0,0.0,0.0,0.0,0.9989939024390244,0.9989939024390244,0.0,0.0,0.0,0.0,-1.0,-1.0,-1.0,-1.0,34.324
2024-04-03 17:56:09,0.0,2.5,51.875,0.08046377594707929,0.0,0.0,-1.0,0.0,0.0,0.0,0.0,0.0,0.0,0.9989939024390244,0.9989939024390244,0.0,0.0,0.0,0.0,-1.0,-1.0,-1.0,-1.0,34.324
2024-04-03 17:56:09,0.0,2.5,51.875,0.08046377594707929,0.0,0.0,-1.0,0.0,0.0,0.0,0.0,0.0,0.0,0.9989939024390244,0.9989939024390244,0.0,0.0,0.0,0.0,-1.0,-1.0,-1.0,-1.0,33.786
2024-04-03 17:56:09,0.0,2.5,51.875,0.08046377594707929,0.0,0.0,-1.0,0.0,0.0,0.0,0.0,0.0,0.0,0.5680487804878048,0.5680487804878048,0.0,0.0,0.0,0.0,-1.0,-1.0,-1.0,-1.0,34.862
2024-04-03 17:56:09,0.0,2.5,51.875,0.08046377594707929,0.0,0.0,-1.0,0.0,0.0,0.0,0.0,0.0,0.0,-0.0,0.0,0.0,0.0,0.0,0.0,-1.0,-1.0,-1.0,-1.0,34.324
2024-04-03 17:56:09,0.0,2.5,51.875,0.08046377594707929,0.0,0.0,106.0,0.0,0.0,0.0,0.0,0.0,0.0,-0.0,0.0,0.0,0.0,0.0,0.0,-1.0,-1.0,-1.0,-1.0,34.324
2024-04-03 17:56:09,0.0,2.5,51.875,0.08046377594707929,0.0,0.0,-1.0,0.0,0.0,0.0,0.0,0.0,0.0,-0.0,0.0,0.0,0.0,0.0,0.0,-1.0,-1.0,-1.0,-1.0,34.324
2024-04-03 17:56:10,0.0,2.5,51.875,0.08302755410318204,0.0,0.0,107.0,0.0,0.0,0.0,0.0,0.0,0.0,-0.0,0.0,0.0,0.0,0.0,0.0,-1.0,-1.0,-1.0,-1.0,34.324
2024-04-03 17:56:10,0.0,2.5,51.875,0.08302755410318204,0.0,0.0,-1.0,0.0,0.0,0.0,0.0,0.0,0.0,-0.0,0.0,0.0,0.0,0.0,0.0,-1.0,-1.0,-1.0,-1.0,33.786
2024-04-03 17:56:10,0.0,2.5,51.875,0.08302755410318204,0.0,0.0,-1.0,0.0,0.0,0.0,0.0,0.0,0.0,0.21545731707317073,0.21545731707317073,0.0,0.0,0.0,0.0,-1.0,-1.0,-1.0,-1.0,33.248
2024-04-03 17:56:10,0.0,2.5,51.875,0.08302755410318204,0.0,0.0,106.0,0.0,0.0,0.0,0.0,0.0,0.0,0.481859756097561,0.481859756097561,0.0,0.0,0.0,0.0,-1.0,-1.0,-1.0,-1.0,34.324
2024-04-03 17:56:10,0.0,2.5,51.875,0.08302755410318204,0.0,0.0,-1.0,0.0,0.0,0.0,0.0,0.0,0.0,0.5602134146341463,0.5602134146341463,0.0,0.0,0.0,0.0,-1.0,-1.0,-1.0,-1.0,34.324
2024-04-03 17:56:10,0.0,2.5,51.875,0.08302755410318204,0.0,0.0,-1.0,0.0,0.0,0.0,0.0,0.0,0.0,0.4975304878048781,0.4975304878048781,0.0,0.0,0.0,0.0,-1.0,-1.0,-1.0,-1.0,34.324
2024-04-03 17:56:10,0.0,2.5,51.875,0.08302755410318204,0.0,0.0,-1.0,0.0,0.0,0.0,0.0,0.0,0.0,0.3408231707317073,0.3408231707317073,0.0,0.0,0.0,0.0,-1.0,-1.0,-1.0,-1.0,33.248
2024-04-03 17:56:10,0.0,2.5,51.875,0.08302755410318204,0.0,0.0,-1.0,0.0,0.0,0.0,0.0,0.0,0.0,-0.0,0.0,0.0,0.0,0.0,0.0,-1.0,-1.0,-1.0,-1.0,34.324
2024-04-03 17:56:10,0.0,2.5,51.875,0.08302755410318204,0.0,0.0,-1.0,0.0,0.0,-0.16060975609756098,0.16060975609756098,0.16060975609756098,-0.16060975609756098,-0.5758841463414635,-0.5758841463414635,0.0,0.0,0.0,0.0,-1.0,-1.0,-1.0,-1.0,34.324
2024-04-03 17:56:10,0.0,2.5,51.875,0.08302755410318204,0.0,0.0,-1.0,0.0,0.0,-0.3094817073170732,0.3094817073170732,0.3094817073170732,-0.3094817073170732,-0.9989939024390244,-0.9989939024390244,0.0,0.0,0.0,0.0,-1.0,-1.0,-1.0,-1.0,34.324
2024-04-03 17:56:10,0.0,2.5,51.875,0.08302755410318204,0.0,0.0,-1.0,0.0,0.0,-0.28597560975609754,0.28597560975609754,0.28597560975609754,-0.28597560975609754,-0.9989939024390244,-0.9989939024390244,0.0,0.0,0.0,0.0,-1.0,-1.0,-1.0,-1.0,34.324
2024-04-03 17:56:10,0.0,2.5,51.875,0.08302755410318204,0.0,0.0,108.0,0.0,0.0,0.0,0.0,0.0,0.0,-0.0,0.0,0.0,0.0,0.0,0.0,-1.0,-1.0,-1.0,-1.0,34.324
2024-04-03 17:56:10,0.0,2.5,51.875,0.08302755410318204,0.0,0.0,-1.0,0.0,0.0,0.0,0.0,0.0,0.0,-0.0,0.0,0.0,0.0,0.0,0.0,-1.0,-1.0,-1.0,-1.0,34.324
2024-04-03 17:56:10,0.0,2.5,51.875,0.07672648490751875,0.0,0.0,-1.0,0.0,0.0,0.0,0.0,0.0,0.0,0.9989939024390244,0.9989939024390244,0.0,0.0,0.0,0.0,-1.0,-1.0,-1.0,-1.0,33.786
2024-04-03 17:56:11,0.0,2.5,51.875,0.07672648490751875,0.0,0.0,-1.0,0.0,0.0,0.0,0.0,0.0,0.0,0.9989939024390244,0.9989939024390244,0.0,0.0,0.0,0.0,-1.0,-1.0,-1.0,-1.0,34.324
2024-04-03 17:56:11,0.0,2.5,51.875,0.07672648490751875,0.0,0.0,-1.0,0.0,0.0,0.0,0.0,0.0,0.0,-0.0,0.0,0.0,0.0,0.0,0.0,-1.0,-1.0,-1.0,-1.0,34.324
2024-04-03 17:56:11,0.0,2.5,51.875,0.07672648490751875,0.0,0.0,-1.0,0.0,0.0,0.0,0.0,0.0,0.0,-0.1449390243902439,-0.1449390243902439,0.0,0.0,0.0,0.0,-1.0,-1.0,-1.0,-1.0,34.324
2024-04-03 17:56:11,0.0,2.5,51.875,0.07672648490751875,0.0,0.0,-1.0,0.0,0.0,-0.26246951219512193,0.26246951219512193,0.26246951219512193,-0.26246951219512193,-0.9989939024390244,-0.9989939024390244,0.0,0.0,0.0,0.0,-1.0,-1.0,-1.0,-1.0,34.324
2024-04-03 17:56:11,0.0,2.5,51.875,0.07672648490751875,0.0,0.0,-1.0,0.0,0.0,-0.23112804878048782,0.23112804878048782,0.23112804878048782,-0.23112804878048782,-0.9989939024390244,-0.9989939024390244,0.0,0.0,0.0,0.0,-1.0,-1.0,-1.0,-1.0,34.324
2024-04-03 17:56:11,0.0,2.5,51.875,0.07672648490751875,0.0,0.0,-1.0,0.0,0.0,-0.13710365853658538,0.13710365853658538,0.13710365853658538,-0.13710365853658538,-0.19978658536585367,-0.19978658536585367,0.0,0.0,0.0,0.0,-1.0,-1.0,-1.0,-1.0,34.324
2024-04-03 17:56:11,0.0,2.5,51.875,0.07672648490751875,0.0,0.0,-1.0,0.0,0.0,0.0,0.0,0.0,0.0,0.6699085365853659,0.6699085365853659,0.0,0.0,0.0,0.0,-1.0,-1.0,-1.0,-1.0,34.324
2024-04-03 17:56:11,0.0,2.5,51.875,0.07672648490751875,0.0,0.0,-1.0,0.0,0.0,0.0,0.0,0.0,0.0,-0.0,0.0,0.0,0.0,0.0,0.0,-1.0,-1.0,-1.0,-1.0,34.324
2024-04-03 17:56:11,0.0,2.5,51.875,0.07672648490751875,0.0,0.0,107.0,0.0,0.0,-0.19978658536585367,0.19978658536585367,0.19978658536585367,-0.19978658536585367,-0.9989939024390244,-0.9989939024390244,0.0,0.0,0.0,0.0,-1.0,-1.0,-1.0,-1.0,34.324
2024-04-03 17:56:11,0.0,2.5,51.875,0.07672648490751875,0.0,0.0,-1.0,0.0,0.0,-0.09009146341463414,0.09009146341463414,0.09009146341463414,-0.09009146341463414,0.6150609756097561,0.6150609756097561,0.0,0.0,0.0,0.0,-1.0,-1.0,-1.0,-1.0,34.324
2024-04-03 17:56:11,0.0,2.5,51.875,0.07562018651615496,0.0,0.0,108.0,0.0,0.0,-0.16060975609756098,0.16060975609756098,0.16060975609756098,-0.16060975609756098,-0.9989939024390244,-0.9989939024390244,0.0,0.0,0.0,0.0,-1.0,-1.0,-1.0,-1.0,34.324
2024-04-03 17:56:11,0.0,2.5,51.875,0.07562018651615496,0.0,0.0,-1.0,0.0,0.0,-0.16060975609756098,0.16060975609756098,0.16060975609756098,-0.16060975609756098,-0.9989939024390244,-0.9989939024390244,0.0,0.0,0.0,0.0,-1.0,-1.0,-1.0,-1.0,34.324
2024-04-03 17:56:11,0.0,2.5,51.875,0.07562018651615496,0.0,0.0,-1.0,0.0,0.0,-0.1449390243902439,0.1449390243902439,0.1449390243902439,-0.1449390243902439,0.16844512195121952,0.16844512195121952,0.0,0.0,0.0,0.0,-1.0,-1.0,-1.0,-1.0,34.324
2024-04-03 17:56:12,0.0,2.5,51.875,0.07562018651615496,0.0,0.0,107.0,0.0,0.0,0.0,0.0,0.0,0.0,-0.0,0.0,0.0,0.0,0.0,0.0,-1.0,-1.0,-1.0,-1.0,34.324
2024-04-03 17:56:12,0.0,2.5,51.875,0.07562018651615496,0.0,0.0,-1.0,0.0,0.0,0.0,0.0,0.0,0.0,-0.0,0.0,0.0,0.0,0.0,0.0,-1.0,-1.0,-1.0,-1.0,34.324
2024-04-03 17:56:12,0.0,2.5,51.875,0.07562018651615496,0.0,0.0,106.0,0.0,0.0,0.0,0.0,0.0,0.0,-0.0,0.0,0.0,0.0,0.0,0.0,-1.0,-1.0,-1.0,-1.0,34.324
2024-04-03 17:56:12,0.0,2.5,51.875,0.07562018651615496,0.0,0.0,-1.0,0.0,0.0,0.0,0.0,0.0,0.0,-0.0,0.0,0.0,0.0,0.0,0.0,-1.0,-1.0,-1.0,-1.0,34.324
2024-04-03 17:56:12,0.0,2.5,51.875,0.07562018651615496,0.0,0.0,107.0,0.0,0.0,0.0,0.0,0.0,0.0,-0.0,0.0,0.0,0.0,0.0,0.0,-1.0,-1.0,-1.0,-1.0,33.786
2024-04-03 17:56:12,0.0,2.5,51.875,0.07562018651615496,0.0,0.0,-1.0,0.0,0.0,0.0,0.0,0.0,0.0,-0.0,0.0,0.0,0.0,0.0,0.0,-1.0,-1.0,-1.0,-1.0,33.786
2024-04-03 17:56:12,0.0,2.5,51.875,0.07562018651615496,0.0,0.0,-1.0,0.0,0.0,0.0,0.0,0.0,0.0,-0.0,0.0,0.0,0.0,0.0,0.0,-1.0,-1.0,-1.0,-1.0,34.324
2024-04-03 17:56:12,0.0,2.5,51.875,0.07562018651615496,0.0,0.0,-1.0,0.0,0.0,0.0,0.0,0.0,0.0,-0.0,0.0,0.0,0.0,0.0,0.0,-1.0,-1.0,-1.0,-1.0,34.324
2024-04-03 17:56:12,0.0,2.5,51.875,0.07562018651615496,0.0,0.0,-1.0,0.0,0.0,0.0,0.0,0.0,0.0,-0.0,0.0,0.0,0.0,0.0,0.0,-1.0,-1.0,-1.0,-1.0,34.324
2024-04-03 17:56:12,0.0,2.5,51.875,0.08098900525925432,0.0,0.0,-1.0,0.0,0.0,0.0,0.0,0.0,0.0,-0.0,0.0,0.0,0.0,0.0,0.0,-1.0,-1.0,-1.0,-1.0,34.324
2024-04-03 17:56:12,0.0,2.5,51.875,0.08098900525925432,0.0,0.0,-1.0,0.0,0.0,0.0,0.0,0.0,0.0,-0.0,0.0,0.0,0.0,0.0,0.0,-1.0,-1.0,-1.0,-1.0,33.786
2024-04-03 17:56:12,0.0,2.5,51.875,0.08098900525925432,0.0,0.0,-1.0,0.0,0.0,0.0,0.0,0.0,0.0,-0.0,0.0,0.0,0.0,0.0,0.0,-1.0,-1.0,-1.0,-1.0,34.324
2024-04-03 17:56:12,0.0,2.5,51.875,0.08098900525925432,0.0,0.0,-1.0,0.0,0.0,0.0,0.0,0.0,0.0,-0.0,0.0,0.0,0.0,0.0,0.0,-1.0,-1.0,-1.0,-1.0,33.786
2024-04-03 17:56:13,0.0,2.5,51.875,0.08098900525925432,0.0,0.0,-1.0,0.0,0.0,0.0,0.0,0.0,0.0,-0.0,0.0,0.0,0.0,0.0,0.0,-1.0,-1.0,-1.0,-1.0,34.324
2024-04-03 17:56:13,0.0,2.5,51.875,0.08098900525925432,0.0,0.0,-1.0,0.0,0.0,0.0,0.0,0.0,0.0,-0.0,0.0,0.0,0.0,0.0,0.0,-1.0,-1.0,-1.0,-1.0,34.324
2024-04-03 17:56:13,0.0,2.5,51.875,0.08098900525925432,0.0,0.0,0.0,0.0,0.0,0.0,0.0,0.0,0.0,-0.0,0.0,0.0,0.0,0.0,0.0,-1.0,-1.0,-1.0,-1.0,34.862
2024-04-03 17:56:13,0.0,2.5,51.875,0.08098900525925432,0.0,0.0,-1.0,0.0,0.0,0.0,0.0,0.0,0.0,-0.0,0.0,0.0,0.0,0.0,0.0,-1.0,-1.0,-1.0,-1.0,34.324
2024-04-03 17:56:13,0.0,2.5,51.875,0.08098900525925432,0.0,0.0,-1.0,0.0,0.0,0.0,0.0,0.0,0.0,-0.0,0.0,0.0,0.0,0.0,0.0,-1.0,-1.0,-1.0,-1.0,34.324
2024-04-03 17:56:13,0.0,2.5,51.875,0.08098900525925432,0.0,0.0,-1.0,0.0,0.0,0.0,0.0,0.0,0.0,-0.0,0.0,0.0,0.0,0.0,0.0,-1.0,-1.0,-1.0,-1.0,34.324
2024-04-03 17:56:13,0.0,2.5,51.875,0.08098900525925432,0.0,0.0,-1.0,0.0,0.0,0.0,0.0,0.0,0.0,-0.0,0.0,0.0,0.0,0.0,0.0,-1.0,-1.0,-1.0,-1.0,34.324
2024-04-03 17:56:13,0.0,2.5,51.875,0.08098900525925432,0.0,0.0,-1.0,0.0,0.0,0.0,0.0,0.0,0.0,-0.0,0.0,0.0,0.0,0.0,0.0,-1.0,-1.0,-1.0,-1.0,34.324
2024-04-03 17:56:13,0.0,2.5,51.875,0.08098900525925432,0.0,0.0,-1.0,0.0,0.0,0.0,0.0,0.0,0.0,-0.0,0.0,0.0,0.0,0.0,0.0,-1.0,-1.0,-1.0,-1.0,34.324
2024-04-03 17:56:13,0.0,2.5,51.875,0.07837127572952333,0.0,0.0,-1.0,0.0,0.0,0.0,0.0,0.0,0.0,-0.0,0.0,0.0,0.0,0.0,0.0,-1.0,-1.0,-1.0,-1.0,34.324
2024-04-03 17:56:13,0.0,2.5,51.875,0.07837127572952333,0.0,0.0,108.0,0.0,0.0,0.0,0.0,0.0,0.0,-0.0,0.0,0.0,0.0,0.0,0.0,-1.0,-1.0,-1.0,-1.0,34.324
2024-04-03 17:56:13,0.0,2.5,51.875,0.07837127572952333,0.0,0.0,-1.0,0.0,0.0,0.0,0.0,0.0,0.0,-0.0,0.0,0.0,0.0,0.0,0.0,-1.0,-1.0,-1.0,-1.0,34.862
2024-04-03 17:56:13,0.0,2.5,51.875,0.07837127572952333,0.0,0.0,-1.0,0.0,0.0,0.0,0.0,0.0,0.0,0.6150609756097561,0.6150609756097561,0.0,0.0,0.0,0.0,-1.0,-1.0,-1.0,-1.0,33.786
2024-04-03 17:56:14,0.0,2.5,51.875,0.07837127572952333,0.0,0.0,-1.0,0.0,0.0,0.12143292682926829,-0.12143292682926829,-0.12143292682926829,0.12143292682926829,0.9989939024390244,0.9989939024390244,0.0,0.0,0.0,0.0,-1.0,-1.0,-1.0,-1.0,34.862
2024-04-03 17:56:14,0.0,2.5,51.875,0.07837127572952333,0.0,0.0,-1.0,0.0,0.0,0.0,0.0,0.0,0.0,0.4348475609756098,0.4348475609756098,0.0,0.0,0.0,0.0,-1.0,-1.0,-1.0,-1.0,34.324
2024-04-03 17:56:14,0.0,2.5,51.875,0.07837127572952333,0.0,0.0,109.0,0.0,0.0,-0.1449390243902439,0.1449390243902439,0.1449390243902439,-0.1449390243902439,-0.4740243902439024,-0.4740243902439024,0.0,0.0,0.0,0.0,-1.0,-1.0,-1.0,-1.0,34.324
2024-04-03 17:56:14,0.0,2.5,51.875,0.07837127572952333,0.0,0.0,-1.0,0.0,0.0,-0.3251524390243902,0.3251524390243902,0.3251524390243902,-0.3251524390243902,-0.9989939024390244,-0.9989939024390244,0.0,0.0,0.0,0.0,-1.0,-1.0,-1.0,-1.0,34.324
2024-04-03 17:56:14,0.0,2.5,51.875,0.07837127572952333,0.0,0.0,0.0,0.0,0.0,0.0,0.0,0.0,0.0,-0.0,0.0,0.0,0.0,0.0,0.0,-1.0,-1.0,-1.0,-1.0,33.786
2024-04-03 17:56:14,0.0,2.5,51.875,0.07837127572952333,0.0,0.0,-1.0,0.0,0.0,0.0,0.0,0.0,0.0,-0.0,0.0,0.0,0.0,0.0,0.0,-1.0,-1.0,-1.0,-1.0,34.324
2024-04-03 17:56:14,0.0,2.5,51.875,0.07837127572952333,0.0,0.0,-1.0,0.0,0.0,0.0,0.0,0.0,0.0,-0.0,0.0,0.0,0.0,0.0,0.0,-1.0,-1.0,-1.0,-1.0,34.324
2024-04-03 17:56:14,0.0,2.5,51.875,0.07837127572952333,0.0,0.0,108.0,0.0,0.0,0.0,0.0,0.0,0.0,-0.0,0.0,0.0,0.0,0.0,0.0,-1.0,-1.0,-1.0,-1.0,34.324
2024-04-03 17:56:14,0.0,2.5,51.875,0.08044206110502723,0.0,0.0,-1.0,0.0,0.0,0.0,0.0,0.0,0.0,-0.0,0.0,0.0,0.0,0.0,0.0,-1.0,-1.0,-1.0,-1.0,34.324
2024-04-03 17:56:14,0.0,2.5,51.875,0.08044206110502723,0.0,0.0,-1.0,0.0,0.0,0.0,0.0,0.0,0.0,-0.0,0.0,0.0,0.0,0.0,0.0,-1.0,-1.0,-1.0,-1.0,33.248
2024-04-03 17:56:14,0.0,2.5,51.875,0.08044206110502723,0.0,0.0,-1.0,0.0,0.0,0.0,0.0,0.0,0.0,-0.0,0.0,0.0,0.0,0.0,0.0,-1.0,-1.0,-1.0,-1.0,34.324
2024-04-03 17:56:14,0.0,2.5,51.875,0.08044206110502723,0.0,0.0,-1.0,0.0,0.0,0.0,0.0,0.0,0.0,-0.0,0.0,0.0,0.0,0.0,0.0,-1.0,-1.0,-1.0,-1.0,34.324
2024-04-03 17:56:15,0.0,2.5,51.875,0.08044206110502723,0.0,0.0,0.0,0.0,0.0,0.0,0.0,0.0,0.0,-0.0,0.0,0.0,0.0,0.0,0.0,-1.0,-1.0,-1.0,-1.0,33.786
2024-04-03 17:56:15,0.0,2.5,51.875,0.08044206110502723,0.0,0.0,-1.0,0.0,0.0,0.0,0.0,0.0,0.0,-0.0,0.0,0.0,0.0,0.0,0.0,-1.0,-1.0,-1.0,-1.0,34.324
2024-04-03 17:56:15,0.0,2.5,51.875,0.08044206110502723,0.0,0.0,-1.0,0.0,0.0,0.0,0.0,0.0,0.0,-0.0,0.0,0.0,0.0,0.0,0.0,-1.0,-1.0,-1.0,-1.0,34.324
2024-04-03 17:56:15,0.0,2.5,51.875,0.08044206110502723,0.0,0.0,0.0,0.0,0.0,0.0,0.0,0.0,0.0,-0.0,0.0,0.0,0.0,0.0,0.0,-1.0,-1.0,-1.0,-1.0,34.324
2024-04-03 17:56:15,0.0,2.5,51.875,0.08044206110502723,0.0,0.0,-1.0,0.0,0.0,0.15277439024390244,0.15277439024390244,-0.15277439024390244,-0.15277439024390244,-0.0,0.0,0.0,0.0,0.0,0.0,-1.0,-1.0,-1.0,-1.0,34.324
2024-04-03 17:56:15,0.0,2.5,51.875,0.08044206110502723,0.0,0.0,-1.0,0.0,0.0,0.9989939024390244,0.9989939024390244,-0.9989939024390244,-0.9989939024390244,-0.0,0.0,0.0,0.0,0.0,0.0,-1.0,-1.0,-1.0,-1.0,34.324
2024-04-03 17:56:15,0.0,2.5,51.875,0.08044206110502723,0.0,0.0,107.0,0.0,0.0,0.9989939024390244,0.9989939024390244,-0.9989939024390244,-0.9989939024390244,-0.0,0.0,0.0,0.0,0.0,0.0,-1.0,-1.0,-1.0,-1.0,34.324
2024-04-03 17:56:15,0.0,2.5,51.875,0.08044206110502723,0.0,0.0,-1.0,0.0,0.0,0.0,0.0,0.0,0.0,-0.0,0.0,0.0,0.0,0.0,0.0,-1.0,-1.0,-1.0,-1.0,34.324
2024-04-03 17:56:15,0.0,2.5,51.875,0.08044206110502723,0.0,0.0,-1.0,0.0,0.0,0.0,0.0,0.0,0.0,-0.0,0.0,0.0,0.0,0.0,0.0,-1.0,-1.0,-1.0,-1.0,34.862
2024-04-03 17:56:15,0.0,2.5,51.875,0.07778718905023656,0.0,0.0,106.0,0.0,0.0,-0.4191768292682927,-0.4191768292682927,0.4191768292682927,0.4191768292682927,-0.0,0.0,0.0,0.0,0.0,0.0,-1.0,-1.0,-1.0,-1.0,34.324
2024-04-03 17:56:15,0.0,2.5,51.875,0.07778718905023656,0.0,0.0,-1.0,0.0,0.0,-0.9989939024390244,-0.9989939024390244,0.9989939024390244,0.9989939024390244,-0.0,0.0,0.0,0.0,0.0,0.0,-1.0,-1.0,-1.0,-1.0,34.862
2024-04-03 17:56:15,0.0,2.5,51.875,0.07778718905023656,0.0,0.0,-1.0,0.0,0.0,0.0,0.0,0.0,0.0,-0.0,0.0,0.0,0.0,0.0,0.0,-1.0,-1.0,-1.0,-1.0,34.324
2024-04-03 17:56:15,0.0,2.5,51.875,0.07778718905023656,0.0,0.0,0.0,0.0,0.0,0.0,0.0,0.0,0.0,-0.0,0.0,0.0,0.0,0.0,0.0,-1.0,-1.0,-1.0,-1.0,34.324
2024-04-03 17:56:15,0.0,2.5,51.875,0.07778718905023656,0.0,0.0,-1.0,0.0,0.0,0.0,0.0,0.0,0.0,-0.0,0.0,0.0,0.0,0.0,0.0,-1.0,-1.0,-1.0,-1.0,34.324
2024-04-03 17:56:15,0.0,2.5,51.875,0.07778718905023656,0.0,0.0,-1.0,0.0,0.0,0.0,0.0,0.0,0.0,-0.0,0.0,0.0,0.0,0.0,0.0,-1.0,-1.0,-1.0,-1.0,34.324
2024-04-03 17:56:16,0.0,2.5,51.875,0.07778718905023656,0.0,0.0,106.0,0.0,0.0,0.0,0.0,0.0,0.0,-0.0,0.0,0.0,0.0,0.0,0.0,-1.0,-1.0,-1.0,-1.0,34.324
2024-04-03 17:56:16,0.0,2.5,51.875,0.07778718905023656,0.0,0.0,-1.0,0.0,0.0,0.0,0.0,0.0,0.0,-0.0,0.0,0.0,0.0,0.0,0.0,-1.0,-1.0,-1.0,-1.0,33.248
2024-04-03 17:56:16,0.0,2.5,51.875,0.07778718905023656,0.0,0.0,-1.0,0.0,0.0,0.0,0.0,0.0,0.0,-0.0,0.0,0.0,0.0,0.0,0.0,-1.0,-1.0,-1.0,-1.0,34.324
2024-04-03 17:56:16,0.0,2.5,51.875,0.07778718905023656,0.0,0.0,107.0,0.0,0.0,0.0,0.0,0.0,0.0,-0.0,0.0,0.0,0.0,0.0,0.0,-1.0,-1.0,-1.0,-1.0,34.324
2024-04-03 17:56:16,0.0,2.5,51.875,0.07778718905023656,0.0,0.0,-1.0,0.0,0.0,0.0,0.0,0.0,0.0,-0.0,0.0,0.0,0.0,0.0,0.0,-1.0,-1.0,-1.0,-1.0,34.324
2024-04-03 17:56:16,0.0,2.5,51.875,0.07778718905023656,0.0,0.0,-1.0,0.0,0.0,0.0,0.0,0.0,0.0,-0.0,0.0,0.0,0.0,0.0,0.0,-1.0,-1.0,-1.0,-1.0,34.324
2024-04-03 17:56:16,0.0,2.5,51.875,0.07778718905023656,0.0,0.0,107.0,0.0,0.0,0.0,0.0,0.0,0.0,-0.0,0.0,0.0,0.0,0.0,0.0,-1.0,-1.0,-1.0,-1.0,34.324
2024-04-03 17:56:16,0.0,2.5,51.875,0.0796846038036034,0.0,0.0,-1.0,0.0,0.0,0.0,0.0,0.0,0.0,-0.0,0.0,0.0,0.0,0.0,0.0,-1.0,-1.0,-1.0,-1.0,34.324
2024-04-03 17:56:16,0.0,2.5,51.875,0.0796846038036034,0.0,0.0,-1.0,0.0,0.0,0.8892987804878049,0.8892987804878049,-0.8892987804878049,-0.8892987804878049,-0.0,0.0,0.0,0.0,0.0,0.0,-1.0,-1.0,-1.0,-1.0,34.862
2024-04-03 17:56:16,0.0,2.5,51.875,0.0796846038036034,0.0,0.0,-1.0,0.0,0.0,0.9989939024390244,0.9989939024390244,-0.9989939024390244,-0.9989939024390244,-0.0,0.0,0.0,0.0,0.0,0.0,-1.0,-1.0,-1.0,-1.0,34.324
2024-04-03 17:56:16,0.0,2.5,51.875,0.0796846038036034,0.0,0.0,-1.0,0.0,0.0,0.0,0.0,0.0,0.0,-0.0,0.0,0.0,0.0,0.0,0.0,-1.0,-1.0,-1.0,-1.0,34.324
2024-04-03 17:56:16,0.0,2.5,51.875,0.0796846038036034,0.0,0.0,108.0,0.0,0.0,-1.0,-0.8932317073170732,0.8932317073170732,1.0,-0.0,0.0,0.0,0.0,0.0,0.0,-1.0,-1.0,-1.0,-1.0,34.862
2024-04-03 17:56:16,0.0,2.5,51.875,0.0796846038036034,0.0,0.0,-1.0,0.0,0.0,-1.0,-0.8932317073170732,0.8932317073170732,1.0,-0.0,0.0,0.0,0.0,0.0,0.0,-1.0,-1.0,-1.0,-1.0,34.324
2024-04-03 17:56:16,0.0,2.5,51.875,0.0796846038036034,0.0,0.0,-1.0,0.0,0.0,0.0,0.0,0.0,0.0,-0.0,0.0,0.0,0.0,0.0,0.0,-1.0,-1.0,-1.0,-1.0,34.324
2024-04-03 17:56:17,0.0,2.5,51.875,0.0796846038036034,0.0,0.0,107.0,0.0,0.0,0.0,0.0,0.0,0.0,-0.0,0.0,0.0,0.0,0.0,0.0,-1.0,-1.0,-1.0,-1.0,34.324
2024-04-03 17:56:17,0.0,2.5,51.875,0.0796846038036034,0.0,0.0,-1.0,0.0,0.0,0.0,0.0,0.0,0.0,-0.0,0.0,0.0,0.0,0.0,0.0,-1.0,-1.0,-1.0,-1.0,34.324
2024-04-03 17:56:17,0.0,2.5,51.875,0.0796846038036034,0.0,0.0,-1.0,0.0,0.0,0.0,0.0,0.0,0.0,-0.0,0.0,0.0,0.0,0.0,0.0,-1.0,-1.0,-1.0,-1.0,34.324
2024-04-03 17:56:17,0.0,2.5,51.875,0.0796846038036034,0.0,0.0,105.0,0.0,0.0,0.0,0.0,0.0,0.0,-0.0,0.0,0.0,0.0,0.0,0.0,-1.0,-1.0,-1.0,-1.0,34.324
2024-04-03 17:56:17,0.0,2.5,51.875,0.0796846038036034,0.0,0.0,-1.0,0.0,0.0,0.0,0.0,0.0,0.0,-0.0,0.0,0.0,0.0,0.0,0.0,-1.0,-1.0,-1.0,-1.0,34.324
2024-04-03 17:56:17,0.0,2.5,51.875,0.0796846038036034,0.0,0.0,-1.0,0.0,0.0,0.0,0.0,0.0,0.0,-0.0,0.0,0.0,0.0,0.0,0.0,-1.0,-1.0,-1.0,-1.0,34.324
2024-04-03 17:56:17,0.0,2.5,51.875,0.0796846038036034,0.0,0.0,107.0,0.0,0.0,0.0,0.0,0.0,0.0,-0.0,0.0,0.0,0.0,0.0,0.0,-1.0,-1.0,-1.0,-1.0,34.324
2024-04-03 17:56:17,0.0,2.5,51.875,0.08077358991143811,0.0,0.0,-1.0,0.0,0.0,0.0,0.0,0.0,0.0,-0.0,0.0,0.0,0.0,0.0,0.0,-1.0,-1.0,-1.0,-1.0,34.324
2024-04-03 17:56:17,0.0,2.5,51.875,0.08077358991143811,0.0,0.0,-1.0,0.0,0.0,0.0,0.0,0.0,0.0,-0.0,0.0,0.0,0.0,0.0,0.0,-1.0,-1.0,-1.0,-1.0,34.324
2024-04-03 17:56:17,0.0,2.5,51.875,0.08077358991143811,0.0,0.0,107.0,0.0,0.0,0.0,0.0,0.0,0.0,-0.0,0.0,0.0,0.0,0.0,0.0,-1.0,-1.0,-1.0,-1.0,34.324
2024-04-03 17:56:17,0.0,2.5,51.875,0.08077358991143811,0.0,0.0,-1.0,0.0,0.0,0.0,0.0,0.0,0.0,-0.0,0.0,0.0,0.0,0.0,0.0,-1.0,-1.0,-1.0,-1.0,34.324
2024-04-03 17:56:17,0.0,2.5,51.875,0.08077358991143811,0.0,0.0,-1.0,0.0,0.0,0.0,0.0,0.0,0.0,-0.0,0.0,0.0,0.0,0.0,0.0,-1.0,-1.0,-1.0,-1.0,34.324
2024-04-03 17:56:17,0.0,2.5,51.875,0.08077358991143811,0.0,0.0,107.0,0.0,0.0,0.0,0.0,0.0,0.0,-0.0,0.0,0.0,0.0,0.0,0.0,-1.0,-1.0,-1.0,-1.0,34.324
2024-04-03 17:56:17,0.0,2.5,51.875,0.08077358991143811,0.0,0.0,-1.0,0.0,0.0,0.0,0.0,0.0,0.0,-0.0,0.0,0.0,0.0,0.0,0.0,-1.0,-1.0,-1.0,-1.0,34.324
2024-04-03 17:56:17,0.0,2.5,51.875,0.08077358991143811,0.0,0.0,-1.0,0.0,0.0,0.0,0.0,0.0,0.0,-0.0,0.0,0.0,0.0,0.0,0.0,-1.0,-1.0,-1.0,-1.0,34.324
2024-04-03 17:56:18,0.0,2.5,51.875,0.08077358991143811,0.0,0.0,107.0,0.0,0.0,0.0,0.0,0.0,0.0,-0.0,0.0,0.0,0.0,0.0,0.0,-1.0,-1.0,-1.0,-1.0,34.324
2024-04-03 17:56:18,0.0,2.5,51.875,0.08077358991143811,0.0,0.0,-1.0,0.0,0.0,0.0,0.0,0.0,0.0,-0.0,0.0,0.0,0.0,0.0,0.0,-1.0,-1.0,-1.0,-1.0,33.786
2024-04-03 17:56:18,0.0,2.5,51.875,0.08077358991143811,0.0,0.0,-1.0,0.0,0.0,0.0,0.0,0.0,0.0,-0.0,0.0,0.0,0.0,0.0,0.0,-1.0,-1.0,-1.0,-1.0,34.324
2024-04-03 17:56:18,0.0,2.5,51.875,0.08077358991143811,0.0,0.0,107.0,0.0,0.0,0.0,0.0,0.0,0.0,-0.0,0.0,0.0,0.0,0.0,0.0,-1.0,-1.0,-1.0,-1.0,34.862
2024-04-03 17:56:18,0.0,2.5,51.875,0.08077358991143811,0.0,0.0,-1.0,0.0,0.0,0.0,0.0,0.0,0.0,-0.0,0.0,0.0,0.0,0.0,0.0,-1.0,-1.0,-1.0,-1.0,34.324
2024-04-03 17:56:18,0.0,2.5,51.875,0.08077358991143811,0.0,0.0,-1.0,0.0,0.0,0.0,0.0,0.0,0.0,-0.0,0.0,0.0,0.0,0.0,0.0,-1.0,-1.0,-1.0,-1.0,34.324
2024-04-03 17:56:18,0.0,2.5,51.875,0.08077358991143811,0.0,0.0,107.0,0.0,0.0,0.0,0.0,0.0,0.0,-0.0,0.0,0.0,0.0,0.0,0.0,-1.0,-1.0,-1.0,-1.0,34.324
2024-04-03 17:56:18,0.0,2.5,51.875,0.08053773765156041,0.0,0.0,-1.0,0.0,0.0,0.0,0.0,0.0,0.0,-0.0,0.0,0.0,0.0,0.0,0.0,-1.0,-1.0,-1.0,-1.0,34.324
2024-04-03 17:56:18,0.0,2.5,51.875,0.08053773765156041,0.0,0.0,-1.0,0.0,0.0,0.0,0.0,0.0,0.0,-0.0,0.0,0.0,0.0,0.0,0.0,-1.0,-1.0,-1.0,-1.0,34.862
2024-04-03 17:56:18,0.0,2.5,51.875,0.08053773765156041,0.0,0.0,0.0,0.0,0.0,0.0,0.0,0.0,0.0,-0.0,0.0,0.0,0.0,0.0,0.0,-1.0,-1.0,-1.0,-1.0,34.324
2024-04-03 17:56:18,0.0,2.5,51.875,0.08053773765156041,0.0,0.0,-1.0,0.0,0.0,0.0,0.0,0.0,0.0,-0.0,0.0,0.0,0.0,0.0,0.0,-1.0,-1.0,-1.0,-1.0,34.324
2024-04-03 17:56:18,0.0,2.5,51.875,0.08053773765156041,0.0,0.0,-1.0,0.0,0.0,0.0,0.0,0.0,0.0,-0.0,0.0,0.0,0.0,0.0,0.0,-1.0,-1.0,-1.0,-1.0,34.324
2024-04-03 17:56:18,0.0,2.5,51.875,0.08053773765156041,0.0,0.0,107.0,0.0,0.0,0.0,0.0,0.0,0.0,-0.0,0.0,0.0,0.0,0.0,0.0,-1.0,-1.0,-1.0,-1.0,34.324
2024-04-03 17:56:18,0.0,2.5,51.875,0.08053773765156041,0.0,0.0,-1.0,0.0,0.0,0.0,0.0,0.0,0.0,-0.0,0.0,0.0,0.0,0.0,0.0,-1.0,-1.0,-1.0,-1.0,34.324
2024-04-03 17:56:18,0.0,2.5,51.875,0.08053773765156041,0.0,0.0,-1.0,0.0,0.0,0.0,0.0,0.0,0.0,-0.0,0.0,0.0,0.0,0.0,0.0,-1.0,-1.0,-1.0,-1.0,34.324
2024-04-03 17:56:19,0.0,2.5,51.875,0.08053773765156041,0.0,0.0,107.0,0.0,0.0,0.0,0.0,0.0,0.0,-0.0,0.0,0.0,0.0,0.0,0.0,-1.0,-1.0,-1.0,-1.0,34.324
2024-04-03 17:56:19,0.0,2.5,51.875,0.08053773765156041,0.0,0.0,-1.0,0.0,0.0,0.0,0.0,0.0,0.0,-0.0,0.0,0.0,0.0,0.0,0.0,-1.0,-1.0,-1.0,-1.0,34.324
2024-04-03 17:56:19,0.0,2.5,51.875,0.08053773765156041,0.0,0.0,-1.0,0.0,0.0,0.0,0.0,0.0,0.0,-0.0,0.0,0.0,0.0,0.0,0.0,-1.0,-1.0,-1.0,-1.0,34.324
2024-04-03 17:56:19,0.0,2.5,51.875,0.08053773765156041,0.0,0.0,107.0,0.0,0.0,0.0,0.0,0.0,0.0,-0.0,0.0,0.0,0.0,0.0,0.0,-1.0,-1.0,-1.0,-1.0,34.324
2024-04-03 17:56:19,0.0,2.5,51.875,0.08053773765156041,0.0,0.0,-1.0,0.0,0.0,0.0,0.0,0.0,0.0,-0.0,0.0,0.0,0.0,0.0,0.0,-1.0,-1.0,-1.0,-1.0,34.324
2024-04-03 17:56:19,0.0,2.5,51.875,0.08053773765156041,0.0,0.0,-1.0,0.0,0.0,0.0,0.0,0.0,0.0,-0.0,0.0,0.0,0.0,0.0,0.0,-1.0,-1.0,-1.0,-1.0,34.324
2024-04-03 17:56:19,0.0,2.5,51.875,0.08280427573721418,0.0,0.0,108.0,0.0,0.0,0.0,0.0,0.0,0.0,-0.0,0.0,0.0,0.0,0.0,0.0,-1.0,-1.0,-1.0,-1.0,34.324
2024-04-03 17:56:19,0.0,2.5,51.875,0.08280427573721418,0.0,0.0,-1.0,0.0,0.0,0.0,0.0,0.0,0.0,-0.0,0.0,0.0,0.0,0.0,0.0,-1.0,-1.0,-1.0,-1.0,34.324
2024-04-03 17:56:19,0.0,2.5,51.875,0.08280427573721418,0.0,0.0,-1.0,0.0,0.0,0.0,0.0,0.0,0.0,-0.0,0.0,0.0,0.0,0.0,0.0,-1.0,-1.0,-1.0,-1.0,33.786
2024-04-03 17:56:19,0.0,2.5,51.875,0.08280427573721418,0.0,0.0,108.0,0.0,0.0,0.0,0.0,0.0,0.0,-0.0,0.0,0.0,0.0,0.0,0.0,-1.0,-1.0,-1.0,-1.0,34.324
2024-04-03 17:56:19,0.0,2.5,51.875,0.08280427573721418,0.0,0.0,-1.0,0.0,0.0,0.0,0.0,0.0,0.0,-0.0,0.0,0.0,0.0,0.0,0.0,-1.0,-1.0,-1.0,-1.0,34.324
2024-04-03 17:56:19,0.0,2.5,51.875,0.08280427573721418,0.0,0.0,-1.0,0.0,0.0,0.0,0.0,0.0,0.0,-0.0,0.0,0.0,0.0,0.0,0.0,-1.0,-1.0,-1.0,-1.0,34.324
2024-04-03 17:56:19,0.0,2.5,51.875,0.08280427573721418,0.0,0.0,107.0,0.0,0.0,0.0,0.0,0.0,0.0,-0.0,0.0,0.0,0.0,0.0,0.0,-1.0,-1.0,-1.0,-1.0,34.324
2024-04-03 17:56:19,0.0,2.5,51.875,0.08280427573721418,0.0,0.0,-1.0,0.0,0.0,0.0,0.0,0.0,0.0,-0.0,0.0,0.0,0.0,0.0,0.0,-1.0,-1.0,-1.0,-1.0,34.324
2024-04-03 17:56:19,0.0,2.5,51.875,0.08280427573721418,0.0,0.0,-1.0,0.0,0.0,0.0,0.0,0.0,0.0,-0.0,0.0,0.0,0.0,0.0,0.0,-1.0,-1.0,-1.0,-1.0,34.862
2024-04-03 17:56:20,0.0,2.5,51.875,0.08280427573721418,0.0,0.0,108.0,0.0,0.0,0.0,0.0,0.0,0.0,-0.0,0.0,1.0,1.0,1.0,1.0,-1.0,-1.0,-1.0,-1.0,34.862
2024-04-03 17:56:20,0.0,2.5,51.875,0.08280427573721418,0.0,0.0,-1.0,0.0,0.0,0.0,0.0,0.0,0.0,-0.0,0.0,1.0,1.0,1.0,1.0,-1.0,-1.0,-1.0,-1.0,34.324
2024-04-03 17:56:20,0.0,2.5,51.875,0.08280427573721418,0.0,0.0,-1.0,0.0,0.0,0.0,0.0,0.0,0.0,-0.0,0.0,1.0,1.0,1.0,1.0,-1.0,-1.0,-1.0,-1.0,34.324
2024-04-03 17:56:20,0.0,2.5,51.875,0.08280427573721418,0.0,0.0,108.0,0.0,0.0,0.0,0.0,0.0,0.0,-0.0,0.0,1.0,1.0,1.0,1.0,-1.0,-1.0,-1.0,-1.0,34.324
2024-04-03 17:56:20,0.0,2.5,51.875,0.08280427573721418,0.0,0.0,-1.0,0.0,0.0,0.0,0.0,0.0,0.0,-0.0,0.0,1.0,1.0,1.0,1.0,-1.0,-1.0,-1.0,-1.0,34.324
2024-04-03 17:56:20,0.0,2.5,51.875,0.08280427573721418,0.0,0.0,-1.0,0.0,0.0,0.0,0.0,0.0,0.0,-0.0,0.0,1.0,1.0,1.0,1.0,-1.0,-1.0,-1.0,-1.0,34.324
2024-04-03 17:56:20,0.0,2.5,51.875,0.08672728978042567,0.0,0.0,76.0,0.0,0.0,0.0,0.0,0.0,0.0,-0.0,0.0,1.0,1.0,1.0,1.0,-1.0,-1.0,-1.0,-1.0,34.324
2024-04-03 17:56:20,0.0,2.5,51.875,0.08672728978042567,0.0,0.0,-1.0,0.0,0.0,0.0,0.0,0.0,0.0,-0.0,0.0,1.0,1.0,1.0,1.0,-1.0,-1.0,-1.0,-1.0,34.862
2024-04-03 17:56:20,0.0,2.5,51.875,0.08672728978042567,0.0,0.0,-1.0,0.0,0.0,0.0,0.0,0.0,0.0,-0.0,0.0,1.0,1.0,1.0,1.0,-1.0,-1.0,-1.0,-1.0,34.324
2024-04-03 17:56:20,0.0,2.5,51.875,0.08672728978042567,0.0,0.0,-1.0,0.0,0.0,0.0,0.0,0.0,0.0,-0.0,0.0,1.0,1.0,1.0,1.0,-1.0,-1.0,-1.0,-1.0,34.324
2024-04-03 17:56:20,0.0,2.5,51.875,0.08672728978042567,0.0,0.0,-1.0,0.0,0.0,0.0,0.0,0.0,0.0,-0.0,0.0,1.0,1.0,1.0,1.0,-1.0,-1.0,-1.0,-1.0,34.862
2024-04-03 17:56:20,0.0,2.5,51.875,0.08672728978042567,0.0,0.0,-1.0,0.0,0.0,0.0,0.0,0.0,0.0,-0.0,0.0,1.0,1.0,1.0,1.0,-1.0,-1.0,-1.0,-1.0,34.862
2024-04-03 17:56:20,0.0,2.5,51.875,0.08672728978042567,0.0,0.0,-1.0,0.0,0.0,0.0,0.0,0.0,0.0,-0.0,0.0,1.0,1.0,1.0,1.0,-1.0,-1.0,-1.0,-1.0,34.324
2024-04-03 17:56:20,0.0,2.5,51.875,0.08672728978042567,0.0,0.0,-1.0,0.0,0.0,0.0,0.0,0.0,0.0,-0.0,0.0,1.0,1.0,1.0,1.0,-1.0,-1.0,-1.0,-1.0,34.324
2024-04-03 17:56:21,0.0,2.5,51.875,0.08672728978042567,0.0,0.0,0.0,0.0,0.0,0.0,0.0,0.0,0.0,-0.0,0.0,1.0,1.0,1.0,1.0,-1.0,-1.0,-1.0,-1.0,34.324
2024-04-03 17:56:21,0.0,2.5,51.875,0.08672728978042567,0.0,0.0,-1.0,0.0,0.0,0.0,0.0,0.0,0.0,-0.0,0.0,1.0,1.0,1.0,1.0,-1.0,-1.0,-1.0,-1.0,34.324
2024-04-03 17:56:21,0.0,2.5,51.875,0.08672728978042567,0.0,0.0,-1.0,0.0,0.0,0.0,0.0,0.0,0.0,-0.0,0.0,1.0,1.0,1.0,1.0,-1.0,-1.0,-1.0,-1.0,34.324
2024-04-03 17:56:21,0.0,2.5,51.875,0.08672728978042567,0.0,0.0,73.0,0.0,0.0,0.0,0.0,0.0,0.0,-0.0,0.0,1.0,1.0,1.0,1.0,-1.0,-1.0,-1.0,-1.0,34.324
2024-04-03 17:56:21,0.0,2.5,51.875,0.08672728978042567,0.0,0.0,-1.0,0.0,0.0,0.0,0.0,0.0,0.0,-0.0,0.0,1.0,1.0,1.0,1.0,-1.0,-1.0,-1.0,-1.0,34.324
2024-04-03 17:56:21,0.0,2.5,51.875,0.08672728978042567,0.0,0.0,-1.0,0.0,0.0,0.0,0.0,0.0,0.0,-0.0,0.0,1.0,1.0,1.0,1.0,-1.0,-1.0,-1.0,-1.0,34.324
2024-04-03 17:56:21,0.0,2.5,51.875,0.08262868636488195,0.0,0.0,73.0,0.0,0.0,0.0,0.0,0.0,0.0,-0.0,0.0,1.0,1.0,1.0,1.0,-1.0,-1.0,-1.0,-1.0,34.324
2024-04-03 17:56:21,0.0,2.5,51.875,0.08262868636488195,0.0,0.0,-1.0,0.0,0.0,0.0,0.0,0.0,0.0,-0.0,0.0,1.0,1.0,1.0,1.0,-1.0,-1.0,-1.0,-1.0,34.324
2024-04-03 17:56:21,0.0,2.5,51.875,0.08262868636488195,0.0,0.0,-1.0,0.0,0.0,0.0,0.0,0.0,0.0,-0.0,0.0,1.0,1.0,1.0,1.0,-1.0,-1.0,-1.0,-1.0,34.324
2024-04-03 17:56:21,0.0,2.5,51.875,0.08262868636488195,0.0,0.0,-1.0,0.0,0.0,0.0,0.0,0.0,0.0,-0.0,0.0,1.0,1.0,1.0,1.0,-1.0,-1.0,-1.0,-1.0,34.862
2024-04-03 17:56:21,0.0,2.5,51.875,0.08262868636488195,0.0,0.0,-1.0,0.0,0.0,0.0,0.0,0.0,0.0,-0.0,0.0,1.0,1.0,1.0,1.0,-1.0,-1.0,-1.0,-1.0,34.862
2024-04-03 17:56:21,0.0,2.5,51.875,0.08262868636488195,0.0,0.0,-1.0,0.0,0.0,0.0,0.0,0.0,0.0,-0.0,0.0,1.0,1.0,1.0,1.0,-1.0,-1.0,-1.0,-1.0,34.862
2024-04-03 17:56:21,0.0,2.5,51.875,0.08262868636488195,0.0,0.0,73.0,0.0,0.0,0.0,0.0,0.0,0.0,-0.0,0.0,1.0,1.0,1.0,1.0,-1.0,-1.0,-1.0,-1.0,34.324
2024-04-03 17:56:21,0.0,2.5,51.875,0.08262868636488195,0.0,0.0,-1.0,0.0,0.0,0.0,0.0,0.0,0.0,-0.0,0.0,1.0,1.0,1.0,1.0,-1.0,-1.0,-1.0,-1.0,34.324
2024-04-03 17:56:21,0.0,2.5,51.875,0.08262868636488195,0.0,0.0,-1.0,0.0,0.0,0.0,0.0,0.0,0.0,-0.0,0.0,1.0,1.0,1.0,1.0,-1.0,-1.0,-1.0,-1.0,34.862
2024-04-03 17:56:22,0.0,2.5,51.875,0.08262868636488195,0.0,0.0,0.0,0.0,0.0,0.0,0.0,0.0,0.0,-0.0,0.0,1.0,1.0,1.0,1.0,-1.0,-1.0,-1.0,-1.0,34.324
2024-04-03 17:56:22,0.0,2.5,51.875,0.08262868636488195,0.0,0.0,-1.0,0.0,0.0,0.0,0.0,0.0,0.0,-0.0,0.0,1.0,1.0,1.0,1.0,-1.0,-1.0,-1.0,-1.0,34.324
2024-04-03 17:56:22,0.0,2.5,51.875,0.08262868636488195,0.0,0.0,-1.0,0.0,0.0,0.0,0.0,0.0,0.0,-0.0,0.0,1.0,1.0,1.0,1.0,-1.0,-1.0,-1.0,-1.0,34.324
2024-04-03 17:56:22,0.0,2.5,51.875,0.08262868636488195,0.0,0.0,71.0,0.0,0.0,0.0,0.0,0.0,0.0,-0.0,0.0,1.0,1.0,1.0,1.0,-1.0,-1.0,-1.0,-1.0,34.324
