Timestamp,Yaw,Pitch,Roll,Depth,Depth Set,Depth Control,Water,Roll Control,Pitch Control,Thruster1,Thruster2,Thruster3,Thruster4,Thruster5,Thruster6,BCD1,BCD2,BCD3,BCD4,BCD1 Volt,BCD2 Volt,BCD3 Volt,BCD4 Volt,CPU
2024-04-02 23:46:53,360.0,1.0625,2.0,-0.016971364690696045,0.0,0.0,-1.0,0.0,0.0,0.0,0.0,0.0,0.0,0.0,0.0,0.0,0.0,0.0,0.0,11.0,12.0,13.0,14.0,53.154
2024-04-02 23:46:53,360.0,1.0625,2.0,-0.016971364690696045,0.0,0.0,-1.0,0.0,0.0,0.0,0.0,0.0,0.0,0.0,0.0,0.0,0.0,0.0,0.0,11.0,12.0,13.0,14.0,52.616
2024-04-02 23:46:53,360.0,1.0625,2.0,-0.016971364690696045,0.0,0.0,-1.0,0.0,0.0,0.0,0.0,0.0,0.0,0.0,0.0,0.0,0.0,0.0,0.0,11.0,12.0,13.0,14.0,53.154
2024-04-02 23:46:53,360.0,1.0625,2.0,-0.016971364690696045,0.0,0.0,-1.0,0.0,0.0,0.0,0.0,0.0,0.0,0.0,0.0,0.0,0.0,0.0,0.0,11.0,12.0,13.0,14.0,53.692
2024-04-02 23:46:53,360.0,1.0625,2.0,-0.016971364690696045,0.0,0.0,-1.0,0.0,0.0,0.0,0.0,0.0,0.0,0.0,0.0,0.0,0.0,0.0,0.0,11.0,12.0,13.0,14.0,53.154
2024-04-02 23:46:53,360.0,1.0625,2.0,-0.016971364690696045,0.0,0.0,-1.0,0.0,0.0,0.0,0.0,0.0,0.0,0.0,0.0,0.0,0.0,0.0,0.0,11.0,12.0,13.0,14.0,52.616
2024-04-02 23:46:53,360.0,1.0625,2.0,-0.016971364690696045,0.0,0.0,-1.0,0.0,0.0,0.0,0.0,0.0,0.0,0.0,0.0,0.0,0.0,0.0,0.0,11.0,12.0,13.0,14.0,53.154
2024-04-02 23:46:53,360.0,1.0625,2.0,-0.016971364690696045,0.0,0.0,-1.0,0.0,0.0,0.0,0.0,0.0,0.0,0.0,0.0,0.0,0.0,0.0,0.0,11.0,12.0,13.0,14.0,53.692
2024-04-02 23:46:53,360.0,1.0625,2.0,-0.01577210838971096,0.0,0.0,-1.0,0.0,0.0,0.0,0.0,0.0,0.0,0.0,0.0,0.0,0.0,0.0,0.0,11.0,12.0,13.0,14.0,53.154
2024-04-02 23:46:53,360.0,1.0625,2.0,-0.01577210838971096,0.0,0.0,-1.0,0.0,0.0,0.0,0.0,0.0,0.0,0.0,0.0,0.0,0.0,0.0,0.0,11.0,12.0,13.0,14.0,53.692
2024-04-02 23:46:53,360.0,1.0625,2.0,-0.01577210838971096,0.0,0.0,-1.0,0.0,0.0,0.0,0.0,0.0,0.0,0.0,0.0,0.0,0.0,0.0,0.0,11.0,12.0,13.0,14.0,53.692
2024-04-02 23:46:53,360.0,1.0625,2.0,-0.01577210838971096,0.0,0.0,-1.0,0.0,0.0,0.0,0.0,0.0,0.0,0.0,0.0,0.0,0.0,0.0,0.0,11.0,12.0,13.0,14.0,53.154
2024-04-02 23:46:53,360.0,1.0625,2.0,-0.01577210838971096,0.0,0.0,-1.0,0.0,0.0,0.0,0.0,0.0,0.0,0.0,0.0,0.0,0.0,0.0,0.0,11.0,12.0,13.0,14.0,53.154
2024-04-02 23:46:53,360.0,1.0625,2.0,-0.01577210838971096,0.0,0.0,-1.0,0.0,0.0,0.0,0.0,0.0,0.0,0.0,0.0,0.0,0.0,0.0,0.0,11.0,12.0,13.0,14.0,53.154
2024-04-02 23:46:54,360.0,1.0625,2.0,-0.01577210838971096,0.0,0.0,-1.0,0.0,0.0,0.0,0.0,0.0,0.0,0.0,0.0,0.0,0.0,0.0,0.0,11.0,12.0,13.0,14.0,53.154
2024-04-02 23:46:54,360.0,1.0625,2.0,-0.01577210838971096,0.0,0.0,132.0,0.0,0.0,0.0,0.0,0.0,0.0,0.0,0.0,0.0,0.0,0.0,0.0,11.0,12.0,13.0,14.0,53.154
2024-04-02 23:46:54,360.0,1.0625,2.0,-0.01577210838971096,0.0,0.0,-1.0,0.0,0.0,0.0,0.0,0.0,0.0,0.0,0.0,0.0,0.0,0.0,0.0,11.0,12.0,13.0,14.0,53.692
2024-04-02 23:46:54,360.0,1.0625,2.0,-0.01577210838971096,0.0,0.0,-1.0,0.0,0.0,0.0,0.0,0.0,0.0,0.0,0.0,0.0,0.0,0.0,0.0,11.0,12.0,13.0,14.0,52.616
2024-04-02 23:46:54,360.0,1.0625,2.0,-0.01577210838971096,0.0,0.0,-1.0,0.0,0.0,0.0,0.0,0.0,0.0,0.0,0.0,0.0,0.0,0.0,0.0,11.0,12.0,13.0,14.0,53.154
2024-04-02 23:46:54,360.0,1.0625,2.0,-0.01577210838971096,0.0,0.0,-1.0,0.0,0.0,0.0,0.0,0.0,0.0,0.0,0.0,0.0,0.0,0.0,0.0,11.0,12.0,13.0,14.0,53.692
2024-04-02 23:46:54,360.0,1.0625,2.0,-0.01577210838971096,0.0,0.0,-1.0,0.0,0.0,0.0,0.0,0.0,0.0,0.0,0.0,0.0,0.0,0.0,0.0,11.0,12.0,13.0,14.0,53.692
2024-04-02 23:46:54,360.0,1.0625,2.0,-0.01577210838971096,0.0,0.0,-1.0,0.0,0.0,0.0,0.0,0.0,0.0,0.0,0.0,0.0,0.0,0.0,0.0,11.0,12.0,13.0,14.0,53.154
2024-04-02 23:46:54,360.0,1.0625,2.0,-0.0159753870523887,0.0,0.0,-1.0,0.0,0.0,0.0,0.0,0.0,0.0,0.0,0.0,0.0,0.0,0.0,0.0,11.0,12.0,13.0,14.0,53.692
2024-04-02 23:46:54,360.0,1.0625,2.0,-0.0159753870523887,0.0,0.0,-1.0,0.0,0.0,0.0,0.0,0.0,0.0,0.0,0.0,0.0,0.0,0.0,0.0,11.0,12.0,13.0,14.0,53.692
2024-04-02 23:46:54,360.0,1.0625,2.0,-0.0159753870523887,0.0,0.0,-1.0,0.0,0.0,0.0,0.0,0.0,0.0,0.0,0.0,0.0,0.0,0.0,0.0,11.0,12.0,13.0,14.0,53.692
2024-04-02 23:46:54,360.0,1.0625,2.0,-0.0159753870523887,0.0,0.0,-1.0,0.0,0.0,0.0,0.0,0.0,0.0,0.0,0.0,0.0,0.0,0.0,0.0,11.0,12.0,13.0,14.0,52.616
2024-04-02 23:46:54,360.0,1.0625,2.0,-0.0159753870523887,0.0,0.0,-1.0,0.0,0.0,0.0,0.0,0.0,0.0,0.0,0.0,0.0,0.0,0.0,0.0,11.0,12.0,13.0,14.0,53.692
2024-04-02 23:46:54,360.0,1.0625,2.0,-0.0159753870523887,0.0,0.0,130.0,0.0,0.0,0.0,0.0,0.0,0.0,0.0,0.0,0.0,0.0,0.0,0.0,11.0,12.0,13.0,14.0,52.616
2024-04-02 23:46:54,360.0,1.0625,2.0,-0.0159753870523887,0.0,0.0,-1.0,0.0,0.0,0.0,0.0,0.0,0.0,0.0,0.0,0.0,0.0,0.0,0.0,11.0,12.0,13.0,14.0,52.616
2024-04-02 23:46:55,360.0,1.0625,2.0,-0.0159753870523887,0.0,0.0,-1.0,0.0,0.0,0.0,0.0,0.0,0.0,0.0,0.0,0.0,0.0,0.0,0.0,11.0,12.0,13.0,14.0,53.154
2024-04-02 23:46:55,360.0,1.0625,2.0,-0.0159753870523887,0.0,0.0,-1.0,0.0,0.0,0.0,0.0,0.0,0.0,0.0,0.0,0.0,0.0,0.0,0.0,11.0,12.0,13.0,14.0,53.692
2024-04-02 23:46:55,360.0,1.0625,2.0,-0.0159753870523887,0.0,0.0,-1.0,0.0,0.0,0.0,0.0,0.0,0.0,0.0,0.0,0.0,0.0,0.0,0.0,11.0,12.0,13.0,14.0,53.154
2024-04-02 23:46:55,360.0,1.0625,2.0,-0.0159753870523887,0.0,0.0,-1.0,0.0,0.0,0.0,0.0,0.0,0.0,0.0,0.0,0.0,0.0,0.0,0.0,11.0,12.0,13.0,14.0,53.154
2024-04-02 23:46:55,360.0,1.0625,2.0,-0.0159753870523887,0.0,0.0,-1.0,0.0,0.0,0.0,0.0,0.0,0.0,0.0,0.0,0.0,0.0,0.0,0.0,11.0,12.0,13.0,14.0,52.616
2024-04-02 23:46:55,360.0,1.0625,2.0,-0.0159753870523887,0.0,0.0,-1.0,0.0,0.0,0.0,0.0,0.0,0.0,0.0,0.0,0.0,0.0,0.0,0.0,11.0,12.0,13.0,14.0,53.154
2024-04-02 23:46:55,360.0,1.0625,2.0,-0.0159753870523887,0.0,0.0,-1.0,0.0,0.0,0.0,0.0,0.0,0.0,0.0,0.0,0.0,0.0,0.0,0.0,11.0,12.0,13.0,14.0,53.692
2024-04-02 23:46:55,360.0,1.0625,2.0,-0.01688545175761021,0.0,0.0,133.0,0.0,0.0,0.0,0.0,0.0,0.0,0.0,0.0,0.0,0.0,0.0,0.0,11.0,12.0,13.0,14.0,53.692
2024-04-02 23:46:55,360.0,1.0625,2.0,-0.01688545175761021,0.0,0.0,-1.0,0.0,0.0,0.0,0.0,0.0,0.0,0.0,0.0,0.0,0.0,0.0,0.0,11.0,12.0,13.0,14.0,53.154
2024-04-02 23:46:55,360.0,1.0625,2.0,-0.01688545175761021,0.0,0.0,-1.0,0.0,0.0,0.0,0.0,0.0,0.0,0.0,0.0,0.0,0.0,0.0,0.0,11.0,12.0,13.0,14.0,52.616
2024-04-02 23:46:55,360.0,1.0625,2.0,-0.01688545175761021,0.0,0.0,-1.0,0.0,0.0,0.0,0.0,0.0,0.0,0.0,0.0,0.0,0.0,0.0,0.0,11.0,12.0,13.0,14.0,53.692
2024-04-02 23:46:55,360.0,1.0625,2.0,-0.01688545175761021,0.0,0.0,-1.0,0.0,0.0,0.0,0.0,0.0,0.0,0.0,0.0,0.0,0.0,0.0,0.0,11.0,12.0,13.0,14.0,53.692
2024-04-02 23:46:55,360.0,1.0625,2.0,-0.01688545175761021,0.0,0.0,-1.0,0.0,0.0,0.0,0.0,0.0,0.0,0.0,0.0,0.0,0.0,0.0,0.0,11.0,12.0,13.0,14.0,52.616
2024-04-02 23:46:55,360.0,1.0625,2.0,-0.01688545175761021,0.0,0.0,-1.0,0.0,0.0,0.0,0.0,0.0,0.0,0.0,0.0,0.0,0.0,0.0,0.0,11.0,12.0,13.0,14.0,53.692
2024-04-02 23:46:55,360.0,1.0625,2.0,-0.01688545175761021,0.0,0.0,-1.0,0.0,0.0,0.0,0.0,0.0,0.0,0.0,0.0,0.0,0.0,0.0,0.0,11.0,12.0,13.0,14.0,53.154
2024-04-02 23:46:56,360.0,1.0625,2.0,-0.01688545175761021,0.0,0.0,133.0,0.0,0.0,0.0,0.0,0.0,0.0,0.0,0.0,0.0,0.0,0.0,0.0,11.0,12.0,13.0,14.0,53.692
2024-04-02 23:46:56,360.0,1.0625,2.0,-0.01688545175761021,0.0,0.0,-1.0,0.0,0.0,0.0,0.0,0.0,0.0,0.0,0.0,0.0,0.0,0.0,0.0,11.0,12.0,13.0,14.0,53.692
2024-04-02 23:46:56,360.0,1.0625,2.0,-0.01688545175761021,0.0,0.0,-1.0,0.0,0.0,0.0,0.0,0.0,0.0,0.0,0.0,0.0,0.0,0.0,0.0,11.0,12.0,13.0,14.0,53.154
2024-04-02 23:46:56,360.0,1.0625,2.0,-0.01688545175761021,0.0,0.0,133.0,0.0,0.0,0.0,0.0,0.0,0.0,0.0,0.0,0.0,0.0,0.0,0.0,11.0,12.0,13.0,14.0,53.154
2024-04-02 23:46:56,360.0,1.0625,2.0,-0.016691944751589288,0.0,0.0,-1.0,0.0,0.0,0.0,0.0,0.0,0.0,0.0,0.0,0.0,0.0,0.0,0.0,11.0,12.0,13.0,14.0,53.692
2024-04-02 23:46:56,360.0,1.0625,2.0,-0.016691944751589288,0.0,0.0,-1.0,0.0,0.0,0.0,0.0,0.0,0.0,0.0,0.0,0.0,0.0,0.0,0.0,11.0,12.0,13.0,14.0,53.692
2024-04-02 23:46:56,360.0,1.0625,2.0,-0.016691944751589288,0.0,0.0,133.0,0.0,0.0,0.0,0.0,0.0,0.0,0.0,0.0,0.0,0.0,0.0,0.0,11.0,12.0,13.0,14.0,52.616
2024-04-02 23:46:56,360.0,1.0625,2.0,-0.016691944751589288,0.0,0.0,-1.0,0.0,0.0,0.0,0.0,0.0,0.0,0.0,0.0,0.0,0.0,0.0,0.0,11.0,12.0,13.0,14.0,53.692
2024-04-02 23:46:56,360.0,1.0625,2.0,-0.016691944751589288,0.0,0.0,-1.0,0.0,0.0,0.0,0.0,0.0,0.0,0.0,0.0,0.0,0.0,0.0,0.0,11.0,12.0,13.0,14.0,53.154
2024-04-02 23:46:56,360.0,1.0625,2.0,-0.016691944751589288,0.0,0.0,133.0,0.0,0.0,0.0,0.0,0.0,0.0,0.0,0.0,0.0,0.0,0.0,0.0,11.0,12.0,13.0,14.0,53.692
2024-04-02 23:46:56,360.0,1.0625,2.0,-0.016691944751589288,0.0,0.0,-1.0,0.0,0.0,0.0,0.0,0.0,0.0,0.0,0.0,0.0,0.0,0.0,0.0,11.0,12.0,13.0,14.0,53.692
2024-04-02 23:46:56,360.0,1.0625,2.0,-0.016691944751589288,0.0,0.0,-1.0,0.0,0.0,0.0,0.0,0.0,0.0,0.0,0.0,0.0,0.0,0.0,0.0,11.0,12.0,13.0,14.0,52.616
2024-04-02 23:46:56,360.0,1.0625,2.0,-0.016691944751589288,0.0,0.0,-1.0,0.0,0.0,0.0,0.0,0.0,0.0,0.0,0.0,0.0,0.0,0.0,0.0,11.0,12.0,13.0,14.0,53.692
2024-04-02 23:46:56,360.0,1.0625,2.0,-0.016691944751589288,0.0,0.0,-1.0,0.0,0.0,0.0,0.0,0.0,0.0,0.0,0.0,0.0,0.0,0.0,0.0,11.0,12.0,13.0,14.0,53.692
2024-04-02 23:46:57,360.0,1.0625,2.0,-0.016691944751589288,0.0,0.0,0.0,0.0,0.0,0.0,0.0,0.0,0.0,0.0,0.0,0.0,0.0,0.0,0.0,11.0,12.0,13.0,14.0,53.692
2024-04-02 23:46:57,360.0,1.0625,2.0,-0.016691944751589288,0.0,0.0,-1.0,0.0,0.0,0.0,0.0,0.0,0.0,0.0,0.0,0.0,0.0,0.0,0.0,11.0,12.0,13.0,14.0,53.692
2024-04-02 23:46:57,360.0,1.0625,2.0,-0.016691944751589288,0.0,0.0,-1.0,0.0,0.0,0.0,0.0,0.0,0.0,0.0,0.0,0.0,0.0,0.0,0.0,11.0,12.0,13.0,14.0,53.154
2024-04-02 23:46:57,360.0,1.0625,2.0,-0.017172056599107786,0.0,0.0,0.0,0.0,0.0,0.0,0.0,0.0,0.0,0.0,0.0,0.0,0.0,0.0,0.0,11.0,12.0,13.0,14.0,53.154
2024-04-02 23:46:57,360.0,1.0625,2.0,-0.017172056599107786,0.0,0.0,-1.0,0.0,0.0,0.0,0.0,0.0,0.0,0.0,0.0,0.0,0.0,0.0,0.0,11.0,12.0,13.0,14.0,53.692
2024-04-02 23:46:57,360.0,1.0625,2.0,-0.017172056599107786,0.0,0.0,-1.0,0.0,0.0,0.0,0.0,0.0,0.0,0.0,0.0,0.0,0.0,0.0,0.0,11.0,12.0,13.0,14.0,53.692
2024-04-02 23:46:57,360.0,1.0625,2.0,-0.017172056599107786,0.0,0.0,132.0,0.0,0.0,0.0,0.0,0.0,0.0,0.0,0.0,0.0,0.0,0.0,0.0,11.0,12.0,13.0,14.0,53.692
2024-04-02 23:46:57,360.0,1.0625,2.0,-0.017172056599107786,0.0,0.0,-1.0,0.0,0.0,0.0,0.0,0.0,0.0,0.0,0.0,0.0,0.0,0.0,0.0,11.0,12.0,13.0,14.0,53.692
2024-04-02 23:46:57,360.0,1.0625,2.0,-0.017172056599107786,0.0,0.0,-1.0,0.0,0.0,0.0,0.0,0.0,0.0,0.0,0.0,0.0,0.0,0.0,0.0,11.0,12.0,13.0,14.0,53.692
2024-04-02 23:46:57,360.0,1.0625,2.0,-0.017172056599107786,0.0,0.0,132.0,0.0,0.0,0.0,0.0,0.0,0.0,0.0,0.0,0.0,0.0,0.0,0.0,11.0,12.0,13.0,14.0,53.692
2024-04-02 23:46:57,360.0,1.0625,2.0,-0.017172056599107786,0.0,0.0,-1.0,0.0,0.0,0.0,0.0,0.0,0.0,0.0,0.0,0.0,0.0,0.0,0.0,11.0,12.0,13.0,14.0,53.154
2024-04-02 23:46:57,360.0,1.0625,2.0,-0.017172056599107786,0.0,0.0,-1.0,0.0,0.0,0.0,0.0,0.0,0.0,0.0,0.0,0.0,0.0,0.0,0.0,11.0,12.0,13.0,14.0,54.23
2024-04-02 23:46:57,360.0,1.0625,2.0,-0.017172056599107786,0.0,0.0,131.0,0.0,0.0,0.0,0.0,0.0,0.0,0.0,0.0,0.0,0.0,0.0,0.0,11.0,12.0,13.0,14.0,53.692
2024-04-02 23:46:57,360.0,1.0625,2.0,-0.017172056599107786,0.0,0.0,-1.0,0.0,0.0,0.0,0.0,0.0,0.0,0.0,0.0,0.0,0.0,0.0,0.0,11.0,12.0,13.0,14.0,53.154
2024-04-02 23:46:57,360.0,1.0625,2.0,-0.017172056599107786,0.0,0.0,-1.0,0.0,0.0,0.0,0.0,0.0,0.0,0.0,0.0,0.0,0.0,0.0,0.0,11.0,12.0,13.0,14.0,53.692
2024-04-02 23:46:58,360.0,1.0625,2.0,-0.017172056599107786,0.0,0.0,132.0,0.0,0.0,0.0,0.0,0.0,0.0,0.0,0.0,0.0,0.0,0.0,0.0,11.0,12.0,13.0,14.0,53.692
2024-04-02 23:46:58,360.0,1.0625,2.0,-0.017172056599107786,0.0,0.0,-1.0,0.0,0.0,0.0,0.0,0.0,0.0,0.0,0.0,0.0,0.0,0.0,0.0,11.0,12.0,13.0,14.0,53.692
2024-04-02 23:46:58,360.0,1.0625,2.0,-0.01642521670224845,0.0,0.0,-1.0,0.0,0.0,0.0,0.0,0.0,0.0,0.0,0.0,0.0,0.0,0.0,0.0,11.0,12.0,13.0,14.0,53.692
2024-04-02 23:46:58,360.0,1.0625,2.0,-0.01642521670224845,0.0,0.0,-1.0,0.0,0.0,0.0,0.0,0.0,0.0,0.0,0.0,0.0,0.0,0.0,0.0,11.0,12.0,13.0,14.0,53.692
2024-04-02 23:46:58,360.0,1.0625,2.0,-0.01642521670224845,0.0,0.0,-1.0,0.0,0.0,0.0,0.0,0.0,0.0,0.0,0.0,0.0,0.0,0.0,0.0,11.0,12.0,13.0,14.0,53.692
2024-04-02 23:46:58,360.0,1.0625,2.0,-0.01642521670224845,0.0,0.0,-1.0,0.0,0.0,0.0,0.0,0.0,0.0,0.0,0.0,0.0,0.0,0.0,0.0,11.0,12.0,13.0,14.0,53.154
2024-04-02 23:46:58,360.0,1.0625,2.0,-0.01642521670224845,0.0,0.0,-1.0,0.0,0.0,0.0,0.0,0.0,0.0,0.0,0.0,0.0,0.0,0.0,0.0,11.0,12.0,13.0,14.0,53.692
2024-04-02 23:46:58,360.0,1.0625,2.0,-0.01642521670224845,0.0,0.0,-1.0,0.0,0.0,0.0,0.0,0.0,0.0,0.0,0.0,0.0,0.0,0.0,0.0,11.0,12.0,13.0,14.0,53.692
2024-04-02 23:46:58,360.0,1.0625,2.0,-0.01642521670224845,0.0,0.0,-1.0,0.0,0.0,0.0,0.0,0.0,0.0,0.0,0.0,0.0,0.0,0.0,0.0,11.0,12.0,13.0,14.0,53.692
2024-04-02 23:46:58,360.0,1.0625,2.0,-0.01642521670224845,0.0,0.0,-1.0,0.0,0.0,0.0,0.0,0.0,0.0,0.0,0.0,0.0,0.0,0.0,0.0,11.0,12.0,13.0,14.0,53.692
2024-04-02 23:46:58,360.0,1.0625,2.0,-0.01642521670224845,0.0,0.0,-1.0,0.0,0.0,0.0,0.0,0.0,0.0,0.0,0.0,0.0,0.0,0.0,0.0,11.0,12.0,13.0,14.0,53.692
2024-04-02 23:46:58,360.0,1.0625,2.0,-0.01642521670224845,0.0,0.0,-1.0,0.0,0.0,0.0,0.0,0.0,0.0,0.0,0.0,0.0,0.0,0.0,0.0,11.0,12.0,13.0,14.0,53.692
2024-04-02 23:46:58,360.0,1.0625,2.0,-0.01642521670224845,0.0,0.0,-1.0,0.0,0.0,0.0,0.0,0.0,0.0,0.0,0.0,0.0,0.0,0.0,0.0,11.0,12.0,13.0,14.0,53.692
2024-04-02 23:46:58,360.0,1.0625,2.0,-0.01642521670224845,0.0,0.0,-1.0,0.0,0.0,0.0,0.0,0.0,0.0,0.0,0.0,0.0,0.0,0.0,0.0,11.0,12.0,13.0,14.0,53.692
2024-04-02 23:46:59,360.0,1.0625,2.0,-0.01642521670224845,0.0,0.0,133.0,0.0,0.0,0.0,0.0,0.0,0.0,0.0,0.0,0.0,0.0,0.0,0.0,11.0,12.0,13.0,14.0,53.692
2024-04-02 23:46:59,360.0,1.0625,2.0,-0.016984467717252892,0.0,0.0,-1.0,0.0,0.0,0.0,0.0,0.0,0.0,0.0,0.0,0.0,0.0,0.0,0.0,11.0,12.0,13.0,14.0,53.154
2024-04-02 23:46:59,360.0,1.0625,2.0,-0.016984467717252892,0.0,0.0,-1.0,0.0,0.0,0.0,0.0,0.0,0.0,0.0,0.0,0.0,0.0,0.0,0.0,11.0,12.0,13.0,14.0,53.692
2024-04-02 23:46:59,360.0,1.0625,2.0,-0.016984467717252892,0.0,0.0,130.0,0.0,0.0,0.0,0.0,0.0,0.0,0.0,0.0,0.0,0.0,0.0,0.0,11.0,12.0,13.0,14.0,53.692
2024-04-02 23:46:59,360.0,1.0625,2.0,-0.016984467717252892,0.0,0.0,-1.0,0.0,0.0,0.0,0.0,0.0,0.0,0.0,0.0,0.0,0.0,0.0,0.0,11.0,12.0,13.0,14.0,53.692
2024-04-02 23:46:59,360.0,1.0625,2.0,-0.016984467717252892,0.0,0.0,-1.0,0.0,0.0,0.0,0.0,0.0,0.0,0.0,0.0,0.0,0.0,0.0,0.0,11.0,12.0,13.0,14.0,52.616
2024-04-02 23:46:59,360.0,1.0625,2.0,-0.016984467717252892,0.0,0.0,132.0,0.0,0.0,0.0,0.0,0.0,0.0,0.0,0.0,0.0,0.0,0.0,0.0,11.0,12.0,13.0,14.0,53.692
2024-04-02 23:46:59,360.0,1.0625,2.0,-0.016984467717252892,0.0,0.0,-1.0,0.0,0.0,0.0,0.0,0.0,0.0,0.0,0.0,0.0,0.0,0.0,0.0,11.0,12.0,13.0,14.0,53.692
2024-04-02 23:46:59,360.0,1.0625,2.0,-0.016984467717252892,0.0,0.0,-1.0,0.0,0.0,0.0,0.0,0.0,0.0,0.0,0.0,0.0,0.0,0.0,0.0,11.0,12.0,13.0,14.0,53.692
2024-04-02 23:46:59,360.0,1.0625,2.0,-0.016984467717252892,0.0,0.0,133.0,0.0,0.0,0.0,0.0,0.0,0.0,0.0,0.0,0.0,0.0,0.0,0.0,11.0,12.0,13.0,14.0,53.692
2024-04-02 23:46:59,360.0,1.0625,2.0,-0.016984467717252892,0.0,0.0,-1.0,0.0,0.0,0.0,0.0,0.0,0.0,0.0,0.0,0.0,0.0,0.0,0.0,11.0,12.0,13.0,14.0,53.692
2024-04-02 23:46:59,360.0,1.0625,2.0,-0.016984467717252892,0.0,0.0,-1.0,0.0,0.0,0.0,0.0,0.0,0.0,0.0,0.0,0.0,0.0,0.0,0.0,11.0,12.0,13.0,14.0,53.154
2024-04-02 23:46:59,360.0,1.0625,2.0,-0.016984467717252892,0.0,0.0,-1.0,0.0,0.0,0.0,0.0,0.0,0.0,0.0,0.0,0.0,0.0,0.0,0.0,11.0,12.0,13.0,14.0,53.692
2024-04-02 23:46:59,360.0,1.0625,2.0,-0.01599700453225677,0.0,0.0,-1.0,0.0,0.0,0.0,0.0,0.0,0.0,0.0,0.0,0.0,0.0,0.0,0.0,11.0,12.0,13.0,14.0,53.692
2024-04-02 23:47:00,360.0,1.0625,2.0,-0.01599700453225677,0.0,0.0,133.0,0.0,0.0,0.0,0.0,0.0,0.0,0.0,0.0,0.0,0.0,0.0,0.0,11.0,12.0,13.0,14.0,53.154
2024-04-02 23:47:00,360.0,1.0625,2.0,-0.01599700453225677,0.0,0.0,-1.0,0.0,0.0,0.0,0.0,0.0,0.0,0.0,0.0,0.0,0.0,0.0,0.0,11.0,12.0,13.0,14.0,53.692
2024-04-02 23:47:00,360.0,1.0625,2.0,-0.01599700453225677,0.0,0.0,-1.0,0.0,0.0,0.0,0.0,0.0,0.0,0.0,0.0,0.0,0.0,0.0,0.0,11.0,12.0,13.0,14.0,53.692
2024-04-02 23:47:00,360.0,1.0625,2.0,-0.01599700453225677,0.0,0.0,0.0,0.0,0.0,0.0,0.0,0.0,0.0,0.0,0.0,0.0,0.0,0.0,0.0,11.0,12.0,13.0,14.0,53.692
2024-04-02 23:47:00,360.0,1.0625,2.0,-0.01599700453225677,0.0,0.0,-1.0,0.0,0.0,0.0,0.0,0.0,0.0,0.0,0.0,0.0,0.0,0.0,0.0,11.0,12.0,13.0,14.0,53.692
2024-04-02 23:47:00,360.0,1.0625,2.0,-0.01599700453225677,0.0,0.0,-1.0,0.0,0.0,0.0,0.0,0.0,0.0,0.0,0.0,0.0,0.0,0.0,0.0,11.0,12.0,13.0,14.0,53.692
2024-04-02 23:47:00,360.0,1.0625,2.0,-0.01599700453225677,0.0,0.0,132.0,0.0,0.0,0.0,0.0,0.0,0.0,0.0,0.0,0.0,0.0,0.0,0.0,11.0,12.0,13.0,14.0,53.692
2024-04-02 23:47:00,360.0,1.0625,2.0,-0.01599700453225677,0.0,0.0,-1.0,0.0,0.0,0.0,0.0,0.0,0.0,0.0,0.0,0.0,0.0,0.0,0.0,11.0,12.0,13.0,14.0,53.154
2024-04-02 23:47:00,360.0,1.0625,2.0,-0.01599700453225677,0.0,0.0,-1.0,0.0,0.0,0.0,0.0,0.0,0.0,0.0,0.0,0.0,0.0,0.0,0.0,11.0,12.0,13.0,14.0,53.692
2024-04-02 23:47:00,360.0,1.0625,2.0,-0.0175235457861801,0.0,0.0,132.0,0.0,0.0,0.0,0.0,0.0,0.0,-0.19978658536585367,-0.19978658536585367,0.0,0.0,0.0,0.0,11.0,12.0,13.0,14.0,53.692
2024-04-02 23:47:00,360.0,1.0625,2.0,-0.0175235457861801,0.0,0.0,-1.0,0.0,0.0,0.0,0.0,0.0,0.0,-0.0,0.0,0.0,0.0,0.0,0.0,11.0,12.0,13.0,14.0,53.692
2024-04-02 23:47:00,360.0,1.0625,2.0,-0.0175235457861801,0.0,0.0,-1.0,0.0,0.0,0.0,0.0,0.0,0.0,-0.0,0.0,0.0,0.0,0.0,0.0,11.0,12.0,13.0,14.0,53.692
2024-04-02 23:47:00,360.0,1.0625,2.0,-0.0175235457861801,0.0,0.0,-1.0,0.0,0.0,0.0,0.0,0.0,0.0,-0.0,0.0,0.0,0.0,0.0,0.0,11.0,12.0,13.0,14.0,53.154
2024-04-02 23:47:01,360.0,1.0625,2.0,-0.0175235457861801,0.0,0.0,-1.0,0.0,0.0,0.0,0.0,0.0,0.0,0.26246951219512193,0.26246951219512193,0.0,0.0,0.0,0.0,11.0,12.0,13.0,14.0,53.692
2024-04-02 23:47:01,360.0,1.0625,2.0,-0.0175235457861801,0.0,0.0,-1.0,0.0,0.0,0.0,0.0,0.0,0.0,-0.22329268292682927,-0.22329268292682927,0.0,0.0,0.0,0.0,11.0,12.0,13.0,14.0,53.154
2024-04-02 23:47:01,360.0,1.0625,2.0,-0.0175235457861801,0.0,0.0,-1.0,0.0,0.0,0.0,0.0,0.0,0.0,-0.0,0.0,0.0,0.0,0.0,0.0,11.0,12.0,13.0,14.0,53.692
2024-04-02 23:47:01,360.0,1.0625,2.0,-0.0175235457861801,0.0,0.0,-1.0,0.0,0.0,0.0,0.0,0.0,0.0,-0.0,0.0,0.0,0.0,0.0,0.0,11.0,12.0,13.0,14.0,53.692
2024-04-02 23:47:01,360.0,1.0625,2.0,-0.0175235457861801,0.0,0.0,-1.0,0.0,0.0,0.08225609756097561,-0.08225609756097561,-0.08225609756097561,0.08225609756097561,0.38,0.38,0.0,0.0,0.0,0.0,11.0,12.0,13.0,14.0,53.692
2024-04-02 23:47:01,360.0,1.0625,2.0,-0.0175235457861801,0.0,0.0,-1.0,0.0,0.0,0.09009146341463414,-0.09009146341463414,-0.09009146341463414,0.09009146341463414,0.9989939024390244,0.9989939024390244,0.0,0.0,0.0,0.0,11.0,12.0,13.0,14.0,53.154
2024-04-02 23:47:01,360.0,1.0625,2.0,-0.0175235457861801,0.0,0.0,-1.0,0.0,0.0,0.0,0.0,0.0,0.0,-0.0,0.0,0.0,0.0,0.0,0.0,11.0,12.0,13.0,14.0,53.692
2024-04-02 23:47:01,360.0,1.0625,2.0,-0.0175235457861801,0.0,0.0,-1.0,0.0,0.0,0.0,0.0,0.0,0.0,-0.0,0.0,0.0,0.0,0.0,0.0,11.0,12.0,13.0,14.0,53.692
2024-04-02 23:47:01,360.0,1.0625,2.0,-0.0175235457861801,0.0,0.0,-1.0,0.0,0.0,0.0,0.0,0.0,0.0,-0.0,0.0,0.0,0.0,0.0,0.0,11.0,12.0,13.0,14.0,53.154
2024-04-02 23:47:01,360.0,1.0625,2.0,-0.015825057651227506,0.0,0.0,0.0,0.0,0.0,0.0,0.0,0.0,0.0,-0.0,0.0,0.0,0.0,0.0,0.0,11.0,12.0,13.0,14.0,53.692
2024-04-02 23:47:01,360.0,1.0625,2.0,-0.015825057651227506,0.0,0.0,-1.0,0.0,0.0,0.0,0.0,0.0,0.0,-0.0,0.0,0.0,0.0,0.0,0.0,11.0,12.0,13.0,14.0,53.692
2024-04-02 23:47:01,360.0,1.0625,2.0,-0.015825057651227506,0.0,0.0,-1.0,0.0,0.0,0.0,0.0,0.0,0.0,-0.0,0.0,0.0,0.0,0.0,0.0,11.0,12.0,13.0,14.0,53.692
2024-04-02 23:47:01,360.0,1.0625,2.0,-0.015825057651227506,0.0,0.0,-1.0,0.0,0.0,0.0,0.0,0.0,0.0,-0.0,0.0,0.0,0.0,0.0,0.0,11.0,12.0,13.0,14.0,53.154
2024-04-02 23:47:01,360.0,1.0625,2.0,-0.015825057651227506,0.0,0.0,-1.0,0.0,0.0,0.0,0.0,0.0,0.0,-0.0,0.0,0.0,0.0,0.0,0.0,11.0,12.0,13.0,14.0,53.692
2024-04-02 23:47:01,360.0,1.0625,2.0,-0.015825057651227506,0.0,0.0,-1.0,0.0,0.0,0.0,0.0,0.0,0.0,-0.0,0.0,0.0,0.0,0.0,0.0,11.0,12.0,13.0,14.0,53.692
2024-04-02 23:47:02,360.0,1.0625,2.0,-0.015825057651227506,0.0,0.0,-1.0,0.0,0.0,0.0,0.0,0.0,0.0,-0.0,0.0,0.0,0.0,0.0,0.0,11.0,12.0,13.0,14.0,53.692
2024-04-02 23:47:02,360.0,1.0625,2.0,-0.015825057651227506,0.0,0.0,-1.0,0.0,0.0,0.0,0.0,0.0,0.0,-0.0,0.0,0.0,0.0,0.0,0.0,11.0,12.0,13.0,14.0,53.692
2024-04-02 23:47:02,360.0,1.0625,2.0,-0.015825057651227506,0.0,0.0,-1.0,0.0,0.0,0.0,0.0,0.0,0.0,-0.0,0.0,0.0,0.0,0.0,0.0,11.0,12.0,13.0,14.0,53.692
2024-04-02 23:47:02,360.0,1.0625,2.0,-0.015825057651227506,0.0,0.0,-1.0,0.0,0.0,0.0,0.0,0.0,0.0,-0.0,0.0,0.0,0.0,0.0,0.0,11.0,12.0,13.0,14.0,53.692
2024-04-02 23:47:02,360.0,1.0625,2.0,-0.015825057651227506,0.0,0.0,-1.0,0.0,0.0,0.0,0.0,0.0,0.0,-0.0,0.0,0.0,0.0,0.0,0.0,11.0,12.0,13.0,14.0,53.692
2024-04-02 23:47:02,360.0,1.0625,2.0,-0.015825057651227506,0.0,0.0,132.0,0.0,0.0,0.0,0.0,0.0,0.0,-0.0,0.0,0.0,0.0,0.0,0.0,11.0,12.0,13.0,14.0,53.692
2024-04-02 23:47:02,360.0,1.0625,2.0,-0.015825057651227506,0.0,0.0,-1.0,0.0,0.0,0.0,0.0,0.0,0.0,-0.0,0.0,0.0,0.0,0.0,0.0,11.0,12.0,13.0,14.0,53.692
2024-04-02 23:47:02,360.0,1.0625,2.0,-0.016313573293109666,0.0,0.0,0.0,0.0,0.0,0.0,0.0,0.0,0.0,-0.0,0.0,0.0,0.0,0.0,0.0,11.0,12.0,13.0,14.0,53.692
2024-04-02 23:47:02,360.0,1.0625,2.0,-0.016313573293109666,0.0,0.0,-1.0,0.0,0.0,0.0,0.0,0.0,0.0,-0.0,0.0,0.0,0.0,0.0,0.0,11.0,12.0,13.0,14.0,53.692
2024-04-02 23:47:02,360.0,1.0625,2.0,-0.016313573293109666,0.0,0.0,-1.0,0.0,0.0,0.0,0.0,0.0,0.0,-0.0,0.0,0.0,0.0,0.0,0.0,11.0,12.0,13.0,14.0,53.692
2024-04-02 23:47:02,360.0,1.0625,2.0,-0.016313573293109666,0.0,0.0,131.0,0.0,0.0,0.0,0.0,0.0,0.0,-0.0,0.0,0.0,0.0,0.0,0.0,11.0,12.0,13.0,14.0,53.154
2024-04-02 23:47:02,360.0,1.0625,2.0,-0.016313573293109666,0.0,0.0,-1.0,0.0,0.0,0.0,0.0,0.0,0.0,-0.0,0.0,0.0,0.0,0.0,0.0,11.0,12.0,13.0,14.0,53.154
2024-04-02 23:47:02,360.0,1.0625,2.0,-0.016313573293109666,0.0,0.0,-1.0,0.0,0.0,0.0,0.0,0.0,0.0,-0.0,0.0,0.0,0.0,0.0,0.0,11.0,12.0,13.0,14.0,53.692
2024-04-02 23:47:02,360.0,1.0625,2.0,-0.016313573293109666,0.0,0.0,133.0,0.0,0.0,0.0,0.0,0.0,0.0,-0.0,0.0,0.0,0.0,0.0,0.0,11.0,12.0,13.0,14.0,53.692
2024-04-02 23:47:03,360.0,1.0625,2.0,-0.016313573293109666,0.0,0.0,-1.0,0.0,0.0,0.0,0.0,0.0,0.0,-0.0,0.0,0.0,0.0,0.0,0.0,11.0,12.0,13.0,14.0,53.692
2024-04-02 23:47:03,360.0,1.0625,2.0,-0.016313573293109666,0.0,0.0,0.0,0.0,0.0,0.0,0.0,0.0,0.0,-0.0,0.0,0.0,0.0,0.0,0.0,11.0,12.0,13.0,14.0,52.616
2024-04-02 23:47:03,360.0,1.0625,2.0,-0.016313573293109666,0.0,0.0,-1.0,0.0,0.0,0.0,0.0,0.0,0.0,-0.0,0.0,0.0,0.0,0.0,0.0,11.0,12.0,13.0,14.0,53.154
2024-04-02 23:47:03,360.0,1.0625,2.0,-0.016313573293109666,0.0,0.0,133.0,0.0,0.0,0.0,0.0,0.0,0.0,-0.0,0.0,0.0,0.0,0.0,0.0,11.0,12.0,13.0,14.0,53.692
2024-04-02 23:47:03,360.0,1.0625,2.0,-0.016313573293109666,0.0,0.0,-1.0,0.0,0.0,0.0,0.0,0.0,0.0,-0.0,0.0,0.0,0.0,0.0,0.0,11.0,12.0,13.0,14.0,53.154
2024-04-02 23:47:03,360.0,1.0625,2.0,-0.016313573293109666,0.0,0.0,-1.0,0.0,0.0,0.0,0.0,0.0,0.0,-0.0,0.0,0.0,0.0,0.0,0.0,11.0,12.0,13.0,14.0,53.692
2024-04-02 23:47:03,360.0,1.0625,2.0,-0.017422152485359454,0.0,0.0,0.0,0.0,0.0,0.0,0.0,0.0,0.0,-0.0,0.0,0.0,0.0,0.0,0.0,11.0,12.0,13.0,14.0,53.692
2024-04-02 23:47:03,360.0,1.0625,2.0,-0.017422152485359454,0.0,0.0,-1.0,0.0,0.0,0.0,0.0,0.0,0.0,-0.0,0.0,0.0,0.0,0.0,0.0,11.0,12.0,13.0,14.0,53.692
2024-04-02 23:47:03,360.0,1.0625,2.0,-0.017422152485359454,0.0,0.0,-1.0,0.0,0.0,0.0,0.0,0.0,0.0,-0.0,0.0,0.0,0.0,0.0,0.0,11.0,12.0,13.0,14.0,53.692
2024-04-02 23:47:03,360.0,1.0625,2.0,-0.017422152485359454,0.0,0.0,-1.0,0.0,0.0,0.0,0.0,0.0,0.0,-0.0,0.0,0.0,0.0,0.0,0.0,11.0,12.0,13.0,14.0,53.692
2024-04-02 23:47:03,360.0,1.0625,2.0,-0.017422152485359454,0.0,0.0,-1.0,0.0,0.0,0.0,0.0,0.0,0.0,-0.0,0.0,0.0,0.0,0.0,0.0,11.0,12.0,13.0,14.0,53.692
2024-04-02 23:47:03,360.0,1.0625,2.0,-0.017422152485359454,0.0,0.0,-1.0,0.0,0.0,0.0,0.0,0.0,0.0,-0.0,0.0,0.0,0.0,0.0,0.0,11.0,12.0,13.0,14.0,53.692
2024-04-02 23:47:03,360.0,1.0625,2.0,-0.017422152485359454,0.0,0.0,-1.0,0.0,0.0,0.0,0.0,0.0,0.0,-0.0,0.0,0.0,0.0,0.0,0.0,11.0,12.0,13.0,14.0,53.692
2024-04-02 23:47:04,360.0,1.0625,2.0,-0.017422152485359454,0.0,0.0,-1.0,0.0,0.0,0.0,0.0,0.0,0.0,-0.0,0.0,0.0,0.0,0.0,0.0,11.0,12.0,13.0,14.0,53.692
2024-04-02 23:47:04,360.0,1.0625,2.0,-0.017422152485359454,0.0,0.0,-1.0,0.0,0.0,0.0,0.0,0.0,0.0,-0.0,0.0,0.0,0.0,0.0,0.0,11.0,12.0,13.0,14.0,53.692
2024-04-02 23:47:04,360.0,1.0625,2.0,-0.017422152485359454,0.0,0.0,-1.0,0.0,0.0,0.0,0.0,0.0,0.0,-0.0,0.0,0.0,0.0,0.0,0.0,11.0,12.0,13.0,14.0,53.692
2024-04-02 23:47:04,360.0,1.0625,2.0,-0.017422152485359454,0.0,0.0,-1.0,0.0,0.0,0.0,0.0,0.0,0.0,-0.0,0.0,0.0,0.0,0.0,0.0,11.0,12.0,13.0,14.0,53.692
2024-04-02 23:47:04,360.0,1.0625,2.0,-0.01703533541538195,0.0,0.0,132.0,0.0,0.0,0.0,0.0,0.0,0.0,-0.0,0.0,0.0,0.0,0.0,0.0,11.0,12.0,13.0,14.0,53.692
2024-04-02 23:47:04,360.0,1.0625,2.0,-0.01703533541538195,0.0,0.0,-1.0,0.0,0.0,0.0,0.0,0.0,0.0,-0.0,0.0,0.0,0.0,0.0,0.0,11.0,12.0,13.0,14.0,53.692
2024-04-02 23:47:04,360.0,1.0625,2.0,-0.01703533541538195,0.0,0.0,-1.0,0.0,0.0,0.0,0.0,0.0,0.0,-0.0,0.0,0.0,0.0,0.0,0.0,11.0,12.0,13.0,14.0,53.692
2024-04-02 23:47:04,360.0,1.0625,2.0,-0.01703533541538195,0.0,0.0,-1.0,0.0,0.0,0.0,0.0,0.0,0.0,-0.0,0.0,0.0,0.0,0.0,0.0,11.0,12.0,13.0,14.0,53.692
2024-04-02 23:47:04,360.0,1.0625,2.0,-0.01703533541538195,0.0,0.0,-1.0,0.0,0.0,0.0,0.0,0.0,0.0,-0.0,0.0,0.0,0.0,0.0,0.0,11.0,12.0,13.0,14.0,53.154
2024-04-02 23:47:04,360.0,1.0625,2.0,-0.01703533541538195,0.0,0.0,-1.0,0.0,0.0,0.0,0.0,0.0,0.0,-0.0,0.0,0.0,0.0,0.0,0.0,11.0,12.0,13.0,14.0,53.692
2024-04-02 23:47:04,360.0,1.0625,2.0,-0.01703533541538195,0.0,0.0,-1.0,0.0,0.0,0.0,0.0,0.0,0.0,-0.0,0.0,0.0,0.0,0.0,0.0,11.0,12.0,13.0,14.0,53.692
2024-04-02 23:47:04,360.0,1.0625,2.0,-0.01703533541538195,0.0,0.0,133.0,0.0,0.0,0.0,0.0,0.0,0.0,-0.0,0.0,0.0,0.0,0.0,0.0,11.0,12.0,13.0,14.0,53.154
2024-04-02 23:47:04,360.0,1.0625,2.0,-0.01703533541538195,0.0,0.0,-1.0,0.0,0.0,0.0,0.0,0.0,0.0,-0.0,0.0,0.0,0.0,0.0,0.0,11.0,12.0,13.0,14.0,53.692
2024-04-02 23:47:05,360.0,1.0625,2.0,-0.01703533541538195,0.0,0.0,132.0,0.0,0.0,0.0,0.0,0.0,0.0,-0.0,0.0,0.0,0.0,0.0,0.0,11.0,12.0,13.0,14.0,53.692
2024-04-02 23:47:05,360.0,1.0625,2.0,-0.01703533541538195,0.0,0.0,-1.0,0.0,0.0,0.0,0.0,0.0,0.0,-0.0,0.0,0.0,0.0,0.0,0.0,11.0,12.0,13.0,14.0,53.692
2024-04-02 23:47:05,360.0,1.0625,2.0,-0.01703533541538195,0.0,0.0,-1.0,0.0,0.0,0.0,0.0,0.0,0.0,-0.0,0.0,0.0,0.0,0.0,0.0,11.0,12.0,13.0,14.0,53.692
2024-04-02 23:47:05,360.0,1.0625,2.0,-0.01496824632703187,0.0,0.0,0.0,0.0,0.0,0.0,0.0,0.0,0.0,-0.0,0.0,0.0,0.0,0.0,0.0,11.0,12.0,13.0,14.0,53.692
2024-04-02 23:47:05,360.0,1.0625,2.0,-0.01496824632703187,0.0,0.0,-1.0,0.0,0.0,0.0,0.0,0.0,0.0,-0.0,0.0,0.0,0.0,0.0,0.0,11.0,12.0,13.0,14.0,54.23
2024-04-02 23:47:05,360.0,1.0625,2.0,-0.01496824632703187,0.0,0.0,-1.0,0.0,0.0,0.0,0.0,0.0,0.0,-0.0,0.0,0.0,0.0,0.0,0.0,11.0,12.0,13.0,14.0,53.692
2024-04-02 23:47:05,360.0,1.0625,2.0,-0.01496824632703187,0.0,0.0,-1.0,0.0,0.0,0.0,0.0,0.0,0.0,-0.0,0.0,0.0,0.0,0.0,0.0,11.0,12.0,13.0,14.0,53.692
2024-04-02 23:47:05,360.0,1.0625,2.0,-0.01496824632703187,0.0,0.0,-1.0,0.0,0.0,0.0,0.0,0.0,0.0,-0.0,0.0,0.0,0.0,0.0,0.0,11.0,12.0,13.0,14.0,53.692
2024-04-02 23:47:05,360.0,1.0625,2.0,-0.01496824632703187,0.0,0.0,129.0,0.0,0.0,0.0,0.0,0.0,0.0,-0.0,0.0,0.0,0.0,0.0,0.0,11.0,12.0,13.0,14.0,53.692
2024-04-02 23:47:05,360.0,1.0625,2.0,-0.01496824632703187,0.0,0.0,-1.0,0.0,0.0,0.0,0.0,0.0,0.0,-0.0,0.0,0.0,0.0,0.0,0.0,11.0,12.0,13.0,14.0,53.692
2024-04-02 23:47:05,360.0,1.0625,2.0,-0.01496824632703187,0.0,0.0,-1.0,0.0,0.0,0.0,0.0,0.0,0.0,-0.0,0.0,0.0,0.0,0.0,0.0,11.0,12.0,13.0,14.0,53.692
2024-04-02 23:47:05,360.0,1.0625,2.0,-0.01496824632703187,0.0,0.0,133.0,0.0,0.0,0.0,0.0,0.0,0.0,-0.0,0.0,0.0,0.0,0.0,0.0,11.0,12.0,13.0,14.0,53.692
2024-04-02 23:47:05,360.0,1.0625,2.0,-0.01496824632703187,0.0,0.0,-1.0,0.0,0.0,0.0,0.0,0.0,0.0,-0.0,0.0,0.0,0.0,0.0,0.0,11.0,12.0,13.0,14.0,53.154
2024-04-02 23:47:05,360.0,1.0625,2.0,-0.01496824632703187,0.0,0.0,-1.0,0.0,0.0,0.0,0.0,0.0,0.0,-0.0,0.0,0.0,0.0,0.0,0.0,11.0,12.0,13.0,14.0,53.692
2024-04-02 23:47:06,360.0,1.0625,2.0,-0.01496824632703187,0.0,0.0,132.0,0.0,0.0,0.0,0.0,0.0,0.0,-0.0,0.0,0.0,0.0,0.0,0.0,11.0,12.0,13.0,14.0,53.692
2024-04-02 23:47:06,360.0,1.0625,2.0,-0.01496824632703187,0.0,0.0,-1.0,0.0,0.0,0.0,0.0,0.0,0.0,-0.0,0.0,0.0,0.0,0.0,0.0,11.0,12.0,13.0,14.0,53.692
2024-04-02 23:47:06,360.0,1.0625,2.0,-0.015685339491485463,0.0,0.0,132.0,0.0,0.0,0.0,0.0,0.0,0.0,-0.0,0.0,0.0,0.0,0.0,0.0,11.0,12.0,13.0,14.0,53.692
2024-04-02 23:47:06,360.0,1.0625,2.0,-0.015685339491485463,0.0,0.0,-1.0,0.0,0.0,0.0,0.0,0.0,0.0,-0.0,0.0,0.0,0.0,0.0,0.0,11.0,12.0,13.0,14.0,53.692
2024-04-02 23:47:06,360.0,1.0625,2.0,-0.015685339491485463,0.0,0.0,-1.0,0.0,0.0,0.17628048780487804,-0.17628048780487804,-0.17628048780487804,0.17628048780487804,0.7247560975609756,0.7247560975609756,0.0,0.0,0.0,0.0,11.0,12.0,13.0,14.0,53.692
2024-04-02 23:47:06,360.0,1.0625,2.0,-0.015685339491485463,0.0,0.0,-1.0,0.0,0.0,0.0,0.0,0.0,0.0,-0.0,0.0,0.0,0.0,0.0,0.0,11.0,12.0,13.0,14.0,53.692
2024-04-02 23:47:06,360.0,1.0625,2.0,-0.015685339491485463,0.0,0.0,-1.0,0.0,0.0,0.0,0.0,0.0,0.0,-0.0,0.0,0.0,0.0,0.0,0.0,11.0,12.0,13.0,14.0,53.154
2024-04-02 23:47:06,360.0,1.0625,2.0,-0.015685339491485463,0.0,0.0,-1.0,0.0,0.0,0.0,0.0,0.0,0.0,-0.0,0.0,0.0,0.0,0.0,0.0,11.0,12.0,13.0,14.0,53.154
2024-04-02 23:47:06,360.0,1.0625,2.0,-0.015685339491485463,0.0,0.0,-1.0,0.0,0.0,0.0,0.0,0.0,0.0,-0.0,0.0,0.0,0.0,0.0,0.0,11.0,12.0,13.0,14.0,54.23
2024-04-02 23:47:06,360.0,1.0625,2.0,-0.015685339491485463,0.0,0.0,134.0,0.0,0.0,0.0,0.0,0.0,0.0,-0.0,0.0,0.0,0.0,0.0,0.0,11.0,12.0,13.0,14.0,53.692
2024-04-02 23:47:06,360.0,1.0625,2.0,-0.015685339491485463,0.0,0.0,-1.0,0.0,0.0,0.0,0.0,0.0,0.0,-0.0,0.0,0.0,0.0,0.0,0.0,11.0,12.0,13.0,14.0,53.692
2024-04-02 23:47:06,360.0,1.0625,2.0,-0.015685339491485463,0.0,0.0,-1.0,0.0,0.0,0.0,0.0,0.0,0.0,-0.0,0.0,0.0,0.0,0.0,0.0,11.0,12.0,13.0,14.0,53.692
2024-04-02 23:47:07,360.0,1.0625,2.0,-0.015685339491485463,0.0,0.0,133.0,0.0,0.0,0.0,0.0,0.0,0.0,-0.0,0.0,0.0,0.0,0.0,0.0,11.0,12.0,13.0,14.0,53.692
2024-04-02 23:47:07,360.0,1.0625,2.0,-0.015685339491485463,0.0,0.0,-1.0,0.0,0.0,0.0,0.0,0.0,0.0,-0.0,0.0,0.0,0.0,0.0,0.0,11.0,12.0,13.0,14.0,53.692
2024-04-02 23:47:07,360.0,1.0625,2.0,-0.015685339491485463,0.0,0.0,-1.0,0.0,0.0,0.0,0.0,0.0,0.0,-0.0,0.0,0.0,0.0,0.0,0.0,11.0,12.0,13.0,14.0,53.692
2024-04-02 23:47:07,360.0,1.0625,2.0,-0.016260019224113888,0.0,0.0,130.0,0.0,0.0,0.0,0.0,0.0,0.0,-0.0,0.0,0.0,0.0,0.0,0.0,11.0,12.0,13.0,14.0,53.692
2024-04-02 23:47:07,360.0,1.0625,2.0,-0.016260019224113888,0.0,0.0,-1.0,0.0,0.0,0.0,0.0,0.0,0.0,0.09009146341463414,0.09009146341463414,0.0,0.0,0.0,0.0,11.0,12.0,13.0,14.0,53.692
2024-04-02 23:47:07,360.0,1.0625,2.0,-0.016260019224113888,0.0,0.0,-1.0,0.0,0.0,0.0,0.0,0.0,0.0,0.6385670731707317,0.6385670731707317,0.0,0.0,0.0,0.0,11.0,12.0,13.0,14.0,53.154
2024-04-02 23:47:07,360.0,1.0625,2.0,-0.016260019224113888,0.0,0.0,-1.0,0.0,0.0,0.10576219512195122,-0.10576219512195122,-0.10576219512195122,0.10576219512195122,0.9989939024390244,0.9989939024390244,0.0,0.0,0.0,0.0,11.0,12.0,13.0,14.0,53.692
2024-04-02 23:47:07,360.0,1.0625,2.0,-0.016260019224113888,0.0,0.0,-1.0,0.0,0.0,0.12143292682926829,-0.12143292682926829,-0.12143292682926829,0.12143292682926829,0.9989939024390244,0.9989939024390244,0.0,0.0,0.0,0.0,11.0,12.0,13.0,14.0,53.692
2024-04-02 23:47:07,360.0,1.0625,2.0,-0.016260019224113888,0.0,0.0,-1.0,0.0,0.0,0.12143292682926829,-0.12143292682926829,-0.12143292682926829,0.12143292682926829,0.9989939024390244,0.9989939024390244,0.0,0.0,0.0,0.0,11.0,12.0,13.0,14.0,53.692
2024-04-02 23:47:07,360.0,1.0625,2.0,-0.016260019224113888,0.0,0.0,-1.0,0.0,0.0,0.03524390243902439,-0.03524390243902439,-0.03524390243902439,0.03524390243902439,0.9128048780487805,0.9128048780487805,0.0,0.0,0.0,0.0,11.0,12.0,13.0,14.0,53.692
2024-04-02 23:47:07,359.9375,1.0625,2.0,-0.016260019224113888,0.0,0.0,-1.0,0.0,0.0,0.0,0.0,0.0,0.0,-0.0,0.0,0.0,0.0,0.0,0.0,11.0,12.0,13.0,14.0,53.692
2024-04-02 23:47:07,359.9375,1.0625,2.0,-0.016260019224113888,0.0,0.0,134.0,0.0,0.0,0.0,0.0,0.0,0.0,-0.0,0.0,0.0,0.0,0.0,0.0,11.0,12.0,13.0,14.0,53.692
2024-04-02 23:47:07,359.9375,1.0625,2.0,-0.016260019224113888,0.0,0.0,-1.0,0.0,0.0,0.0,0.0,0.0,0.0,-0.0,0.0,0.0,0.0,0.0,0.0,11.0,12.0,13.0,14.0,53.692
2024-04-02 23:47:07,359.9375,1.0625,2.0,-0.016260019224113888,0.0,0.0,-1.0,0.0,0.0,0.0,0.0,0.0,0.0,-0.0,0.0,0.0,0.0,0.0,0.0,11.0,12.0,13.0,14.0,53.154
2024-04-02 23:47:07,359.9375,1.0625,2.0,-0.016260019224113888,0.0,0.0,-1.0,0.0,0.0,0.0,0.0,0.0,0.0,-0.0,0.0,0.0,0.0,0.0,0.0,11.0,12.0,13.0,14.0,53.692
2024-04-02 23:47:08,359.9375,1.0625,2.0,-0.016260019224113888,0.0,0.0,-1.0,0.0,0.0,-0.22329268292682927,0.22329268292682927,0.22329268292682927,-0.22329268292682927,-0.7639329268292683,-0.7639329268292683,0.0,0.0,0.0,0.0,11.0,12.0,13.0,14.0,53.154
2024-04-02 23:47:08,359.9375,1.0625,2.0,-0.016471335531151342,0.0,0.0,132.0,0.0,0.0,-0.34865853658536583,0.34865853658536583,0.34865853658536583,-0.34865853658536583,-0.9989939024390244,-0.9989939024390244,0.0,0.0,0.0,0.0,11.0,12.0,13.0,14.0,53.692
2024-04-02 23:47:08,359.9375,1.0625,2.0,-0.016471335531151342,0.0,0.0,-1.0,0.0,0.0,-0.34865853658536583,0.34865853658536583,0.34865853658536583,-0.34865853658536583,-0.9989939024390244,-0.9989939024390244,0.0,0.0,0.0,0.0,11.0,12.0,13.0,14.0,53.692
2024-04-02 23:47:08,359.9375,1.0625,2.0625,-0.016471335531151342,0.0,0.0,-1.0,0.0,0.0,-0.34865853658536583,0.34865853658536583,0.34865853658536583,-0.34865853658536583,-0.9989939024390244,-0.9989939024390244,0.0,0.0,0.0,0.0,11.0,12.0,13.0,14.0,53.692
2024-04-02 23:47:08,359.9375,1.0625,2.0625,-0.016471335531151342,0.0,0.0,134.0,0.0,0.0,-0.12143292682926829,0.12143292682926829,0.12143292682926829,-0.12143292682926829,-0.9989939024390244,-0.9989939024390244,0.0,0.0,0.0,0.0,11.0,12.0,13.0,14.0,53.692
2024-04-02 23:47:08,359.9375,1.0625,2.0625,-0.016471335531151342,0.0,0.0,-1.0,0.0,0.0,0.0,0.0,0.0,0.0,-0.0,0.0,0.0,0.0,0.0,0.0,11.0,12.0,13.0,14.0,53.692
2024-04-02 23:47:08,359.9375,1.0625,2.0625,-0.016471335531151342,0.0,0.0,-1.0,0.0,0.0,0.0,0.0,0.0,0.0,-0.0,0.0,0.0,0.0,0.0,0.0,11.0,12.0,13.0,14.0,53.692
2024-04-02 23:47:08,359.9375,1.0625,2.0625,-0.016471335531151342,0.0,0.0,135.0,0.0,0.0,0.0,0.0,0.0,0.0,-0.0,0.0,0.0,0.0,0.0,0.0,11.0,12.0,13.0,14.0,53.692
2024-04-02 23:47:08,359.9375,1.0625,2.0625,-0.016471335531151342,0.0,0.0,-1.0,0.0,0.0,0.0,0.0,0.0,0.0,-0.0,0.0,0.0,0.0,0.0,0.0,11.0,12.0,13.0,14.0,53.692
2024-04-02 23:47:08,359.9375,1.0625,2.0625,-0.016471335531151342,0.0,0.0,-1.0,0.0,0.0,0.0,0.0,0.0,0.0,-0.0,0.0,0.0,0.0,0.0,0.0,11.0,12.0,13.0,14.0,54.23
2024-04-02 23:47:08,359.9375,1.0625,2.0625,-0.016471335531151342,0.0,0.0,133.0,0.0,0.0,0.0,0.0,0.0,0.0,-0.0,0.0,0.0,0.0,0.0,0.0,11.0,12.0,13.0,14.0,53.692
2024-04-02 23:47:08,359.9375,1.0625,2.0625,-0.016471335531151342,0.0,0.0,-1.0,0.0,0.0,0.0,0.0,0.0,0.0,-0.0,0.0,0.0,0.0,0.0,0.0,11.0,12.0,13.0,14.0,53.692
2024-04-02 23:47:08,359.9375,1.0625,2.0625,-0.016376411389290205,0.0,0.0,-1.0,0.0,0.0,0.0,0.0,0.0,0.0,-0.0,0.0,0.0,0.0,0.0,0.0,11.0,12.0,13.0,14.0,53.692
2024-04-02 23:47:08,359.9375,1.0625,2.0625,-0.016376411389290205,0.0,0.0,-1.0,0.0,0.0,0.0,0.0,0.0,0.0,-0.0,0.0,0.0,0.0,0.0,0.0,11.0,12.0,13.0,14.0,53.692
2024-04-02 23:47:09,359.9375,1.0625,2.0625,-0.016376411389290205,0.0,0.0,-1.0,0.0,0.0,0.0,0.0,0.0,0.0,-0.0,0.0,0.0,0.0,0.0,0.0,11.0,12.0,13.0,14.0,53.692
2024-04-02 23:47:09,359.9375,1.0625,2.0625,-0.016376411389290205,0.0,0.0,133.0,0.0,0.0,0.0,0.0,0.0,0.0,-0.0,0.0,0.0,0.0,0.0,0.0,11.0,12.0,13.0,14.0,53.154
2024-04-02 23:47:09,359.9375,1.0625,2.0625,-0.016376411389290205,0.0,0.0,-1.0,0.0,0.0,0.0,0.0,0.0,0.0,-0.0,0.0,0.0,0.0,0.0,0.0,11.0,12.0,13.0,14.0,53.692
2024-04-02 23:47:09,359.9375,1.0625,2.0625,-0.016376411389290205,0.0,0.0,-1.0,0.0,0.0,0.0,0.0,0.0,0.0,-0.0,0.0,0.0,0.0,0.0,0.0,11.0,12.0,13.0,14.0,53.692
2024-04-02 23:47:09,359.9375,1.0625,2.0625,-0.016376411389290205,0.0,0.0,133.0,0.0,0.0,0.0,0.0,0.0,0.0,-0.0,0.0,0.0,0.0,0.0,0.0,11.0,12.0,13.0,14.0,53.692
2024-04-02 23:47:09,359.9375,1.0625,2.0625,-0.016376411389290205,0.0,0.0,-1.0,0.0,0.0,0.0,0.0,0.0,0.0,-0.0,0.0,0.0,0.0,0.0,0.0,11.0,12.0,13.0,14.0,53.692
2024-04-02 23:47:09,359.9375,1.0625,2.0625,-0.016376411389290205,0.0,0.0,-1.0,0.0,0.0,-0.481859756097561,0.481859756097561,0.481859756097561,-0.481859756097561,-0.0,0.0,0.0,0.0,0.0,0.0,11.0,12.0,13.0,14.0,53.692
2024-04-02 23:47:09,359.9375,1.0625,2.0625,-0.016376411389290205,0.0,0.0,-1.0,0.0,0.0,-0.9989939024390244,0.9989939024390244,0.9989939024390244,-0.9989939024390244,0.05091463414634146,0.05091463414634146,0.0,0.0,0.0,0.0,11.0,12.0,13.0,14.0,53.692
2024-04-02 23:47:09,359.9375,1.0625,2.0625,-0.016376411389290205,0.0,0.0,-1.0,0.0,0.0,-0.9989939024390244,0.9989939024390244,0.9989939024390244,-0.9989939024390244,0.05091463414634146,0.05091463414634146,0.0,0.0,0.0,0.0,11.0,12.0,13.0,14.0,54.23
2024-04-02 23:47:09,359.9375,1.0625,2.0625,-0.016376411389290205,0.0,0.0,-1.0,0.0,0.0,-0.9989939024390244,0.9989939024390244,0.9989939024390244,-0.9989939024390244,0.05875,0.05875,0.0,0.0,0.0,0.0,11.0,12.0,13.0,14.0,53.692
2024-04-02 23:47:09,359.9375,1.0625,2.0625,-0.01783784414424641,0.0,0.0,-1.0,0.0,0.0,0.0,0.0,0.0,0.0,-0.0,0.0,0.0,0.0,0.0,0.0,11.0,12.0,13.0,14.0,53.154
2024-04-02 23:47:09,359.9375,1.0625,2.0625,-0.01783784414424641,0.0,0.0,-1.0,0.0,0.0,0.0,0.0,0.0,0.0,-0.0,0.0,0.0,0.0,0.0,0.0,11.0,12.0,13.0,14.0,53.692
2024-04-02 23:47:09,359.9375,1.0625,2.0625,-0.01783784414424641,0.0,0.0,142.0,0.0,0.0,0.0,0.0,0.0,0.0,-0.0,0.0,0.0,0.0,0.0,0.0,11.0,12.0,13.0,14.0,53.692
2024-04-02 23:47:10,359.9375,1.0625,2.0625,-0.01783784414424641,0.0,0.0,-1.0,0.0,0.0,0.15277439024390244,-0.15277439024390244,-0.15277439024390244,0.15277439024390244,-0.0,0.0,0.0,0.0,0.0,0.0,11.0,12.0,13.0,14.0,53.692
2024-04-02 23:47:10,359.9375,1.0625,2.0625,-0.01783784414424641,0.0,0.0,-1.0,0.0,0.0,0.9989939024390244,-0.9989939024390244,-0.9989939024390244,0.9989939024390244,-0.05875,-0.05875,0.0,0.0,0.0,0.0,11.0,12.0,13.0,14.0,53.692
2024-04-02 23:47:10,359.9375,1.0625,2.0625,-0.01783784414424641,0.0,0.0,0.0,0.0,0.0,0.9989939024390244,-0.9989939024390244,-0.9989939024390244,0.9989939024390244,-0.0,0.0,0.0,0.0,0.0,0.0,11.0,12.0,13.0,14.0,53.692
2024-04-02 23:47:10,359.9375,1.0625,2.0625,-0.01783784414424641,0.0,0.0,-1.0,0.0,0.0,0.9989939024390244,-0.9989939024390244,-0.9989939024390244,0.9989939024390244,-0.0,0.0,0.0,0.0,0.0,0.0,11.0,12.0,13.0,14.0,53.692
2024-04-02 23:47:10,359.9375,1.0625,2.0625,-0.01783784414424641,0.0,0.0,-1.0,0.0,0.0,0.9989939024390244,-0.9989939024390244,-0.9989939024390244,0.9989939024390244,-0.0,0.0,0.0,0.0,0.0,0.0,11.0,12.0,13.0,14.0,53.154
2024-04-02 23:47:10,359.9375,1.0625,2.0625,-0.01783784414424641,0.0,0.0,140.0,0.0,0.0,0.4348475609756098,-0.4348475609756098,-0.4348475609756098,0.4348475609756098,-0.0,0.0,0.0,0.0,0.0,0.0,11.0,12.0,13.0,14.0,53.692
2024-04-02 23:47:10,359.9375,1.0625,2.0625,-0.01783784414424641,0.0,0.0,-1.0,0.0,0.0,0.0,0.0,0.0,0.0,-0.0,0.0,0.0,0.0,0.0,0.0,11.0,12.0,13.0,14.0,53.692
2024-04-02 23:47:10,359.9375,1.0625,2.0625,-0.01783784414424641,0.0,0.0,-1.0,0.0,0.0,0.0,0.0,0.0,0.0,-0.0,0.0,0.0,0.0,0.0,0.0,11.0,12.0,13.0,14.0,53.692
2024-04-02 23:47:10,359.9375,1.0625,2.0625,-0.01783784414424641,0.0,0.0,141.0,0.0,0.0,0.0,0.0,0.0,0.0,-0.0,0.0,0.0,0.0,0.0,0.0,11.0,12.0,13.0,14.0,53.154
2024-04-02 23:47:10,359.9375,1.0625,2.0625,-0.01783784414424641,0.0,0.0,-1.0,0.0,0.0,-0.3721646341463415,0.3721646341463415,0.3721646341463415,-0.3721646341463415,-0.0,0.0,0.0,0.0,0.0,0.0,11.0,12.0,13.0,14.0,53.154
2024-04-02 23:47:10,359.9375,1.0625,2.0625,-0.01612092515403722,0.0,0.0,-1.0,0.0,0.0,-0.9989939024390244,0.9989939024390244,0.9989939024390244,-0.9989939024390244,0.05091463414634146,0.05091463414634146,0.0,0.0,0.0,0.0,11.0,12.0,13.0,14.0,53.692
2024-04-02 23:47:10,359.9375,1.0625,2.0625,-0.01612092515403722,0.0,0.0,-1.0,0.0,0.0,-0.583719512195122,0.583719512195122,0.583719512195122,-0.583719512195122,-0.0,0.0,0.0,0.0,0.0,0.0,11.0,12.0,13.0,14.0,53.692
2024-04-02 23:47:10,359.9375,1.0625,2.0625,-0.01612092515403722,0.0,0.0,-1.0,0.0,0.0,0.0,0.0,0.0,0.0,-0.0,0.0,0.0,0.0,0.0,0.0,11.0,12.0,13.0,14.0,53.692
2024-04-02 23:47:10,359.9375,1.0625,2.0625,-0.01612092515403722,0.0,0.0,143.0,0.0,0.0,0.0,0.0,0.0,0.0,-0.0,0.0,0.0,0.0,0.0,0.0,11.0,12.0,13.0,14.0,53.154
2024-04-02 23:47:11,359.9375,1.0625,2.0625,-0.01612092515403722,0.0,0.0,-1.0,0.0,0.0,0.0,0.0,0.0,0.0,-0.0,0.0,0.0,0.0,0.0,0.0,11.0,12.0,13.0,14.0,53.692
2024-04-02 23:47:11,359.9375,1.0625,2.0625,-0.01612092515403722,0.0,0.0,136.0,0.0,0.0,0.0,0.0,0.0,0.0,-0.0,0.0,0.0,0.0,0.0,0.0,11.0,12.0,13.0,14.0,53.692
2024-04-02 23:47:11,359.9375,1.0625,2.0625,-0.01612092515403722,0.0,0.0,-1.0,0.0,0.0,0.0,0.0,0.0,0.0,-0.0,0.0,0.0,0.0,0.0,0.0,11.0,12.0,13.0,14.0,53.692
2024-04-02 23:47:11,359.9375,1.0625,2.0625,-0.01612092515403722,0.0,0.0,135.0,0.0,0.0,0.0,0.0,0.0,0.0,-0.0,0.0,0.0,0.0,0.0,0.0,11.0,12.0,13.0,14.0,53.154
2024-04-02 23:47:11,359.9375,1.0625,2.0625,-0.01612092515403722,0.0,0.0,-1.0,0.0,0.0,0.0,0.0,0.0,0.0,-0.0,0.0,0.0,0.0,0.0,0.0,11.0,12.0,13.0,14.0,53.692
2024-04-02 23:47:11,359.9375,1.0625,2.0625,-0.01612092515403722,0.0,0.0,-1.0,0.0,0.0,0.0,0.0,0.0,0.0,-0.0,0.0,0.0,0.0,0.0,0.0,11.0,12.0,13.0,14.0,53.154
2024-04-02 23:47:11,359.9375,1.0625,2.0625,-0.01612092515403722,0.0,0.0,-1.0,0.0,0.0,0.0,0.0,0.0,0.0,-0.0,0.0,0.0,0.0,0.0,0.0,11.0,12.0,13.0,14.0,53.692
2024-04-02 23:47:11,359.9375,1.0625,2.0625,-0.01612092515403722,0.0,0.0,-1.0,0.0,0.0,0.0,0.0,0.0,0.0,-0.0,0.0,0.0,0.0,0.0,0.0,11.0,12.0,13.0,14.0,53.154
2024-04-02 23:47:11,359.9375,1.0625,2.0625,-0.01667202510100199,0.0,0.0,-1.0,0.0,0.0,0.0,0.0,0.0,0.0,-0.0,0.0,0.0,0.0,0.0,0.0,11.0,12.0,13.0,14.0,53.692
2024-04-02 23:47:11,359.9375,1.0625,2.0625,-0.01667202510100199,0.0,0.0,-1.0,0.0,0.0,0.0,0.0,0.0,0.0,-0.0,0.0,0.0,0.0,0.0,0.0,11.0,12.0,13.0,14.0,53.692
2024-04-02 23:47:11,359.9375,1.0625,2.0625,-0.01667202510100199,0.0,0.0,-1.0,0.0,0.0,0.0,0.0,0.0,0.0,-0.0,0.0,0.0,0.0,0.0,0.0,11.0,12.0,13.0,14.0,53.692
2024-04-02 23:47:11,359.9375,1.0625,2.0625,-0.01667202510100199,0.0,0.0,134.0,0.0,0.0,0.0,0.0,0.0,0.0,-0.0,0.0,0.0,0.0,0.0,0.0,11.0,12.0,13.0,14.0,53.692
2024-04-02 23:47:12,359.9375,1.0625,2.0625,-0.01667202510100199,0.0,0.0,-1.0,0.0,0.0,0.0,0.0,0.0,0.0,-0.0,0.0,0.0,0.0,0.0,0.0,11.0,12.0,13.0,14.0,53.692
2024-04-02 23:47:12,359.9375,1.0625,2.0625,-0.01667202510100199,0.0,0.0,-1.0,0.0,0.0,0.0,0.0,0.0,0.0,-0.0,0.0,0.0,0.0,0.0,0.0,11.0,12.0,13.0,14.0,53.692
2024-04-02 23:47:12,359.9375,1.0625,2.0625,-0.01667202510100199,0.0,0.0,-1.0,0.0,0.0,0.0,0.0,0.0,0.0,-0.0,0.0,0.0,0.0,0.0,0.0,11.0,12.0,13.0,14.0,53.692
2024-04-02 23:47:12,359.9375,1.0625,2.0625,-0.01667202510100199,0.0,0.0,-1.0,0.0,0.0,0.0,0.0,0.0,0.0,-0.0,0.0,0.0,0.0,0.0,0.0,11.0,12.0,13.0,14.0,53.692
2024-04-02 23:47:12,359.9375,1.0625,2.0625,-0.01667202510100199,0.0,0.0,-1.0,0.0,0.0,0.0,0.0,0.0,0.0,-0.0,0.0,0.0,0.0,0.0,0.0,11.0,12.0,13.0,14.0,53.692
2024-04-02 23:47:12,359.9375,1.0625,2.0625,-0.01667202510100199,0.0,0.0,-1.0,0.0,0.0,0.0,0.0,0.0,0.0,-0.0,0.0,0.0,0.0,0.0,0.0,11.0,12.0,13.0,14.0,53.692
2024-04-02 23:47:12,359.9375,1.0625,2.0625,-0.01667202510100199,0.0,0.0,-1.0,0.0,0.0,0.0,0.0,0.0,0.0,-0.0,0.0,0.0,0.0,0.0,0.0,11.0,12.0,13.0,14.0,53.154
2024-04-02 23:47:12,359.9375,1.0625,2.0625,-0.01667202510100199,0.0,0.0,-1.0,0.0,0.0,0.0,0.0,0.0,0.0,-0.0,0.0,0.0,0.0,0.0,0.0,11.0,12.0,13.0,14.0,53.692
2024-04-02 23:47:12,359.9375,1.0625,2.0625,-0.01623926822897468,0.0,0.0,-1.0,0.0,0.0,0.0,0.0,0.0,0.0,-0.0,0.0,0.0,0.0,0.0,0.0,11.0,12.0,13.0,14.0,53.692
2024-04-02 23:47:12,359.9375,1.0625,2.0625,-0.01623926822897468,0.0,0.0,-1.0,0.0,0.0,0.0,0.0,0.0,0.0,-0.0,0.0,0.0,0.0,0.0,0.0,11.0,12.0,13.0,14.0,53.692
2024-04-02 23:47:12,359.9375,1.0625,2.0625,-0.01623926822897468,0.0,0.0,133.0,0.0,0.0,0.0,0.0,0.0,0.0,-0.0,0.0,0.0,0.0,0.0,0.0,11.0,12.0,13.0,14.0,53.692
2024-04-02 23:47:12,359.9375,1.0625,2.0625,-0.01623926822897468,0.0,0.0,-1.0,0.0,0.0,0.0,0.0,0.0,0.0,-0.0,0.0,0.0,0.0,0.0,0.0,11.0,12.0,13.0,14.0,53.692
2024-04-02 23:47:12,359.9375,1.0625,2.0625,-0.01623926822897468,0.0,0.0,-1.0,0.0,0.0,0.0,0.0,0.0,0.0,-0.0,0.0,0.0,0.0,0.0,0.0,11.0,12.0,13.0,14.0,53.692
2024-04-02 23:47:13,359.9375,1.0625,2.0625,-0.01623926822897468,0.0,0.0,-1.0,0.0,0.0,0.0,0.0,0.0,0.0,-0.0,0.0,0.0,0.0,0.0,0.0,11.0,12.0,13.0,14.0,53.692
2024-04-02 23:47:13,359.9375,1.0625,2.0625,-0.01623926822897468,0.0,0.0,-1.0,0.0,0.0,0.0,0.0,0.0,0.0,-0.0,0.0,0.0,0.0,0.0,0.0,11.0,12.0,13.0,14.0,53.692
2024-04-02 23:47:13,359.9375,1.0625,2.0625,-0.01623926822897468,0.0,0.0,0.0,0.0,0.0,0.0,0.0,0.0,0.0,-0.0,0.0,0.0,0.0,0.0,0.0,11.0,12.0,13.0,14.0,53.692
2024-04-02 23:47:13,359.9375,1.0625,2.0625,-0.01623926822897468,0.0,0.0,-1.0,0.0,0.0,0.0,0.0,0.0,0.0,-0.0,0.0,0.0,0.0,0.0,0.0,11.0,12.0,13.0,14.0,53.692
2024-04-02 23:47:13,359.9375,1.0625,2.0625,-0.01623926822897468,0.0,0.0,-1.0,0.0,0.0,0.0,0.0,0.0,0.0,-0.0,0.0,0.0,0.0,0.0,0.0,11.0,12.0,13.0,14.0,53.154
2024-04-02 23:47:13,359.9375,1.0625,2.0625,-0.01623926822897468,0.0,0.0,133.0,0.0,0.0,0.0,0.0,0.0,0.0,-0.0,0.0,0.0,0.0,0.0,0.0,11.0,12.0,13.0,14.0,54.23
2024-04-02 23:47:13,359.9375,1.0625,2.0625,-0.01623926822897468,0.0,0.0,-1.0,0.0,0.0,0.0,0.0,0.0,0.0,-0.0,0.0,0.0,0.0,0.0,0.0,11.0,12.0,13.0,14.0,53.692
2024-04-02 23:47:13,359.9375,1.0625,2.0625,-0.01623926822897468,0.0,0.0,-1.0,0.0,0.0,0.0,0.0,0.0,0.0,-0.0,0.0,0.0,0.0,0.0,0.0,11.0,12.0,13.0,14.0,53.692
2024-04-02 23:47:13,359.9375,1.0625,2.0625,-0.012965856895256957,0.0,0.0,-1.0,0.0,0.0,0.0,0.0,0.0,0.0,-0.0,0.0,0.0,0.0,0.0,0.0,11.0,12.0,13.0,14.0,53.692
2024-04-02 23:47:13,359.9375,1.0625,2.0625,-0.012965856895256957,0.0,0.0,-1.0,0.0,0.0,0.0,0.0,0.0,0.0,-0.0,0.0,0.0,0.0,0.0,0.0,11.0,12.0,13.0,14.0,53.692
2024-04-02 23:47:13,359.9375,1.0625,2.0625,-0.012965856895256957,0.0,0.0,0.0,0.0,0.0,0.0,0.0,0.0,0.0,-0.0,0.0,0.0,0.0,0.0,0.0,11.0,12.0,13.0,14.0,53.692
2024-04-02 23:47:13,359.9375,1.0625,2.0625,-0.012965856895256957,0.0,0.0,-1.0,0.0,0.0,0.0,0.0,0.0,0.0,-0.0,0.0,0.0,0.0,0.0,0.0,11.0,12.0,13.0,14.0,53.692
2024-04-02 23:47:13,359.9375,1.0625,2.0625,-0.012965856895256957,0.0,0.0,-1.0,0.0,0.0,-0.28597560975609754,0.28597560975609754,-0.28597560975609754,0.28597560975609754,-0.0,0.0,0.0,0.0,0.0,0.0,11.0,12.0,13.0,14.0,53.692
2024-04-02 23:47:14,359.9375,1.0625,2.0625,-0.012965856895256957,0.0,0.0,-1.0,0.0,0.0,-0.5641463414634147,0.6816463414634146,-0.6816463414634146,0.5641463414634147,-0.0,0.0,0.0,0.0,0.0,0.0,11.0,12.0,13.0,14.0,53.692
2024-04-02 23:47:14,359.9375,1.0625,2.0625,-0.012965856895256957,0.0,0.0,-1.0,0.0,0.0,-0.7835365853658536,1.0,-1.0,0.7835365853658536,-0.0,0.0,0.0,0.0,0.0,0.0,11.0,12.0,13.0,14.0,53.692
2024-04-02 23:47:14,359.9375,1.0625,2.0625,-0.012965856895256957,0.0,0.0,-1.0,0.0,0.0,-0.7913719512195122,1.0,-1.0,0.7913719512195122,-0.0,0.0,0.0,0.0,0.0,0.0,11.0,12.0,13.0,14.0,53.692
2024-04-02 23:47:14,359.9375,1.0625,2.0625,-0.012965856895256957,0.0,0.0,-1.0,0.0,0.0,-0.7835365853658537,1.0,-1.0,0.7835365853658537,-0.0,0.0,0.0,0.0,0.0,0.0,11.0,12.0,13.0,14.0,53.154
2024-04-02 23:47:14,359.9375,1.0625,2.0625,-0.012965856895256957,0.0,0.0,-1.0,0.0,0.0,-0.5249695121951219,0.6738109756097561,-0.6738109756097561,0.5249695121951219,-0.0,0.0,0.0,0.0,0.0,0.0,11.0,12.0,13.0,14.0,53.692
2024-04-02 23:47:14,359.9375,1.0625,2.0625,-0.012965856895256957,0.0,0.0,0.0,0.0,0.0,0.0,0.0,0.0,0.0,-0.0,0.0,0.0,0.0,0.0,0.0,11.0,12.0,13.0,14.0,53.692
2024-04-02 23:47:14,359.9375,1.0625,2.0625,-0.012965856895256957,0.0,0.0,-1.0,0.0,0.0,0.0,0.0,0.0,0.0,-0.0,0.0,0.0,0.0,0.0,0.0,11.0,12.0,13.0,14.0,53.692
2024-04-02 23:47:14,359.9375,1.0625,2.0625,-0.012965856895256957,0.0,0.0,-1.0,0.0,0.0,0.0,0.0,0.0,0.0,-0.0,0.0,0.0,0.0,0.0,0.0,11.0,12.0,13.0,14.0,53.154
2024-04-02 23:47:14,359.9375,1.0625,2.0625,-0.012965856895256957,0.0,0.0,134.0,0.0,0.0,0.0,0.0,0.0,0.0,-0.0,0.0,0.0,0.0,0.0,0.0,11.0,12.0,13.0,14.0,53.692
2024-04-02 23:47:14,359.9375,1.0625,2.0625,-0.016654562170788954,0.0,0.0,-1.0,0.0,0.0,0.0,0.0,0.0,0.0,-0.0,0.0,0.0,0.0,0.0,0.0,11.0,12.0,13.0,14.0,53.692
2024-04-02 23:47:14,359.9375,1.0625,2.0625,-0.016654562170788954,0.0,0.0,-1.0,0.0,0.0,0.05875,-0.05875,0.05875,-0.05875,-0.0,0.0,0.0,0.0,0.0,0.0,11.0,12.0,13.0,14.0,53.692
2024-04-02 23:47:14,359.9375,1.0625,2.0625,-0.016654562170788954,0.0,0.0,133.0,0.0,0.0,0.11359756097560976,-0.11359756097560976,0.11359756097560976,-0.11359756097560976,-0.0,0.0,0.0,0.0,0.0,0.0,11.0,12.0,13.0,14.0,53.692
2024-04-02 23:47:14,2407.9375,1.0625,2.0625,-0.016654562170788954,0.0,0.0,-1.0,0.0,0.0,0.17628048780487804,-0.17628048780487804,0.17628048780487804,-0.17628048780487804,-0.0,0.0,0.0,0.0,0.0,0.0,11.0,12.0,13.0,14.0,53.692
2024-04-02 23:47:14,359.9375,1.0625,2.0625,-0.016654562170788954,0.0,0.0,-1.0,0.0,0.0,0.6542378048780488,-0.6542378048780488,0.6542378048780488,-0.6542378048780488,-0.0,0.0,0.0,0.0,0.0,0.0,11.0,12.0,13.0,14.0,53.692
2024-04-02 23:47:14,359.9375,1.0625,2.0625,-0.016654562170788954,0.0,0.0,135.0,0.0,0.0,1.0,-0.760030487804878,0.760030487804878,-1.0,-0.0,0.0,0.0,0.0,0.0,0.0,11.0,12.0,13.0,14.0,53.154
2024-04-02 23:47:15,359.9375,1.0625,2.0625,-0.016654562170788954,0.0,0.0,-1.0,0.0,0.0,1.0,-0.8462195121951219,0.8462195121951219,-1.0,-0.0,0.0,0.0,0.0,0.0,0.0,11.0,12.0,13.0,14.0,53.692
2024-04-02 23:47:15,359.9375,1.0625,2.0625,-0.016654562170788954,0.0,0.0,-1.0,0.0,0.0,0.38,-0.38,0.38,-0.38,-0.0,0.0,0.0,0.0,0.0,0.0,11.0,12.0,13.0,14.0,53.692
2024-04-02 23:47:15,359.9375,1.0625,2.0625,-0.016654562170788954,0.0,0.0,136.0,0.0,0.0,0.0,0.0,0.0,0.0,-0.0,0.0,0.0,0.0,0.0,0.0,11.0,12.0,13.0,14.0,53.154
2024-04-02 23:47:15,359.9375,1.0625,2.0625,-0.016654562170788954,0.0,0.0,-1.0,0.0,0.0,0.0,0.0,0.0,0.0,-0.0,0.0,0.0,0.0,0.0,0.0,11.0,12.0,13.0,14.0,53.692
2024-04-02 23:47:15,359.9375,1.0625,2.0625,-0.016654562170788954,0.0,0.0,-1.0,0.0,0.0,0.0,0.0,0.0,0.0,-0.0,0.0,0.0,0.0,0.0,0.0,11.0,12.0,13.0,14.0,53.692
2024-04-02 23:47:15,359.9375,1.0625,2.0625,-0.016654562170788954,0.0,0.0,-1.0,0.0,0.0,0.0,0.0,0.0,0.0,-0.0,0.0,0.0,0.0,0.0,0.0,11.0,12.0,13.0,14.0,52.616
2024-04-02 23:47:15,359.9375,1.0625,2.0625,-0.016654562170788954,0.0,0.0,-1.0,0.0,0.0,0.0,0.0,0.0,0.0,-0.0,0.0,0.0,0.0,0.0,0.0,11.0,12.0,13.0,14.0,53.692
2024-04-02 23:47:15,359.9375,1.0625,2.0625,-0.019173784602798012,0.0,0.0,-1.0,0.0,0.0,0.0,0.0,0.0,0.0,-0.0,0.0,0.0,0.0,0.0,0.0,11.0,12.0,13.0,14.0,53.692
2024-04-02 23:47:15,359.9375,1.0625,2.0625,-0.019173784602798012,0.0,0.0,-1.0,0.0,0.0,0.0,0.0,0.0,0.0,-0.0,0.0,0.0,0.0,0.0,0.0,11.0,12.0,13.0,14.0,53.692
2024-04-02 23:47:15,359.9375,1.0625,2.0625,-0.019173784602798012,0.0,0.0,-1.0,0.0,0.0,0.0,0.0,0.0,0.0,-0.0,0.0,0.0,0.0,0.0,0.0,11.0,12.0,13.0,14.0,53.692
2024-04-02 23:47:15,359.9375,1.0625,2.0625,-0.019173784602798012,0.0,0.0,-1.0,0.0,0.0,0.0,0.0,0.0,0.0,-0.0,0.0,0.0,0.0,0.0,0.0,11.0,12.0,13.0,14.0,53.692
2024-04-02 23:47:15,359.9375,1.0625,2.0625,-0.019173784602798012,0.0,0.0,-1.0,0.0,0.0,0.0,0.0,0.0,0.0,-0.0,0.0,0.0,0.0,0.0,0.0,11.0,12.0,13.0,14.0,53.692
2024-04-02 23:47:15,359.9375,1.0625,2.0625,-0.019173784602798012,0.0,0.0,-1.0,0.0,0.0,0.0,0.0,0.0,0.0,-0.0,0.0,0.0,0.0,0.0,0.0,11.0,12.0,13.0,14.0,53.692
2024-04-02 23:47:15,359.9375,1.0625,2.0625,-0.019173784602798012,0.0,0.0,-1.0,0.0,0.0,0.0,0.0,0.0,0.0,-0.0,0.0,0.0,0.0,0.0,0.0,11.0,12.0,13.0,14.0,53.692
2024-04-02 23:47:15,359.9375,1.0625,2.0625,-0.019173784602798012,0.0,0.0,-1.0,0.0,0.0,0.0,0.0,0.0,0.0,-0.0,0.0,0.0,0.0,0.0,0.0,11.0,12.0,13.0,14.0,53.692
2024-04-02 23:47:16,359.9375,1.0625,2.0625,-0.019173784602798012,0.0,0.0,-1.0,0.0,0.0,0.15277439024390244,0.15277439024390244,-0.15277439024390244,-0.15277439024390244,-0.0,0.0,0.0,0.0,0.0,0.0,11.0,12.0,13.0,14.0,53.692
2024-04-02 23:47:16,359.9375,1.0625,2.0625,-0.019173784602798012,0.0,0.0,-1.0,0.0,0.0,0.9989939024390244,0.9989939024390244,-0.9989939024390244,-0.9989939024390244,-0.0,0.0,0.0,0.0,0.0,0.0,11.0,12.0,13.0,14.0,53.692
2024-04-02 23:47:16,359.9375,1.0625,2.0625,-0.019173784602798012,0.0,0.0,-1.0,0.0,0.0,0.9989939024390244,0.9989939024390244,-0.9989939024390244,-0.9989939024390244,-0.0,0.0,0.0,0.0,0.0,0.0,11.0,12.0,13.0,14.0,53.692
2024-04-02 23:47:16,359.9375,1.0625,2.0625,-0.019173784602798012,0.0,0.0,-1.0,0.0,0.0,0.9989939024390244,0.9989939024390244,-0.9989939024390244,-0.9989939024390244,-0.0,0.0,0.0,0.0,0.0,0.0,11.0,12.0,13.0,14.0,53.692
2024-04-02 23:47:16,359.9375,1.0625,2.0625,-0.01824269041951797,0.0,0.0,138.0,0.0,0.0,0.05875,0.05875,-0.05875,-0.05875,-0.0,0.0,0.0,0.0,0.0,0.0,11.0,12.0,13.0,14.0,53.692
2024-04-02 23:47:16,359.9375,1.0625,2.0625,-0.01824269041951797,0.0,0.0,-1.0,0.0,0.0,0.0,0.0,0.0,0.0,-0.0,0.0,0.0,0.0,0.0,0.0,11.0,12.0,13.0,14.0,53.692
2024-04-02 23:47:16,359.9375,1.0625,2.0625,-0.01824269041951797,0.0,0.0,-1.0,0.0,0.0,0.0,0.0,0.0,0.0,-0.0,0.0,0.0,0.0,0.0,0.0,11.0,12.0,13.0,14.0,53.154
2024-04-02 23:47:16,359.9375,1.0625,2.0625,-0.01824269041951797,0.0,0.0,-1.0,0.0,0.0,-0.9989939024390244,-0.9989939024390244,0.9989939024390244,0.9989939024390244,-0.0,0.0,0.0,0.0,0.0,0.0,11.0,12.0,13.0,14.0,53.692
2024-04-02 23:47:16,359.9375,1.0625,2.0625,-0.01824269041951797,0.0,0.0,-1.0,0.0,0.0,-1.0,-0.9402439024390244,0.9402439024390244,1.0,-0.0,0.0,0.0,0.0,0.0,0.0,11.0,12.0,13.0,14.0,54.23
2024-04-02 23:47:16,359.9375,1.0625,2.0625,-0.01824269041951797,0.0,0.0,-1.0,0.0,0.0,0.0,0.0,0.0,0.0,-0.0,0.0,0.0,0.0,0.0,0.0,11.0,12.0,13.0,14.0,53.692
2024-04-02 23:47:16,359.9375,1.0625,2.0625,-0.01824269041951797,0.0,0.0,-1.0,0.0,0.0,0.0,0.0,0.0,0.0,-0.0,0.0,0.0,0.0,0.0,0.0,11.0,12.0,13.0,14.0,53.692
2024-04-02 23:47:16,359.9375,1.0625,2.0625,-0.01824269041951797,0.0,0.0,-1.0,0.0,0.0,0.0,0.0,0.0,0.0,-0.0,0.0,0.0,0.0,0.0,0.0,11.0,12.0,13.0,14.0,53.154
2024-04-02 23:47:16,359.9375,1.0625,2.0625,-0.01824269041951797,0.0,0.0,137.0,0.0,0.0,0.0,0.0,0.0,0.0,-0.0,0.0,0.0,0.0,0.0,0.0,11.0,12.0,13.0,14.0,53.692
2024-04-02 23:47:16,359.9375,1.0625,2.0625,-0.01824269041951797,0.0,0.0,-1.0,0.0,0.0,0.0,0.0,0.0,0.0,-0.0,0.0,0.0,0.0,0.0,0.0,11.0,12.0,13.0,14.0,53.692
2024-04-02 23:47:17,359.9375,1.0625,2.0625,-0.01824269041951797,0.0,0.0,-1.0,0.0,0.0,0.0,0.0,0.0,0.0,-0.0,0.0,0.0,0.0,0.0,0.0,11.0,12.0,13.0,14.0,53.692
2024-04-02 23:47:17,359.9375,1.0625,2.0625,-0.01824269041951797,0.0,0.0,-1.0,0.0,0.0,0.0,0.0,0.0,0.0,-0.0,0.0,0.0,0.0,0.0,0.0,11.0,12.0,13.0,14.0,54.23
2024-04-02 23:47:17,359.9375,1.0625,2.0625,-0.01824269041951797,0.0,0.0,-1.0,0.0,0.0,0.0,0.0,0.0,0.0,-0.0,0.0,0.0,0.0,0.0,0.0,11.0,12.0,13.0,14.0,53.692
2024-04-02 23:47:17,359.9375,1.0625,2.0625,-0.01824269041951797,0.0,0.0,-1.0,0.0,0.0,0.0,0.0,0.0,0.0,-0.0,0.0,0.0,0.0,0.0,0.0,11.0,12.0,13.0,14.0,53.692
2024-04-02 23:47:17,359.9375,1.0625,2.0625,-0.01824269041951797,0.0,0.0,-1.0,0.0,0.0,0.0,0.0,0.0,0.0,-0.0,0.0,0.0,0.0,0.0,0.0,11.0,12.0,13.0,14.0,53.692
2024-04-02 23:47:17,359.9375,1.0625,2.0625,-0.017604200164254215,0.0,0.0,-1.0,0.0,0.0,0.0,0.0,0.0,0.0,-0.0,0.0,0.0,0.0,0.0,0.0,11.0,12.0,13.0,14.0,53.692
2024-04-02 23:47:17,359.9375,1.0625,2.0625,-0.017604200164254215,0.0,0.0,-1.0,0.0,0.0,0.0,0.0,0.0,0.0,-0.0,0.0,0.0,0.0,0.0,0.0,11.0,12.0,13.0,14.0,53.692
2024-04-02 23:47:17,359.9375,1.0625,2.0625,-0.017604200164254215,0.0,0.0,-1.0,0.0,0.0,0.0,0.0,0.0,0.0,-0.0,0.0,0.0,0.0,0.0,0.0,11.0,12.0,13.0,14.0,53.692
2024-04-02 23:47:17,359.9375,1.0625,2.0625,-0.017604200164254215,0.0,0.0,-1.0,0.0,0.0,0.0,0.0,0.0,0.0,-0.0,0.0,0.0,0.0,0.0,0.0,11.0,12.0,13.0,14.0,54.23
2024-04-02 23:47:17,359.9375,1.0625,2.0625,-0.017604200164254215,0.0,0.0,-1.0,0.0,0.0,0.0,0.0,0.0,0.0,-0.0,0.0,0.0,0.0,0.0,0.0,11.0,12.0,13.0,14.0,53.692
2024-04-02 23:47:17,359.9375,1.0625,2.0625,-0.017604200164254215,0.0,0.0,133.0,0.0,0.0,0.0,0.0,0.0,0.0,-0.0,0.0,0.0,0.0,0.0,0.0,11.0,12.0,13.0,14.0,53.692
2024-04-02 23:47:17,359.9375,1.0625,2.0625,-0.017604200164254215,0.0,0.0,-1.0,0.0,0.0,0.0,0.0,0.0,0.0,-0.0,0.0,0.0,0.0,0.0,0.0,11.0,12.0,13.0,14.0,53.692
2024-04-02 23:47:17,359.9375,1.0625,2.0625,-0.017604200164254215,0.0,0.0,0.0,0.0,0.0,0.0,0.0,0.0,0.0,-0.0,0.0,0.0,0.0,0.0,0.0,11.0,12.0,13.0,14.0,53.692
2024-04-02 23:47:17,359.9375,1.0625,2.0625,-0.017604200164254215,0.0,0.0,-1.0,0.0,0.0,0.0,0.0,0.0,0.0,-0.0,0.0,0.0,0.0,0.0,0.0,11.0,12.0,13.0,14.0,53.692
2024-04-02 23:47:17,359.9375,1.0625,2.0625,-0.017604200164254215,0.0,0.0,-1.0,0.0,0.0,0.0,0.0,0.0,0.0,-0.0,0.0,0.0,0.0,0.0,0.0,11.0,12.0,13.0,14.0,53.692
2024-04-02 23:47:18,359.9375,1.0625,2.0625,-0.017604200164254215,0.0,0.0,133.0,0.0,0.0,0.0,0.0,0.0,0.0,-0.0,0.0,0.0,0.0,0.0,0.0,11.0,12.0,13.0,14.0,53.692
2024-04-02 23:47:18,359.9375,1.0625,2.0625,-0.017604200164254215,0.0,0.0,-1.0,0.0,0.0,0.0,0.0,0.0,0.0,-0.0,0.0,0.0,0.0,0.0,0.0,11.0,12.0,13.0,14.0,53.692
2024-04-02 23:47:18,359.9375,1.0625,2.0625,-0.017604200164254215,0.0,0.0,-1.0,0.0,0.0,0.0,0.0,0.0,0.0,-0.0,0.0,0.0,0.0,0.0,0.0,11.0,12.0,13.0,14.0,53.692
2024-04-02 23:47:18,359.9375,1.0625,2.0625,-0.016939272536618633,0.0,0.0,130.0,0.0,0.0,0.0,0.0,0.0,0.0,-0.0,0.0,0.0,0.0,0.0,0.0,11.0,12.0,13.0,14.0,53.692
2024-04-02 23:47:18,359.9375,1.0625,2.0625,-0.016939272536618633,0.0,0.0,-1.0,0.0,0.0,0.0,0.0,0.0,0.0,-0.0,0.0,0.0,0.0,0.0,0.0,11.0,12.0,13.0,14.0,53.692
2024-04-02 23:47:18,359.9375,1.0625,2.0625,-0.016939272536618633,0.0,0.0,-1.0,0.0,0.0,0.0,0.0,0.0,0.0,-0.0,0.0,0.0,0.0,0.0,0.0,11.0,12.0,13.0,14.0,53.692
2024-04-02 23:47:18,359.9375,1.0625,2.0625,-0.016939272536618633,0.0,0.0,-1.0,0.0,0.0,0.0,0.0,0.0,0.0,-0.0,0.0,0.0,0.0,0.0,0.0,11.0,12.0,13.0,14.0,53.692
2024-04-02 23:47:18,359.9375,1.0625,2.0625,-0.016939272536618633,0.0,0.0,-1.0,0.0,0.0,0.0,0.0,0.0,0.0,-0.0,0.0,0.0,0.0,0.0,0.0,11.0,12.0,13.0,14.0,53.692
2024-04-02 23:47:18,359.9375,1.0625,2.0625,-0.016939272536618633,0.0,0.0,-1.0,0.0,0.0,0.0,0.0,0.0,0.0,-0.0,0.0,0.0,0.0,0.0,0.0,11.0,12.0,13.0,14.0,53.692
2024-04-02 23:47:18,359.9375,1.0625,2.0625,-0.016939272536618633,0.0,0.0,-1.0,0.0,0.0,0.0,0.0,0.0,0.0,-0.0,0.0,0.0,0.0,0.0,0.0,11.0,12.0,13.0,14.0,53.692
2024-04-02 23:47:18,359.9375,1.0625,2.0625,-0.016939272536618633,0.0,0.0,-1.0,0.0,0.0,0.0,0.0,0.0,0.0,-0.0,0.0,0.0,0.0,0.0,0.0,11.0,12.0,13.0,14.0,54.768
2024-04-02 23:47:18,359.9375,1.0625,2.0625,-0.016939272536618633,0.0,0.0,0.0,0.0,0.0,0.0,0.0,0.0,0.0,-0.0,0.0,0.0,0.0,0.0,0.0,11.0,12.0,13.0,14.0,53.692
2024-04-02 23:47:18,359.9375,1.0625,2.0625,-0.016939272536618633,0.0,0.0,-1.0,0.0,0.0,0.0,0.0,0.0,0.0,-0.0,0.0,0.0,0.0,0.0,0.0,11.0,12.0,13.0,14.0,53.692
2024-04-02 23:47:18,359.9375,1.0625,2.0625,-0.016939272536618633,0.0,0.0,-1.0,0.0,0.0,0.0,0.0,0.0,0.0,-0.0,0.0,0.0,0.0,0.0,0.0,11.0,12.0,13.0,14.0,53.692
2024-04-02 23:47:19,359.9375,1.0625,2.0625,-0.016939272536618633,0.0,0.0,0.0,0.0,0.0,0.0,0.0,0.0,0.0,-0.0,0.0,0.0,0.0,0.0,0.0,11.0,12.0,13.0,14.0,53.692
2024-04-02 23:47:19,359.9375,1.0625,2.0625,-0.016461868271731052,0.0,0.0,-1.0,0.0,0.0,0.0,0.0,0.0,0.0,-0.0,0.0,0.0,0.0,0.0,0.0,11.0,12.0,13.0,14.0,53.692
2024-04-02 23:47:19,359.9375,1.0625,2.0625,-0.016461868271731052,0.0,0.0,-1.0,0.0,0.0,0.0,0.0,0.0,0.0,-0.0,0.0,0.0,0.0,0.0,0.0,11.0,12.0,13.0,14.0,53.692
2024-04-02 23:47:19,359.9375,1.0625,2.0625,-0.016461868271731052,0.0,0.0,-1.0,0.0,0.0,0.0,0.0,0.0,0.0,-0.0,0.0,0.0,0.0,0.0,0.0,11.0,12.0,13.0,14.0,53.692
2024-04-02 23:47:19,359.9375,1.0625,2.0625,-0.016461868271731052,0.0,0.0,-1.0,0.0,0.0,0.0,0.0,0.0,0.0,-0.0,0.0,0.0,0.0,0.0,0.0,11.0,12.0,13.0,14.0,53.692
2024-04-02 23:47:19,359.9375,1.0625,2.0625,-0.016461868271731052,0.0,0.0,-1.0,0.0,0.0,0.0,0.0,0.0,0.0,-0.0,0.0,0.0,0.0,0.0,0.0,11.0,12.0,13.0,14.0,53.692
2024-04-02 23:47:19,359.9375,1.0625,2.0625,-0.016461868271731052,0.0,0.0,-1.0,0.0,0.0,0.0,0.0,0.0,0.0,-0.0,0.0,0.0,0.0,0.0,0.0,11.0,12.0,13.0,14.0,53.692
2024-04-02 23:47:19,359.9375,1.0625,2.0625,-0.016461868271731052,0.0,0.0,-1.0,0.0,0.0,0.0,0.0,0.0,0.0,-0.0,0.0,0.0,0.0,0.0,0.0,11.0,12.0,13.0,14.0,54.23
2024-04-02 23:47:19,359.9375,1.0625,2.0625,-0.016461868271731052,0.0,0.0,-1.0,0.0,0.0,0.0,0.0,0.0,0.0,-0.0,0.0,0.0,0.0,0.0,0.0,11.0,12.0,13.0,14.0,53.692
2024-04-02 23:47:19,359.9375,1.0625,2.0625,-0.016461868271731052,0.0,0.0,-1.0,0.0,0.0,0.0,0.0,0.0,0.0,-0.0,0.0,0.0,0.0,0.0,0.0,11.0,12.0,13.0,14.0,53.692
2024-04-02 23:47:19,359.9375,1.0625,2.0625,-0.016461868271731052,0.0,0.0,-1.0,0.0,0.0,0.0,0.0,0.0,0.0,-0.0,0.0,0.0,0.0,0.0,0.0,11.0,12.0,13.0,14.0,53.692
2024-04-02 23:47:19,359.9375,1.0625,2.0625,-0.016461868271731052,0.0,0.0,132.0,0.0,0.0,0.0,0.0,0.0,0.0,-0.0,0.0,0.0,0.0,0.0,0.0,11.0,12.0,13.0,14.0,53.692
2024-04-02 23:47:19,359.9375,1.0625,2.0625,-0.015689891870386136,0.0,0.0,-1.0,0.0,0.0,0.0,0.0,0.0,0.0,-0.0,0.0,0.0,0.0,0.0,0.0,11.0,12.0,13.0,14.0,54.23
