Timestamp,Yaw,Pitch,Roll,Depth,Depth Set,Depth Control,Water,Roll Control,Pitch Control,Thruster1,Thruster2,Thruster3,Thruster4,Thruster5,Thruster6,BCD1,BCD2,BCD3,BCD4,BCD1 Volt,BCD2 Volt,BCD3 Volt,BCD4 Volt,CPU
2024-04-03 17:19:50,359.9375,-6.875,14.875,0.0856550060314209,0.0,0.0,-1.0,0.0,0.0,0.0,0.0,0.0,0.0,-0.0,0.0,0.0,0.0,0.0,0.0,11.0,12.0,13.0,14.0,44.546
2024-04-03 17:19:50,359.9375,-6.875,14.875,0.07222568422659129,0.0,0.0,0.0,0.0,0.0,0.0,0.0,0.0,0.0,-0.0,0.0,0.0,0.0,0.0,0.0,11.0,12.0,13.0,14.0,44.008
2024-04-03 17:19:50,359.9375,-6.875,14.875,0.07222568422659129,0.0,0.0,-1.0,0.0,0.0,0.0,0.0,0.0,0.0,-0.0,0.0,0.0,0.0,0.0,0.0,11.0,12.0,13.0,14.0,44.008
2024-04-03 17:19:50,359.9375,-6.875,14.875,0.07222568422659129,0.0,0.0,-1.0,0.0,0.0,0.0,0.0,0.0,0.0,-0.0,0.0,0.0,0.0,0.0,0.0,11.0,12.0,13.0,14.0,42.932
2024-04-03 17:19:50,359.9375,-6.875,14.875,0.07222568422659129,0.0,0.0,-1.0,0.0,0.0,0.0,0.0,0.0,0.0,-0.0,0.0,0.0,0.0,0.0,0.0,11.0,12.0,13.0,14.0,44.546
2024-04-03 17:19:50,359.9375,-6.875,14.875,0.07222568422659129,0.0,0.0,-1.0,0.0,0.0,0.0,0.0,0.0,0.0,-0.0,0.0,0.0,0.0,0.0,0.0,11.0,12.0,13.0,14.0,43.47
2024-04-03 17:19:50,359.9375,-6.875,14.875,0.07222568422659129,0.0,0.0,-1.0,0.0,0.0,0.0,0.0,0.0,0.0,-0.0,0.0,0.0,0.0,0.0,0.0,11.0,12.0,13.0,14.0,44.546
2024-04-03 17:19:51,359.9375,-6.875,14.875,0.07222568422659129,0.0,0.0,-1.0,0.0,0.0,0.0,0.0,0.0,0.0,-0.0,0.0,0.0,0.0,0.0,0.0,11.0,12.0,13.0,14.0,44.008
2024-04-03 17:19:51,359.9375,-6.875,14.875,0.07222568422659129,0.0,0.0,-1.0,0.0,0.0,0.0,0.0,0.0,0.0,-0.0,0.0,0.0,0.0,0.0,0.0,11.0,12.0,13.0,14.0,44.546
2024-04-03 17:19:51,359.9375,-6.875,14.875,0.07222568422659129,0.0,0.0,-1.0,0.0,0.0,0.0,0.0,0.0,0.0,-0.0,0.0,0.0,0.0,0.0,0.0,11.0,12.0,13.0,14.0,44.008
2024-04-03 17:19:51,359.9375,-6.875,14.875,0.07222568422659129,0.0,0.0,-1.0,0.0,0.0,0.0,0.0,0.0,0.0,-0.0,0.0,0.0,0.0,0.0,0.0,11.0,12.0,13.0,14.0,44.008
2024-04-03 17:19:51,359.9375,-6.875,14.875,0.07222568422659129,0.0,0.0,-1.0,0.0,0.0,0.0,0.0,0.0,0.0,-0.0,0.0,0.0,0.0,0.0,0.0,11.0,12.0,13.0,14.0,44.008
2024-04-03 17:19:51,359.9375,-6.875,14.875,0.07222568422659129,0.0,0.0,-1.0,0.0,0.0,0.0,0.0,0.0,0.0,-0.0,0.0,0.0,0.0,0.0,0.0,11.0,12.0,13.0,14.0,44.008
2024-04-03 17:19:51,359.9375,-6.875,14.875,0.08366306104972719,0.0,0.0,-1.0,0.0,0.0,0.0,0.0,0.0,0.0,-0.0,0.0,0.0,0.0,0.0,0.0,11.0,12.0,13.0,14.0,44.008
2024-04-03 17:19:51,359.9375,-6.875,14.875,0.08366306104972719,0.0,0.0,-1.0,0.0,0.0,0.0,0.0,0.0,0.0,-0.0,0.0,0.0,0.0,0.0,0.0,11.0,12.0,13.0,14.0,44.008
2024-04-03 17:19:51,359.9375,-6.875,14.875,0.08366306104972719,0.0,0.0,-1.0,0.0,0.0,0.0,0.0,0.0,0.0,-0.0,0.0,0.0,0.0,0.0,0.0,11.0,12.0,13.0,14.0,44.008
2024-04-03 17:19:51,359.9375,-6.875,14.875,0.08366306104972719,0.0,0.0,-1.0,0.0,0.0,0.0,0.0,0.0,0.0,-0.0,0.0,0.0,0.0,0.0,0.0,11.0,12.0,13.0,14.0,44.008
2024-04-03 17:19:51,359.9375,-6.875,14.875,0.08366306104972719,0.0,0.0,-1.0,0.0,0.0,0.0,0.0,0.0,0.0,-0.0,0.0,0.0,0.0,0.0,0.0,11.0,12.0,13.0,14.0,44.008
2024-04-03 17:19:51,359.9375,-6.875,14.875,0.08366306104972719,0.0,0.0,-1.0,0.0,0.0,0.0,0.0,0.0,0.0,-0.0,0.0,0.0,0.0,0.0,0.0,11.0,12.0,13.0,14.0,44.008
2024-04-03 17:19:51,359.9375,2041.125,14.875,0.08366306104972719,0.0,0.0,108.0,0.0,0.0,0.0,0.0,0.0,0.0,-0.0,0.0,0.0,0.0,0.0,0.0,11.0,12.0,13.0,14.0,44.008
2024-04-03 17:19:51,359.9375,-6.875,14.875,0.08366306104972719,0.0,0.0,-1.0,0.0,0.0,0.0,0.0,0.0,0.0,-0.0,0.0,0.0,0.0,0.0,0.0,11.0,12.0,13.0,14.0,44.008
2024-04-03 17:19:52,359.9375,-6.875,14.875,0.08366306104972719,0.0,0.0,-1.0,0.0,0.0,0.0,0.0,0.0,0.0,-0.0,0.0,0.0,0.0,0.0,0.0,11.0,12.0,13.0,14.0,44.008
2024-04-03 17:19:52,359.9375,-6.875,14.875,0.08366306104972719,0.0,0.0,108.0,0.0,0.0,0.0,0.0,0.0,0.0,-0.0,0.0,0.0,0.0,0.0,0.0,11.0,12.0,13.0,14.0,44.008
2024-04-03 17:19:52,359.9375,-6.875,14.875,0.08366306104972719,0.0,0.0,-1.0,0.0,0.0,0.0,0.0,0.0,0.0,-0.0,0.0,0.0,0.0,0.0,0.0,11.0,12.0,13.0,14.0,44.008
2024-04-03 17:19:52,359.9375,-6.875,14.875,0.08366306104972719,0.0,0.0,108.0,0.0,0.0,0.0,0.0,0.0,0.0,-0.0,0.0,0.0,0.0,0.0,0.0,11.0,12.0,13.0,14.0,44.008
2024-04-03 17:19:52,359.9375,-6.875,14.875,0.08615279599581768,0.0,0.0,-1.0,0.0,0.0,0.0,0.0,0.0,0.0,-0.0,0.0,0.0,0.0,0.0,0.0,11.0,12.0,13.0,14.0,44.008
2024-04-03 17:19:52,359.9375,-6.875,14.875,0.08615279599581768,0.0,0.0,-1.0,0.0,0.0,0.0,0.0,0.0,0.0,-0.0,0.0,0.0,0.0,0.0,0.0,11.0,12.0,13.0,14.0,44.008
2024-04-03 17:19:52,359.9375,-6.875,14.875,0.08615279599581768,0.0,0.0,-1.0,0.0,0.0,0.0,0.0,0.0,0.0,-0.0,0.0,0.0,0.0,0.0,0.0,11.0,12.0,13.0,14.0,43.47
2024-04-03 17:19:52,359.9375,-6.875,14.875,0.08615279599581768,0.0,0.0,-1.0,0.0,0.0,0.0,0.0,0.0,0.0,-0.0,0.0,0.0,0.0,0.0,0.0,11.0,12.0,13.0,14.0,43.47
2024-04-03 17:19:52,359.9375,-6.875,14.875,0.08615279599581768,0.0,0.0,-1.0,0.0,0.0,0.0,0.0,0.0,0.0,-0.0,0.0,0.0,0.0,0.0,0.0,11.0,12.0,13.0,14.0,43.47
2024-04-03 17:19:52,359.9375,-6.875,14.875,0.08615279599581768,0.0,0.0,-1.0,0.0,0.0,0.0,0.0,0.0,0.0,-0.0,0.0,0.0,0.0,0.0,0.0,11.0,12.0,13.0,14.0,44.008
2024-04-03 17:19:52,359.9375,-6.875,14.875,0.08615279599581768,0.0,0.0,-1.0,0.0,0.0,0.0,0.0,0.0,0.0,-0.0,0.0,0.0,0.0,0.0,0.0,11.0,12.0,13.0,14.0,44.008
2024-04-03 17:19:52,359.9375,-6.875,14.875,0.08615279599581768,0.0,0.0,-1.0,0.0,0.0,0.0,0.0,0.0,0.0,-0.0,0.0,0.0,0.0,0.0,0.0,11.0,12.0,13.0,14.0,44.008
2024-04-03 17:19:52,359.9375,-6.875,14.875,0.08615279599581768,0.0,0.0,-1.0,0.0,0.0,0.0,0.0,0.0,0.0,-0.0,0.0,0.0,0.0,0.0,0.0,11.0,12.0,13.0,14.0,44.008
2024-04-03 17:19:53,359.9375,-6.875,14.875,0.08615279599581768,0.0,0.0,-1.0,0.0,0.0,0.0,0.0,0.0,0.0,-0.0,0.0,0.0,0.0,0.0,0.0,11.0,12.0,13.0,14.0,44.008
2024-04-03 17:19:53,359.9375,-6.875,14.875,0.08615279599581768,0.0,0.0,106.0,0.0,0.0,0.0,0.0,0.0,0.0,-0.0,0.0,0.0,0.0,0.0,0.0,11.0,12.0,13.0,14.0,44.008
2024-04-03 17:19:53,359.9375,-6.875,14.875,0.08615279599581768,0.0,0.0,-1.0,0.0,0.0,0.0,0.0,0.0,0.0,-0.0,0.0,0.0,0.0,0.0,0.0,11.0,12.0,13.0,14.0,44.546
2024-04-03 17:19:53,359.9375,-6.875,14.875,0.08615279599581768,0.0,0.0,-1.0,0.0,0.0,0.0,0.0,0.0,0.0,-0.0,0.0,0.0,0.0,0.0,0.0,11.0,12.0,13.0,14.0,44.008
2024-04-03 17:19:53,359.9375,-6.875,14.875,0.08615279599581768,0.0,0.0,108.0,0.0,0.0,0.0,0.0,0.0,0.0,-0.0,0.0,0.0,0.0,0.0,0.0,11.0,12.0,13.0,14.0,44.008
2024-04-03 17:19:53,359.9375,-6.875,14.875,0.07836575829747448,0.0,0.0,-1.0,0.0,0.0,0.0,0.0,0.0,0.0,-0.0,0.0,0.0,0.0,0.0,0.0,11.0,12.0,13.0,14.0,43.47
2024-04-03 17:19:53,359.9375,-6.875,14.875,0.07836575829747448,0.0,0.0,107.0,0.0,0.0,0.0,0.0,0.0,0.0,-0.0,0.0,0.0,0.0,0.0,0.0,11.0,12.0,13.0,14.0,43.47
2024-04-03 17:19:53,359.9375,-6.875,14.875,0.07836575829747448,0.0,0.0,-1.0,0.0,0.0,0.0,0.0,0.0,0.0,-0.0,0.0,0.0,0.0,0.0,0.0,11.0,12.0,13.0,14.0,44.008
2024-04-03 17:19:53,359.9375,-6.875,14.875,0.07836575829747448,0.0,0.0,-1.0,0.0,0.0,0.0,0.0,0.0,0.0,-0.0,0.0,0.0,0.0,0.0,0.0,11.0,12.0,13.0,14.0,43.47
2024-04-03 17:19:53,359.9375,-6.875,14.875,0.07836575829747448,0.0,0.0,109.0,0.0,0.0,0.0,0.0,0.0,0.0,-0.0,0.0,0.0,0.0,0.0,0.0,11.0,12.0,13.0,14.0,43.47
2024-04-03 17:19:53,359.9375,-6.875,14.875,0.07836575829747448,0.0,0.0,-1.0,0.0,0.0,0.0,0.0,0.0,0.0,-0.0,0.0,0.0,0.0,0.0,0.0,11.0,12.0,13.0,14.0,44.008
2024-04-03 17:19:53,359.9375,-6.875,14.875,0.07836575829747448,0.0,0.0,-1.0,0.0,0.0,0.0,0.0,0.0,0.0,-0.0,0.0,0.0,0.0,0.0,0.0,11.0,12.0,13.0,14.0,44.008
2024-04-03 17:19:53,359.9375,-6.875,14.875,0.07836575829747448,0.0,0.0,0.0,0.0,0.0,0.0,0.0,0.0,0.0,-0.0,0.0,0.0,0.0,0.0,0.0,11.0,12.0,13.0,14.0,44.008
2024-04-03 17:19:54,359.9375,-6.875,14.875,0.07836575829747448,0.0,0.0,-1.0,0.0,0.0,0.0,0.0,0.0,0.0,-0.0,0.0,0.0,0.0,0.0,0.0,11.0,12.0,13.0,14.0,44.008
2024-04-03 17:19:54,359.9375,-6.875,14.875,0.07836575829747448,0.0,0.0,-1.0,0.0,0.0,0.0,0.0,0.0,0.0,-0.0,0.0,0.0,0.0,0.0,0.0,11.0,12.0,13.0,14.0,42.932
2024-04-03 17:19:54,359.9375,-6.875,14.875,0.07836575829747448,0.0,0.0,-1.0,0.0,0.0,0.0,0.0,0.0,0.0,-0.0,0.0,0.0,0.0,0.0,0.0,11.0,12.0,13.0,14.0,44.008
2024-04-03 17:19:54,359.9375,-6.875,14.875,0.07836575829747448,0.0,0.0,-1.0,0.0,0.0,0.0,0.0,0.0,0.0,-0.0,0.0,0.0,0.0,0.0,0.0,11.0,12.0,13.0,14.0,44.008
2024-04-03 17:19:54,359.9375,-6.875,14.875,0.08305401274233028,0.0,0.0,109.0,0.0,0.0,0.0,0.0,0.0,0.0,-0.0,0.0,0.0,0.0,0.0,0.0,11.0,12.0,13.0,14.0,43.47
2024-04-03 17:19:54,359.9375,-6.875,14.875,0.08305401274233028,0.0,0.0,-1.0,0.0,0.0,0.0,0.0,0.0,0.0,-0.0,0.0,0.0,0.0,0.0,0.0,11.0,12.0,13.0,14.0,43.47
2024-04-03 17:19:54,359.9375,-6.875,14.875,0.08305401274233028,0.0,0.0,-1.0,0.0,0.0,0.0,0.0,0.0,0.0,-0.0,0.0,0.0,0.0,0.0,0.0,11.0,12.0,13.0,14.0,44.008
2024-04-03 17:19:54,359.9375,-6.875,14.875,0.08305401274233028,0.0,0.0,-1.0,0.0,0.0,0.0,0.0,0.0,0.0,-0.0,0.0,0.0,0.0,0.0,0.0,11.0,12.0,13.0,14.0,44.008
2024-04-03 17:19:54,359.9375,-6.875,14.875,0.08305401274233028,0.0,0.0,-1.0,0.0,0.0,0.0,0.0,0.0,0.0,-0.0,0.0,0.0,0.0,0.0,0.0,11.0,12.0,13.0,14.0,44.008
2024-04-03 17:19:54,359.9375,-6.875,14.875,0.08305401274233028,0.0,0.0,-1.0,0.0,0.0,0.0,0.0,0.0,0.0,-0.0,0.0,0.0,0.0,0.0,0.0,11.0,12.0,13.0,14.0,44.008
2024-04-03 17:19:54,359.9375,-6.875,14.875,0.08305401274233028,0.0,0.0,-1.0,0.0,0.0,0.0,0.0,0.0,0.0,-0.0,0.0,0.0,0.0,0.0,0.0,11.0,12.0,13.0,14.0,44.008
2024-04-03 17:19:54,359.9375,-6.875,14.875,0.08305401274233028,0.0,0.0,-1.0,0.0,0.0,0.0,0.0,0.0,0.0,-0.0,0.0,0.0,0.0,0.0,0.0,11.0,12.0,13.0,14.0,43.47
2024-04-03 17:19:54,359.9375,-6.875,14.875,0.08305401274233028,0.0,0.0,-1.0,0.0,0.0,0.0,0.0,0.0,0.0,-0.0,0.0,0.0,0.0,0.0,0.0,11.0,12.0,13.0,14.0,44.008
2024-04-03 17:19:55,359.9375,-6.875,14.875,0.08305401274233028,0.0,0.0,-1.0,0.0,0.0,0.0,0.0,0.0,0.0,-0.0,0.0,0.0,0.0,0.0,0.0,11.0,12.0,13.0,14.0,44.008
2024-04-03 17:19:55,359.9375,-6.875,14.875,0.08305401274233028,0.0,0.0,108.0,0.0,0.0,0.0,0.0,0.0,0.0,-0.0,0.0,0.0,0.0,0.0,0.0,11.0,12.0,13.0,14.0,44.008
2024-04-03 17:19:55,359.9375,-6.875,14.875,0.08305401274233028,0.0,0.0,-1.0,0.0,0.0,0.0,0.0,0.0,0.0,-0.0,0.0,0.0,0.0,0.0,0.0,11.0,12.0,13.0,14.0,43.47
2024-04-03 17:19:55,359.9375,-6.875,14.875,0.08305401274233028,0.0,0.0,-1.0,0.0,0.0,0.0,0.0,0.0,0.0,-0.0,0.0,0.0,0.0,0.0,0.0,11.0,12.0,13.0,14.0,44.008
2024-04-03 17:19:55,359.9375,-6.875,14.875,0.08650748601241091,0.0,0.0,0.0,0.0,0.0,0.0,0.0,0.0,0.0,-0.0,0.0,0.0,0.0,0.0,0.0,11.0,12.0,13.0,14.0,44.008
2024-04-03 17:19:55,359.9375,-6.875,14.875,0.08650748601241091,0.0,0.0,-1.0,0.0,0.0,0.0,0.0,0.0,0.0,-0.0,0.0,0.0,0.0,0.0,0.0,11.0,12.0,13.0,14.0,44.008
2024-04-03 17:19:55,359.9375,-6.875,14.875,0.08650748601241091,0.0,0.0,-1.0,0.0,0.0,0.0,0.0,0.0,0.0,-0.0,0.0,0.0,0.0,0.0,0.0,11.0,12.0,13.0,14.0,43.47
2024-04-03 17:19:55,359.9375,-6.875,14.875,0.08650748601241091,0.0,0.0,109.0,0.0,0.0,0.0,0.0,0.0,0.0,-0.0,0.0,0.0,0.0,0.0,0.0,11.0,12.0,13.0,14.0,43.47
2024-04-03 17:19:55,359.9375,-6.875,14.875,0.08650748601241091,0.0,0.0,-1.0,0.0,0.0,0.0,0.0,0.0,0.0,-0.0,0.0,0.0,0.0,0.0,0.0,11.0,12.0,13.0,14.0,42.932
2024-04-03 17:19:55,359.9375,-6.875,14.875,0.08650748601241091,0.0,0.0,-1.0,0.0,0.0,0.0,0.0,0.0,0.0,-0.0,0.0,0.0,0.0,0.0,0.0,11.0,12.0,13.0,14.0,43.47
2024-04-03 17:19:55,359.9375,-6.875,14.875,0.08650748601241091,0.0,0.0,-1.0,0.0,0.0,0.0,0.0,0.0,0.0,-0.0,0.0,0.0,0.0,0.0,0.0,11.0,12.0,13.0,14.0,43.47
2024-04-03 17:19:55,359.9375,-6.875,14.875,0.08650748601241091,0.0,0.0,-1.0,0.0,0.0,0.0,0.0,0.0,0.0,-0.0,0.0,0.0,0.0,0.0,0.0,11.0,12.0,13.0,14.0,43.47
2024-04-03 17:19:55,359.9375,-6.875,14.875,0.08650748601241091,0.0,0.0,-1.0,0.0,0.0,0.0,0.0,0.0,0.0,-0.0,0.0,0.0,0.0,0.0,0.0,11.0,12.0,13.0,14.0,44.008
2024-04-03 17:19:55,359.9375,-6.875,14.875,0.08650748601241091,0.0,0.0,-1.0,0.0,0.0,0.0,0.0,0.0,0.0,-0.0,0.0,0.0,0.0,0.0,0.0,11.0,12.0,13.0,14.0,43.47
2024-04-03 17:19:56,359.9375,-6.875,14.875,0.08650748601241091,0.0,0.0,-1.0,0.0,0.0,0.0,0.0,0.0,0.0,-0.0,0.0,0.0,0.0,0.0,0.0,11.0,12.0,13.0,14.0,44.008
2024-04-03 17:19:56,359.9375,-6.875,14.875,0.08650748601241091,0.0,0.0,0.0,0.0,0.0,0.0,0.0,0.0,0.0,-0.0,0.0,0.0,0.0,0.0,0.0,11.0,12.0,13.0,14.0,44.008
2024-04-03 17:19:56,359.9375,-6.875,14.875,0.08650748601241091,0.0,0.0,-1.0,0.0,0.0,0.0,0.0,0.0,0.0,-0.0,0.0,0.0,0.0,0.0,0.0,11.0,12.0,13.0,14.0,44.008
2024-04-03 17:19:56,359.9375,-6.875,14.875,0.08650748601241091,0.0,0.0,-1.0,0.0,0.0,0.0,0.0,0.0,0.0,-0.0,0.0,0.0,0.0,0.0,0.0,11.0,12.0,13.0,14.0,43.47
2024-04-03 17:19:56,359.9375,-6.875,14.875,0.08650748601241091,0.0,0.0,107.0,0.0,0.0,0.0,0.0,0.0,0.0,-0.0,0.0,0.0,0.0,0.0,0.0,11.0,12.0,13.0,14.0,43.47
2024-04-03 17:19:56,359.9375,-6.875,14.875,0.08670499952441912,0.0,0.0,-1.0,0.0,0.0,0.0,0.0,0.0,0.0,-0.0,0.0,0.0,0.0,0.0,0.0,11.0,12.0,13.0,14.0,43.47
2024-04-03 17:19:56,359.9375,-6.875,14.875,0.08670499952441912,0.0,0.0,-1.0,0.0,0.0,0.0,0.0,0.0,0.0,-0.0,0.0,0.0,0.0,0.0,0.0,11.0,12.0,13.0,14.0,44.008
2024-04-03 17:19:56,359.9375,-6.875,14.875,0.08670499952441912,0.0,0.0,106.0,0.0,0.0,0.0,0.0,0.0,0.0,-0.0,0.0,0.0,0.0,0.0,0.0,11.0,12.0,13.0,14.0,44.008
2024-04-03 17:19:56,359.9375,-6.875,14.875,0.08670499952441912,0.0,0.0,-1.0,0.0,0.0,0.0,0.0,0.0,0.0,-0.0,0.0,0.0,0.0,0.0,0.0,11.0,12.0,13.0,14.0,44.008
2024-04-03 17:19:56,359.9375,-6.875,14.875,0.08670499952441912,0.0,0.0,-1.0,0.0,0.0,0.0,0.0,0.0,0.0,-0.0,0.0,0.0,0.0,0.0,0.0,11.0,12.0,13.0,14.0,43.47
2024-04-03 17:19:56,359.9375,-6.875,14.875,0.08670499952441912,0.0,0.0,-1.0,0.0,0.0,0.0,0.0,0.0,0.0,-0.0,0.0,0.0,0.0,0.0,0.0,11.0,12.0,13.0,14.0,44.008
2024-04-03 17:19:56,359.9375,-6.875,14.875,0.08670499952441912,0.0,0.0,-1.0,0.0,0.0,0.0,0.0,0.0,0.0,-0.0,0.0,0.0,0.0,0.0,0.0,11.0,12.0,13.0,14.0,44.008
2024-04-03 17:19:56,359.9375,-6.875,14.875,0.08670499952441912,0.0,0.0,-1.0,0.0,0.0,0.0,0.0,0.0,0.0,-0.0,0.0,0.0,0.0,0.0,0.0,11.0,12.0,13.0,14.0,43.47
2024-04-03 17:19:56,359.9375,-6.875,14.875,0.08670499952441912,0.0,0.0,-1.0,0.0,0.0,0.0,0.0,0.0,0.0,-0.0,0.0,0.0,0.0,0.0,0.0,11.0,12.0,13.0,14.0,44.008
2024-04-03 17:19:57,359.9375,-6.875,14.875,0.08670499952441912,0.0,0.0,-1.0,0.0,0.0,0.0,0.0,0.0,0.0,-0.0,0.0,0.0,0.0,0.0,0.0,11.0,12.0,13.0,14.0,43.47
2024-04-03 17:19:57,359.9375,-6.875,14.875,0.08670499952441912,0.0,0.0,108.0,0.0,0.0,0.0,0.0,0.0,0.0,-0.0,0.0,0.0,0.0,0.0,0.0,11.0,12.0,13.0,14.0,44.008
2024-04-03 17:19:57,359.9375,-6.875,14.875,0.08670499952441912,0.0,0.0,-1.0,0.0,0.0,0.0,0.0,0.0,0.0,-0.0,0.0,0.0,0.0,0.0,0.0,11.0,12.0,13.0,14.0,43.47
2024-04-03 17:19:57,359.9375,-6.875,14.875,0.08670499952441912,0.0,0.0,-1.0,0.0,0.0,0.0,0.0,0.0,0.0,-0.0,0.0,0.0,0.0,0.0,0.0,11.0,12.0,13.0,14.0,43.47
2024-04-03 17:19:57,359.9375,-6.875,14.875,0.09449719258608259,0.0,0.0,0.0,0.0,0.0,0.0,0.0,0.0,0.0,-0.0,0.0,0.0,0.0,0.0,0.0,11.0,12.0,13.0,14.0,42.932
2024-04-03 17:19:57,359.9375,-6.875,14.875,0.09449719258608259,0.0,0.0,-1.0,0.0,0.0,0.0,0.0,0.0,0.0,-0.0,0.0,0.0,0.0,0.0,0.0,11.0,12.0,13.0,14.0,42.932
2024-04-03 17:19:57,359.9375,-6.875,14.875,0.09449719258608259,0.0,0.0,-1.0,0.0,0.0,0.0,0.0,0.0,0.0,-0.0,0.0,0.0,0.0,0.0,0.0,11.0,12.0,13.0,14.0,42.932
2024-04-03 17:19:57,359.9375,-6.875,14.875,0.09449719258608259,0.0,0.0,-1.0,0.0,0.0,0.0,0.0,0.0,0.0,-0.0,0.0,0.0,0.0,0.0,0.0,11.0,12.0,13.0,14.0,43.47
2024-04-03 17:19:57,359.9375,-6.875,14.875,0.09449719258608259,0.0,0.0,-1.0,0.0,0.0,0.0,0.0,0.0,0.0,-0.0,0.0,0.0,0.0,0.0,0.0,11.0,12.0,13.0,14.0,44.008
2024-04-03 17:19:57,359.9375,-6.875,14.875,0.09449719258608259,0.0,0.0,0.0,0.0,0.0,0.0,0.0,0.0,0.0,-0.0,0.0,0.0,0.0,0.0,0.0,11.0,12.0,13.0,14.0,44.008
2024-04-03 17:19:57,359.9375,-6.875,14.875,0.09449719258608259,0.0,0.0,-1.0,0.0,0.0,0.0,0.0,0.0,0.0,-0.0,0.0,0.0,0.0,0.0,0.0,11.0,12.0,13.0,14.0,44.008
2024-04-03 17:19:57,359.9375,-6.875,14.875,0.09449719258608259,0.0,0.0,-1.0,0.0,0.0,0.0,0.0,0.0,0.0,-0.0,0.0,0.0,0.0,0.0,0.0,11.0,12.0,13.0,14.0,44.008
2024-04-03 17:19:57,359.9375,-6.875,14.875,0.09449719258608259,0.0,0.0,-1.0,0.0,0.0,0.0,0.0,0.0,0.0,-0.0,0.0,0.0,0.0,0.0,0.0,11.0,12.0,13.0,14.0,43.47
2024-04-03 17:19:58,359.9375,-6.875,14.875,0.09449719258608259,0.0,0.0,-1.0,0.0,0.0,0.0,0.0,0.0,0.0,-0.0,0.0,0.0,0.0,0.0,0.0,11.0,12.0,13.0,14.0,43.47
2024-04-03 17:19:58,359.9375,-6.875,14.875,0.09449719258608259,0.0,0.0,107.0,0.0,0.0,0.0,0.0,0.0,0.0,-0.0,0.0,0.0,0.0,0.0,0.0,11.0,12.0,13.0,14.0,44.008
2024-04-03 17:19:58,359.9375,-6.875,14.875,0.09449719258608259,0.0,0.0,-1.0,0.0,0.0,0.0,0.0,0.0,0.0,-0.0,0.0,0.0,0.0,0.0,0.0,11.0,12.0,13.0,14.0,43.47
2024-04-03 17:19:58,359.9375,-6.875,14.875,0.09449719258608259,0.0,0.0,-1.0,0.0,0.0,0.0,0.0,0.0,0.0,-0.0,0.0,0.0,0.0,0.0,0.0,11.0,12.0,13.0,14.0,43.47
2024-04-03 17:19:58,359.9375,-6.875,14.875,0.09449719258608259,0.0,0.0,107.0,0.0,0.0,0.0,0.0,0.0,0.0,-0.0,0.0,0.0,0.0,0.0,0.0,11.0,12.0,13.0,14.0,44.008
2024-04-03 17:19:58,359.9375,-6.875,14.875,0.09449719258608259,0.0,0.0,-1.0,0.0,0.0,0.0,0.0,0.0,0.0,-0.0,0.0,0.0,0.0,0.0,0.0,11.0,12.0,13.0,14.0,43.47
2024-04-03 17:19:58,359.9375,-6.875,14.875,0.08604337346597273,0.0,0.0,-1.0,0.0,0.0,0.0,0.0,0.0,0.0,-0.0,0.0,0.0,0.0,0.0,0.0,11.0,12.0,13.0,14.0,43.47
2024-04-03 17:19:58,359.9375,-6.875,14.875,0.08604337346597273,0.0,0.0,106.0,0.0,0.0,0.0,0.0,0.0,0.0,-0.0,0.0,0.0,0.0,0.0,0.0,11.0,12.0,13.0,14.0,43.47
2024-04-03 17:19:58,359.9375,-6.875,14.875,0.08604337346597273,0.0,0.0,-1.0,0.0,0.0,0.0,0.0,0.0,0.0,-0.0,0.0,0.0,0.0,0.0,0.0,11.0,12.0,13.0,14.0,43.47
2024-04-03 17:19:58,359.9375,-6.875,14.875,0.08604337346597273,0.0,0.0,-1.0,0.0,0.0,0.0,0.0,0.0,0.0,-0.0,0.0,0.0,0.0,0.0,0.0,11.0,12.0,13.0,14.0,43.47
2024-04-03 17:19:58,359.9375,-6.875,14.875,0.08604337346597273,0.0,0.0,-1.0,0.0,0.0,0.0,0.0,0.0,0.0,-0.0,0.0,0.0,0.0,0.0,0.0,11.0,12.0,13.0,14.0,44.008
2024-04-03 17:19:58,359.9375,-6.875,14.875,0.08604337346597273,0.0,0.0,-1.0,0.0,0.0,0.0,0.0,0.0,0.0,-0.0,0.0,0.0,0.0,0.0,0.0,11.0,12.0,13.0,14.0,43.47
2024-04-03 17:19:58,359.9375,-6.875,14.875,0.08604337346597273,0.0,0.0,108.0,0.0,0.0,0.0,0.0,0.0,0.0,-0.0,0.0,0.0,0.0,0.0,0.0,11.0,12.0,13.0,14.0,43.47
2024-04-03 17:19:59,359.9375,-6.875,14.875,0.08604337346597273,0.0,0.0,-1.0,0.0,0.0,0.0,0.0,0.0,0.0,-0.0,0.0,0.0,0.0,0.0,0.0,11.0,12.0,13.0,14.0,44.008
2024-04-03 17:19:59,359.9375,-6.875,14.875,0.08604337346597273,0.0,0.0,108.0,0.0,0.0,0.0,0.0,0.0,0.0,-0.0,0.0,0.0,0.0,0.0,0.0,11.0,12.0,13.0,14.0,43.47
2024-04-03 17:19:59,359.9375,-6.875,14.875,0.08604337346597273,0.0,0.0,-1.0,0.0,0.0,0.0,0.0,0.0,0.0,-0.0,0.0,0.0,0.0,0.0,0.0,11.0,12.0,13.0,14.0,43.47
2024-04-03 17:19:59,359.9375,-6.875,14.875,0.08604337346597273,0.0,0.0,-1.0,0.0,0.0,0.0,0.0,0.0,0.0,-0.0,0.0,0.0,0.0,0.0,0.0,11.0,12.0,13.0,14.0,44.008
2024-04-03 17:19:59,359.9375,-6.875,14.875,0.08604337346597273,0.0,0.0,108.0,0.0,0.0,0.0,0.0,0.0,0.0,-0.0,0.0,0.0,0.0,0.0,0.0,11.0,12.0,13.0,14.0,44.008
2024-04-03 17:19:59,359.9375,-6.875,14.875,0.08604337346597273,0.0,0.0,-1.0,0.0,0.0,0.0,0.0,0.0,0.0,-0.0,0.0,0.0,0.0,0.0,0.0,11.0,12.0,13.0,14.0,43.47
2024-04-03 17:19:59,359.9375,-6.875,14.875,0.08604337346597273,0.0,0.0,-1.0,0.0,0.0,0.0,0.0,0.0,0.0,-0.0,0.0,0.0,0.0,0.0,0.0,11.0,12.0,13.0,14.0,43.47
2024-04-03 17:19:59,359.9375,-6.875,14.875,0.08647785309014765,0.0,0.0,-1.0,0.0,0.0,0.0,0.0,0.0,0.0,-0.0,0.0,0.0,0.0,0.0,0.0,11.0,12.0,13.0,14.0,44.008
2024-04-03 17:19:59,359.9375,-6.875,14.875,0.08647785309014765,0.0,0.0,-1.0,0.0,0.0,0.0,0.0,0.0,0.0,-0.0,0.0,0.0,0.0,0.0,0.0,11.0,12.0,13.0,14.0,43.47
2024-04-03 17:19:59,359.9375,-6.875,14.875,0.08647785309014765,0.0,0.0,-1.0,0.0,0.0,0.0,0.0,0.0,0.0,-0.0,0.0,0.0,0.0,0.0,0.0,11.0,12.0,13.0,14.0,44.008
2024-04-03 17:19:59,359.9375,-6.875,14.875,0.08647785309014765,0.0,0.0,107.0,0.0,0.0,0.0,0.0,0.0,0.0,-0.0,0.0,0.0,0.0,0.0,0.0,11.0,12.0,13.0,14.0,43.47
2024-04-03 17:19:59,359.9375,-6.875,14.875,0.08647785309014765,0.0,0.0,-1.0,0.0,0.0,0.0,0.0,0.0,0.0,-0.0,0.0,0.0,0.0,0.0,0.0,11.0,12.0,13.0,14.0,43.47
2024-04-03 17:19:59,359.9375,-6.875,14.875,0.08647785309014765,0.0,0.0,-1.0,0.0,0.0,0.0,0.0,0.0,0.0,-0.0,0.0,0.0,0.0,0.0,0.0,11.0,12.0,13.0,14.0,42.932
2024-04-03 17:19:59,359.9375,-6.875,14.875,0.08647785309014765,0.0,0.0,108.0,0.0,0.0,0.0,0.0,0.0,0.0,-0.0,0.0,0.0,0.0,0.0,0.0,11.0,12.0,13.0,14.0,43.47
2024-04-03 17:20:00,359.9375,-6.875,14.875,0.08647785309014765,0.0,0.0,-1.0,0.0,0.0,0.0,0.0,0.0,0.0,-0.0,0.0,0.0,0.0,0.0,0.0,11.0,12.0,13.0,14.0,43.47
2024-04-03 17:20:00,359.9375,-6.875,14.875,0.08647785309014765,0.0,0.0,108.0,0.0,0.0,0.0,0.0,0.0,0.0,-0.0,0.0,0.0,0.0,0.0,0.0,11.0,12.0,13.0,14.0,44.008
2024-04-03 17:20:00,359.9375,-6.875,14.875,0.08647785309014765,0.0,0.0,-1.0,0.0,0.0,0.0,0.0,0.0,0.0,-0.0,0.0,0.0,0.0,0.0,0.0,11.0,12.0,13.0,14.0,42.932
2024-04-03 17:20:00,359.9375,-6.875,14.875,0.08647785309014765,0.0,0.0,108.0,0.0,0.0,0.0,0.0,0.0,0.0,-0.0,0.0,0.0,0.0,0.0,0.0,11.0,12.0,13.0,14.0,44.008
2024-04-03 17:20:00,359.9375,-6.875,14.875,0.08647785309014765,0.0,0.0,-1.0,0.0,0.0,0.0,0.0,0.0,0.0,-0.0,0.0,0.0,0.0,0.0,0.0,11.0,12.0,13.0,14.0,42.932
2024-04-03 17:20:00,359.9375,-6.875,14.875,0.08066360546036798,0.0,0.0,-1.0,0.0,0.0,0.0,0.0,0.0,0.0,-0.0,0.0,0.0,0.0,0.0,0.0,11.0,12.0,13.0,14.0,42.932
2024-04-03 17:20:00,359.9375,-6.875,14.875,0.08066360546036798,0.0,0.0,-1.0,0.0,0.0,0.0,0.0,0.0,0.0,-0.0,0.0,0.0,0.0,0.0,0.0,11.0,12.0,13.0,14.0,43.47
2024-04-03 17:20:00,359.9375,-6.875,14.875,0.08066360546036798,0.0,0.0,-1.0,0.0,0.0,0.0,0.0,0.0,0.0,-0.0,0.0,0.0,0.0,0.0,0.0,11.0,12.0,13.0,14.0,44.008
2024-04-03 17:20:00,359.9375,-6.875,14.875,0.08066360546036798,0.0,0.0,0.0,0.0,0.0,0.0,0.0,0.0,0.0,-0.0,0.0,0.0,0.0,0.0,0.0,11.0,12.0,13.0,14.0,44.008
2024-04-03 17:20:00,359.9375,-6.875,14.875,0.08066360546036798,0.0,0.0,-1.0,0.0,0.0,0.0,0.0,0.0,0.0,-0.0,0.0,0.0,0.0,0.0,0.0,11.0,12.0,13.0,14.0,44.008
2024-04-03 17:20:00,359.9375,-6.875,14.875,0.08066360546036798,0.0,0.0,108.0,0.0,0.0,0.0,0.0,0.0,0.0,-0.0,0.0,0.0,0.0,0.0,0.0,11.0,12.0,13.0,14.0,44.008
2024-04-03 17:20:01,359.9375,-6.875,14.875,0.08066360546036798,0.0,0.0,-1.0,0.0,0.0,0.0,0.0,0.0,0.0,-0.0,0.0,0.0,0.0,0.0,0.0,11.0,12.0,13.0,14.0,43.47
2024-04-03 17:20:01,359.9375,-6.875,14.875,0.08066360546036798,0.0,0.0,108.0,0.0,0.0,0.0,0.0,0.0,0.0,-0.0,0.0,0.0,0.0,0.0,0.0,11.0,12.0,13.0,14.0,42.932
2024-04-03 17:20:01,359.9375,-6.875,14.875,0.08066360546036798,0.0,0.0,-1.0,0.0,0.0,0.0,0.0,0.0,0.0,-0.0,0.0,0.0,0.0,0.0,0.0,11.0,12.0,13.0,14.0,43.47
2024-04-03 17:20:01,359.9375,-6.875,14.875,0.08066360546036798,0.0,0.0,-1.0,0.0,0.0,0.0,0.0,0.0,0.0,-0.0,0.0,0.0,0.0,0.0,0.0,11.0,12.0,13.0,14.0,42.932
2024-04-03 17:20:01,359.9375,-6.875,14.875,0.08066360546036798,0.0,0.0,0.0,0.0,0.0,0.0,0.0,0.0,0.0,-0.0,0.0,0.0,0.0,0.0,0.0,11.0,12.0,13.0,14.0,43.47
2024-04-03 17:20:01,359.9375,-6.875,14.875,0.08066360546036798,0.0,0.0,-1.0,0.0,0.0,0.0,0.0,0.0,0.0,-0.0,0.0,0.0,0.0,0.0,0.0,11.0,12.0,13.0,14.0,43.47
2024-04-03 17:20:01,359.9375,-6.875,14.875,0.08066360546036798,0.0,0.0,-1.0,0.0,0.0,0.0,0.0,0.0,0.0,-0.0,0.0,0.0,0.0,0.0,0.0,11.0,12.0,13.0,14.0,43.47
2024-04-03 17:20:01,359.9375,-6.875,14.875,0.08588545157605144,0.0,0.0,0.0,0.0,0.0,0.0,0.0,0.0,0.0,-0.0,0.0,0.0,0.0,0.0,0.0,11.0,12.0,13.0,14.0,43.47
2024-04-03 17:20:01,359.9375,-6.875,14.875,0.08588545157605144,0.0,0.0,-1.0,0.0,0.0,0.0,0.0,0.0,0.0,-0.0,0.0,0.0,0.0,0.0,0.0,11.0,12.0,13.0,14.0,44.008
2024-04-03 17:20:01,359.9375,-6.875,14.875,0.08588545157605144,0.0,0.0,-1.0,0.0,0.0,0.0,0.0,0.0,0.0,-0.0,0.0,0.0,0.0,0.0,0.0,11.0,12.0,13.0,14.0,44.008
2024-04-03 17:20:01,359.9375,-6.875,14.875,0.08588545157605144,0.0,0.0,106.0,0.0,0.0,0.0,0.0,0.0,0.0,-0.0,0.0,0.0,0.0,0.0,0.0,11.0,12.0,13.0,14.0,44.008
2024-04-03 17:20:01,359.9375,-6.875,14.875,0.08588545157605144,0.0,0.0,-1.0,0.0,0.0,0.0,0.0,0.0,0.0,-0.0,0.0,0.0,0.0,0.0,0.0,11.0,12.0,13.0,14.0,43.47
2024-04-03 17:20:01,359.9375,-6.875,14.875,0.08588545157605144,0.0,0.0,-1.0,0.0,0.0,0.0,0.0,0.0,0.0,-0.0,0.0,0.0,0.0,0.0,0.0,11.0,12.0,13.0,14.0,43.47
2024-04-03 17:20:01,359.9375,-6.875,14.875,0.08588545157605144,0.0,0.0,-1.0,0.0,0.0,0.0,0.0,0.0,0.0,-0.0,0.0,0.0,0.0,0.0,0.0,11.0,12.0,13.0,14.0,43.47
2024-04-03 17:20:02,359.9375,-6.875,14.875,0.08588545157605144,0.0,0.0,-1.0,0.0,0.0,0.0,0.0,0.0,0.0,-0.0,0.0,0.0,0.0,0.0,0.0,11.0,12.0,13.0,14.0,42.932
2024-04-03 17:20:02,359.9375,-6.875,14.875,0.08588545157605144,0.0,0.0,-1.0,0.0,0.0,0.0,0.0,0.0,0.0,-0.0,0.0,0.0,0.0,0.0,0.0,11.0,12.0,13.0,14.0,43.47
2024-04-03 17:20:02,359.9375,-6.875,14.875,0.08588545157605144,0.0,0.0,-1.0,0.0,0.0,0.0,0.0,0.0,0.0,-0.0,0.0,0.0,0.0,0.0,0.0,11.0,12.0,13.0,14.0,43.47
2024-04-03 17:20:02,359.9375,-6.875,14.875,0.08588545157605144,0.0,0.0,-1.0,0.0,0.0,0.0,0.0,0.0,0.0,-0.0,0.0,0.0,0.0,0.0,0.0,11.0,12.0,13.0,14.0,43.47
2024-04-03 17:20:02,359.9375,-6.875,14.875,0.08588545157605144,0.0,0.0,108.0,0.0,0.0,0.0,0.0,0.0,0.0,-0.0,0.0,0.0,0.0,0.0,0.0,11.0,12.0,13.0,14.0,44.008
2024-04-03 17:20:02,359.9375,-6.875,14.875,0.0841326964672551,0.0,0.0,-1.0,0.0,0.0,0.0,0.0,0.0,0.0,-0.0,0.0,0.0,0.0,0.0,0.0,11.0,12.0,13.0,14.0,44.008
2024-04-03 17:20:02,359.9375,-6.875,14.875,0.0841326964672551,0.0,0.0,-1.0,0.0,0.0,0.0,0.0,0.0,0.0,-0.0,0.0,0.0,0.0,0.0,0.0,11.0,12.0,13.0,14.0,43.47
2024-04-03 17:20:02,359.9375,-6.875,14.875,0.0841326964672551,0.0,0.0,-1.0,0.0,0.0,0.0,0.0,0.0,0.0,-0.0,0.0,0.0,0.0,0.0,0.0,11.0,12.0,13.0,14.0,43.47
2024-04-03 17:20:02,359.9375,-6.875,14.875,0.0841326964672551,0.0,0.0,-1.0,0.0,0.0,0.0,0.0,0.0,0.0,-0.0,0.0,0.0,0.0,0.0,0.0,11.0,12.0,13.0,14.0,43.47
2024-04-03 17:20:02,359.9375,-6.875,14.875,0.0841326964672551,0.0,0.0,108.0,0.0,0.0,0.0,0.0,0.0,0.0,-0.0,0.0,0.0,0.0,0.0,0.0,11.0,12.0,13.0,14.0,42.932
2024-04-03 17:20:02,359.9375,-6.875,14.875,0.0841326964672551,0.0,0.0,-1.0,0.0,0.0,0.0,0.0,0.0,0.0,-0.0,0.0,0.0,0.0,0.0,0.0,11.0,12.0,13.0,14.0,43.47
2024-04-03 17:20:02,359.9375,-6.875,14.875,0.0841326964672551,0.0,0.0,-1.0,0.0,0.0,0.0,0.0,0.0,0.0,-0.0,0.0,0.0,0.0,0.0,0.0,11.0,12.0,13.0,14.0,44.008
2024-04-03 17:20:02,359.9375,-6.875,14.875,0.0841326964672551,0.0,0.0,108.0,0.0,0.0,0.0,0.0,0.0,0.0,-0.0,0.0,0.0,0.0,0.0,0.0,11.0,12.0,13.0,14.0,44.008
2024-04-03 17:20:03,359.9375,-6.875,14.875,0.0841326964672551,0.0,0.0,-1.0,0.0,0.0,0.0,0.0,0.0,0.0,-0.0,0.0,0.0,0.0,0.0,0.0,11.0,12.0,13.0,14.0,44.008
2024-04-03 17:20:03,359.9375,-6.875,14.875,0.0841326964672551,0.0,0.0,109.0,0.0,0.0,0.0,0.0,0.0,0.0,-0.0,0.0,0.0,0.0,0.0,0.0,11.0,12.0,13.0,14.0,43.47
2024-04-03 17:20:03,359.9375,-6.875,14.875,0.0841326964672551,0.0,0.0,-1.0,0.0,0.0,0.0,0.0,0.0,0.0,-0.0,0.0,0.0,0.0,0.0,0.0,11.0,12.0,13.0,14.0,43.47
2024-04-03 17:20:03,359.9375,-6.875,14.875,0.0841326964672551,0.0,0.0,-1.0,0.0,0.0,0.0,0.0,0.0,0.0,-0.0,0.0,0.0,0.0,0.0,0.0,11.0,12.0,13.0,14.0,44.008
2024-04-03 17:20:03,359.9375,-6.875,14.875,0.08168080391438866,0.0,0.0,109.0,0.0,0.0,0.0,0.0,0.0,0.0,-0.0,0.0,0.0,0.0,0.0,0.0,11.0,12.0,13.0,14.0,43.47
2024-04-03 17:20:03,359.9375,-6.875,14.875,0.08168080391438866,0.0,0.0,-1.0,0.0,0.0,0.0,0.0,0.0,0.0,-0.0,0.0,0.0,0.0,0.0,0.0,11.0,12.0,13.0,14.0,43.47
2024-04-03 17:20:03,359.9375,-6.875,14.875,0.08168080391438866,0.0,0.0,-1.0,0.0,0.0,0.0,0.0,0.0,0.0,-0.0,0.0,0.0,0.0,0.0,0.0,11.0,12.0,13.0,14.0,43.47
2024-04-03 17:20:03,359.9375,-6.875,14.875,0.08168080391438866,0.0,0.0,-1.0,0.0,0.0,0.0,0.0,0.0,0.0,-0.0,0.0,0.0,0.0,0.0,0.0,11.0,12.0,13.0,14.0,44.008
2024-04-03 17:20:03,359.9375,-6.875,14.875,0.08168080391438866,0.0,0.0,-1.0,0.0,0.0,0.0,0.0,0.0,0.0,-0.0,0.0,0.0,0.0,0.0,0.0,11.0,12.0,13.0,14.0,44.008
2024-04-03 17:20:03,359.9375,-6.875,14.875,0.08168080391438866,0.0,0.0,-1.0,0.0,0.0,0.0,0.0,0.0,0.0,-0.0,0.0,0.0,0.0,0.0,0.0,11.0,12.0,13.0,14.0,44.008
2024-04-03 17:20:03,359.9375,-6.875,14.875,0.08168080391438866,0.0,0.0,-1.0,0.0,0.0,0.0,0.0,0.0,0.0,-0.0,0.0,0.0,0.0,0.0,0.0,11.0,12.0,13.0,14.0,43.47
2024-04-03 17:20:03,359.9375,-6.875,14.875,0.08168080391438866,0.0,0.0,109.0,0.0,0.0,0.0,0.0,0.0,0.0,-0.0,0.0,0.0,0.0,0.0,0.0,11.0,12.0,13.0,14.0,43.47
2024-04-03 17:20:04,359.9375,-6.875,14.875,0.08168080391438866,0.0,0.0,-1.0,0.0,0.0,0.0,0.0,0.0,0.0,-0.0,0.0,0.0,0.0,0.0,0.0,11.0,12.0,13.0,14.0,44.008
2024-04-03 17:20:04,359.9375,-6.875,14.875,0.08168080391438866,0.0,0.0,109.0,0.0,0.0,0.0,0.0,0.0,0.0,-0.0,0.0,0.0,0.0,0.0,0.0,11.0,12.0,13.0,14.0,44.008
2024-04-03 17:20:04,359.9375,-6.875,14.875,0.08168080391438866,0.0,0.0,-1.0,0.0,0.0,0.0,0.0,0.0,0.0,-0.0,0.0,0.0,0.0,0.0,0.0,11.0,12.0,13.0,14.0,43.47
2024-04-03 17:20:04,359.9375,-6.875,14.875,0.08168080391438866,0.0,0.0,-1.0,0.0,0.0,0.0,0.0,0.0,0.0,-0.0,0.0,0.0,0.0,0.0,0.0,11.0,12.0,13.0,14.0,44.008
2024-04-03 17:20:04,359.9375,-6.875,14.875,0.08168080391438866,0.0,0.0,0.0,0.0,0.0,0.0,0.0,0.0,0.0,-0.0,0.0,0.0,0.0,0.0,0.0,11.0,12.0,13.0,14.0,44.008
2024-04-03 17:20:04,359.9375,-6.875,14.875,0.08501621360006437,0.0,0.0,-1.0,0.0,0.0,0.0,0.0,0.0,0.0,-0.0,0.0,0.0,0.0,0.0,0.0,11.0,12.0,13.0,14.0,44.008
2024-04-03 17:20:04,359.9375,-6.875,14.875,0.08501621360006437,0.0,0.0,-1.0,0.0,0.0,0.0,0.0,0.0,0.0,-0.0,0.0,0.0,0.0,0.0,0.0,11.0,12.0,13.0,14.0,43.47
2024-04-03 17:20:04,359.9375,-6.875,14.875,0.08501621360006437,0.0,0.0,108.0,0.0,0.0,0.0,0.0,0.0,0.0,-0.0,0.0,0.0,0.0,0.0,0.0,11.0,12.0,13.0,14.0,43.47
2024-04-03 17:20:04,359.9375,-6.875,14.875,0.08501621360006437,0.0,0.0,-1.0,0.0,0.0,0.0,0.0,0.0,0.0,-0.0,0.0,0.0,0.0,0.0,0.0,11.0,12.0,13.0,14.0,43.47
2024-04-03 17:20:04,359.9375,-6.875,14.875,0.08501621360006437,0.0,0.0,-1.0,0.0,0.0,0.0,0.0,0.0,0.0,-0.0,0.0,0.0,0.0,0.0,0.0,11.0,12.0,13.0,14.0,42.932
2024-04-03 17:20:04,359.9375,-6.875,14.875,0.08501621360006437,0.0,0.0,108.0,0.0,0.0,0.0,0.0,0.0,0.0,-0.0,0.0,0.0,0.0,0.0,0.0,11.0,12.0,13.0,14.0,44.008
2024-04-03 17:20:04,359.9375,-6.875,14.875,0.08501621360006437,0.0,0.0,-1.0,0.0,0.0,0.0,0.0,0.0,0.0,-0.0,0.0,0.0,0.0,0.0,0.0,11.0,12.0,13.0,14.0,44.008
2024-04-03 17:20:04,359.9375,-6.875,14.875,0.08501621360006437,0.0,0.0,-1.0,0.0,0.0,0.0,0.0,0.0,0.0,-0.0,0.0,0.0,0.0,0.0,0.0,11.0,12.0,13.0,14.0,43.47
2024-04-03 17:20:04,359.9375,2041.125,14.875,0.08501621360006437,0.0,0.0,0.0,0.0,0.0,0.0,0.0,0.0,0.0,-0.0,0.0,0.0,0.0,0.0,0.0,11.0,12.0,13.0,14.0,43.47
2024-04-03 17:20:04,359.9375,-6.875,14.875,0.08501621360006437,0.0,0.0,-1.0,0.0,0.0,0.0,0.0,0.0,0.0,-0.0,0.0,0.0,0.0,0.0,0.0,11.0,12.0,13.0,14.0,44.008
2024-04-03 17:20:05,359.9375,-6.875,14.875,0.08501621360006437,0.0,0.0,-1.0,0.0,0.0,0.0,0.0,0.0,0.0,-0.0,0.0,0.0,0.0,0.0,0.0,11.0,12.0,13.0,14.0,43.47
2024-04-03 17:20:05,359.9375,-6.875,14.875,0.08501621360006437,0.0,0.0,107.0,0.0,0.0,0.0,0.0,0.0,0.0,-0.0,0.0,0.0,0.0,0.0,0.0,11.0,12.0,13.0,14.0,44.008
2024-04-03 17:20:05,359.9375,-6.875,14.875,0.08501621360006437,0.0,0.0,-1.0,0.0,0.0,0.0,0.0,0.0,0.0,-0.0,0.0,0.0,0.0,0.0,0.0,11.0,12.0,13.0,14.0,43.47
2024-04-03 17:20:05,359.9375,-6.875,14.875,0.085425222744326,0.0,0.0,107.0,0.0,0.0,0.0,0.0,0.0,0.0,-0.0,0.0,0.0,0.0,0.0,0.0,11.0,12.0,13.0,14.0,43.47
2024-04-03 17:20:05,359.9375,-6.875,14.875,0.085425222744326,0.0,0.0,-1.0,0.0,0.0,0.0,0.0,0.0,0.0,-0.0,0.0,0.0,0.0,0.0,0.0,11.0,12.0,13.0,14.0,43.47
2024-04-03 17:20:05,359.9375,-6.875,14.875,0.085425222744326,0.0,0.0,-1.0,0.0,0.0,0.0,0.0,0.0,0.0,-0.0,0.0,0.0,0.0,0.0,0.0,11.0,12.0,13.0,14.0,44.008
2024-04-03 17:20:05,359.9375,-6.875,14.875,0.085425222744326,0.0,0.0,0.0,0.0,0.0,0.0,0.0,0.0,0.0,-0.0,0.0,0.0,0.0,0.0,0.0,11.0,12.0,13.0,14.0,43.47
2024-04-03 17:20:05,359.9375,-6.875,14.875,0.085425222744326,0.0,0.0,-1.0,0.0,0.0,0.0,0.0,0.0,0.0,-0.0,0.0,0.0,0.0,0.0,0.0,11.0,12.0,13.0,14.0,43.47
2024-04-03 17:20:05,359.9375,-6.875,14.875,0.085425222744326,0.0,0.0,-1.0,0.0,0.0,0.0,0.0,0.0,0.0,-0.0,0.0,0.0,0.0,0.0,0.0,11.0,12.0,13.0,14.0,43.47
2024-04-03 17:20:05,359.9375,-6.875,14.875,0.085425222744326,0.0,0.0,-1.0,0.0,0.0,0.0,0.0,0.0,0.0,-0.0,0.0,0.0,0.0,0.0,0.0,11.0,12.0,13.0,14.0,43.47
2024-04-03 17:20:05,359.9375,-6.875,14.875,0.085425222744326,0.0,0.0,-1.0,0.0,0.0,0.0,0.0,0.0,0.0,-0.0,0.0,0.0,0.0,0.0,0.0,11.0,12.0,13.0,14.0,43.47
2024-04-03 17:20:05,359.9375,-6.875,14.875,0.085425222744326,0.0,0.0,-1.0,0.0,0.0,0.0,0.0,0.0,0.0,-0.0,0.0,0.0,0.0,0.0,0.0,11.0,12.0,13.0,14.0,43.47
2024-04-03 17:20:05,359.9375,-6.875,14.875,0.085425222744326,0.0,0.0,-1.0,0.0,0.0,0.0,0.0,0.0,0.0,-0.0,0.0,0.0,0.0,0.0,0.0,11.0,12.0,13.0,14.0,43.47
2024-04-03 17:20:06,359.9375,-6.875,14.875,0.085425222744326,0.0,0.0,-1.0,0.0,0.0,0.0,0.0,0.0,0.0,-0.0,0.0,0.0,0.0,0.0,0.0,11.0,12.0,13.0,14.0,44.008
2024-04-03 17:20:06,359.9375,-6.875,14.875,0.085425222744326,0.0,0.0,109.0,0.0,0.0,0.0,0.0,0.0,0.0,-0.0,0.0,0.0,0.0,0.0,0.0,11.0,12.0,13.0,14.0,43.47
2024-04-03 17:20:06,359.9375,-6.875,14.875,0.085425222744326,0.0,0.0,-1.0,0.0,0.0,0.0,0.0,0.0,0.0,-0.0,0.0,0.0,0.0,0.0,0.0,11.0,12.0,13.0,14.0,43.47
2024-04-03 17:20:06,359.9375,-6.875,14.875,0.085425222744326,0.0,0.0,-1.0,0.0,0.0,0.0,0.0,0.0,0.0,-0.0,0.0,0.0,0.0,0.0,0.0,11.0,12.0,13.0,14.0,43.47
2024-04-03 17:20:06,359.9375,-6.875,14.875,0.08613528413638637,0.0,0.0,107.0,0.0,0.0,0.0,0.0,0.0,0.0,-0.0,0.0,0.0,0.0,0.0,0.0,11.0,12.0,13.0,14.0,43.47
2024-04-03 17:20:06,359.9375,-6.875,14.875,0.08613528413638637,0.0,0.0,-1.0,0.0,0.0,0.0,0.0,0.0,0.0,-0.0,0.0,0.0,0.0,0.0,0.0,11.0,12.0,13.0,14.0,43.47
2024-04-03 17:20:06,359.9375,-6.875,14.875,0.08613528413638637,0.0,0.0,-1.0,0.0,0.0,0.0,0.0,0.0,0.0,-0.0,0.0,0.0,0.0,0.0,0.0,11.0,12.0,13.0,14.0,43.47
2024-04-03 17:20:06,359.9375,-6.875,14.875,0.08613528413638637,0.0,0.0,106.0,0.0,0.0,0.0,0.0,0.0,0.0,-0.0,0.0,0.0,0.0,0.0,0.0,11.0,12.0,13.0,14.0,43.47
2024-04-03 17:20:06,359.9375,-6.875,14.875,0.08613528413638637,0.0,0.0,-1.0,0.0,0.0,0.0,0.0,0.0,0.0,-0.0,0.0,0.0,0.0,0.0,0.0,11.0,12.0,13.0,14.0,42.932
2024-04-03 17:20:06,359.9375,-6.875,14.875,0.08613528413638637,0.0,0.0,-1.0,0.0,0.0,0.0,0.0,0.0,0.0,-0.0,0.0,0.0,0.0,0.0,0.0,11.0,12.0,13.0,14.0,43.47
2024-04-03 17:20:06,359.9375,-6.875,14.875,0.08613528413638637,0.0,0.0,-1.0,0.0,0.0,0.0,0.0,0.0,0.0,-0.0,0.0,0.0,0.0,0.0,0.0,11.0,12.0,13.0,14.0,42.932
2024-04-03 17:20:06,359.9375,-6.875,14.875,0.08613528413638637,0.0,0.0,-1.0,0.0,0.0,0.0,0.0,0.0,0.0,-0.0,0.0,0.0,0.0,0.0,0.0,11.0,12.0,13.0,14.0,43.47
2024-04-03 17:20:06,359.9375,-6.875,14.875,0.08613528413638637,0.0,0.0,-1.0,0.0,0.0,0.0,0.0,0.0,0.0,-0.0,0.0,0.0,0.0,0.0,0.0,11.0,12.0,13.0,14.0,43.47
2024-04-03 17:20:06,359.9375,-6.875,14.875,0.08613528413638637,0.0,0.0,-1.0,0.0,0.0,0.0,0.0,0.0,0.0,-0.0,0.0,0.0,0.0,0.0,0.0,11.0,12.0,13.0,14.0,43.47
2024-04-03 17:20:07,359.9375,-6.875,14.875,0.08613528413638637,0.0,0.0,-1.0,0.0,0.0,0.0,0.0,0.0,0.0,-0.0,0.0,0.0,0.0,0.0,0.0,11.0,12.0,13.0,14.0,44.008
2024-04-03 17:20:07,359.9375,-6.875,14.875,0.08613528413638637,0.0,0.0,108.0,0.0,0.0,0.0,0.0,0.0,0.0,-0.0,0.0,0.0,0.0,0.0,0.0,11.0,12.0,13.0,14.0,44.008
2024-04-03 17:20:07,359.9375,-6.875,14.875,0.08349227826162099,0.0,0.0,-1.0,0.0,0.0,0.0,0.0,0.0,0.0,-0.0,0.0,0.0,0.0,0.0,0.0,11.0,12.0,13.0,14.0,44.008
2024-04-03 17:20:07,359.9375,-6.875,14.875,0.08349227826162099,0.0,0.0,-1.0,0.0,0.0,0.0,0.0,0.0,0.0,-0.0,0.0,0.0,0.0,0.0,0.0,11.0,12.0,13.0,14.0,43.47
2024-04-03 17:20:07,359.9375,-6.875,14.875,0.08349227826162099,0.0,0.0,-1.0,0.0,0.0,0.0,0.0,0.0,0.0,-0.0,0.0,0.0,0.0,0.0,0.0,11.0,12.0,13.0,14.0,42.932
2024-04-03 17:20:07,359.9375,-6.875,14.875,0.08349227826162099,0.0,0.0,-1.0,0.0,0.0,0.0,0.0,0.0,0.0,-0.0,0.0,0.0,0.0,0.0,0.0,11.0,12.0,13.0,14.0,43.47
2024-04-03 17:20:07,359.9375,-6.875,14.875,0.08349227826162099,0.0,0.0,-1.0,0.0,0.0,0.0,0.0,0.0,0.0,-0.0,0.0,0.0,0.0,0.0,0.0,11.0,12.0,13.0,14.0,43.47
2024-04-03 17:20:07,359.9375,-6.875,14.875,0.08349227826162099,0.0,0.0,-1.0,0.0,0.0,0.0,0.0,0.0,0.0,-0.0,0.0,0.0,0.0,0.0,0.0,11.0,12.0,13.0,14.0,42.932
2024-04-03 17:20:07,359.9375,-6.875,14.875,0.08349227826162099,0.0,0.0,-1.0,0.0,0.0,0.0,0.0,0.0,0.0,-0.0,0.0,0.0,0.0,0.0,0.0,11.0,12.0,13.0,14.0,43.47
2024-04-03 17:20:07,359.9375,-6.875,14.875,0.08349227826162099,0.0,0.0,0.0,0.0,0.0,0.0,0.0,0.0,0.0,-0.0,0.0,0.0,0.0,0.0,0.0,11.0,12.0,13.0,14.0,43.47
2024-04-03 17:20:07,359.9375,-6.875,14.875,0.08349227826162099,0.0,0.0,-1.0,0.0,0.0,0.0,0.0,0.0,0.0,-0.0,0.0,0.0,0.0,0.0,0.0,11.0,12.0,13.0,14.0,43.47
2024-04-03 17:20:07,359.9375,-6.875,14.875,0.08349227826162099,0.0,0.0,-1.0,0.0,0.0,0.0,0.0,0.0,0.0,-0.0,0.0,0.0,0.0,0.0,0.0,11.0,12.0,13.0,14.0,43.47
2024-04-03 17:20:07,359.9375,-6.875,14.875,0.08349227826162099,0.0,0.0,0.0,0.0,0.0,0.0,0.0,0.0,0.0,-0.0,0.0,0.0,0.0,0.0,0.0,11.0,12.0,13.0,14.0,43.47
2024-04-03 17:20:07,359.9375,-6.875,14.875,0.08349227826162099,0.0,0.0,-1.0,0.0,0.0,0.0,0.0,0.0,0.0,-0.0,0.0,0.0,0.0,0.0,0.0,11.0,12.0,13.0,14.0,43.47
2024-04-03 17:20:08,359.9375,-6.875,14.875,0.08349227826162099,0.0,0.0,-1.0,0.0,0.0,0.0,0.0,0.0,0.0,-0.0,0.0,0.0,0.0,0.0,0.0,11.0,12.0,13.0,14.0,42.932
2024-04-03 17:20:08,359.9375,-6.875,14.875,0.0862463091495897,0.0,0.0,106.0,0.0,0.0,0.0,0.0,0.0,0.0,-0.0,0.0,0.0,0.0,0.0,0.0,11.0,12.0,13.0,14.0,42.932
2024-04-03 17:20:08,359.9375,-6.875,14.875,0.0862463091495897,0.0,0.0,-1.0,0.0,0.0,0.0,0.0,0.0,0.0,-0.0,0.0,0.0,0.0,0.0,0.0,11.0,12.0,13.0,14.0,43.47
2024-04-03 17:20:08,359.9375,-6.875,14.875,0.0862463091495897,0.0,0.0,-1.0,0.0,0.0,0.0,0.0,0.0,0.0,-0.0,0.0,0.0,0.0,0.0,0.0,11.0,12.0,13.0,14.0,43.47
2024-04-03 17:20:08,359.9375,-6.875,14.875,0.0862463091495897,0.0,0.0,107.0,0.0,0.0,0.0,0.0,0.0,0.0,-0.0,0.0,0.0,0.0,0.0,0.0,11.0,12.0,13.0,14.0,43.47
2024-04-03 17:20:08,359.9375,-6.875,14.875,0.0862463091495897,0.0,0.0,-1.0,0.0,0.0,0.0,0.0,0.0,0.0,-0.0,0.0,0.0,0.0,0.0,0.0,11.0,12.0,13.0,14.0,43.47
2024-04-03 17:20:08,359.9375,-6.875,14.875,0.0862463091495897,0.0,0.0,-1.0,0.0,0.0,0.0,0.0,0.0,0.0,-0.0,0.0,0.0,0.0,0.0,0.0,11.0,12.0,13.0,14.0,44.008
2024-04-03 17:20:08,359.9375,-6.875,14.875,0.0862463091495897,0.0,0.0,0.0,0.0,0.0,0.0,0.0,0.0,0.0,-0.0,0.0,0.0,0.0,0.0,0.0,11.0,12.0,13.0,14.0,43.47
2024-04-03 17:20:08,359.9375,-6.875,14.875,0.0862463091495897,0.0,0.0,-1.0,0.0,0.0,0.0,0.0,0.0,0.0,-0.0,0.0,0.0,0.0,0.0,0.0,11.0,12.0,13.0,14.0,44.008
2024-04-03 17:20:08,359.9375,-6.875,14.875,0.0862463091495897,0.0,0.0,-1.0,0.0,0.0,0.0,0.0,0.0,0.0,-0.0,0.0,0.0,0.0,0.0,0.0,11.0,12.0,13.0,14.0,43.47
2024-04-03 17:20:08,359.9375,-6.875,14.875,0.0862463091495897,0.0,0.0,-1.0,0.0,0.0,0.0,0.0,0.0,0.0,0.05091463414634146,0.05091463414634146,0.0,0.0,0.0,0.0,11.0,12.0,13.0,14.0,44.008
2024-04-03 17:20:08,359.9375,-6.875,14.875,0.0862463091495897,0.0,0.0,-1.0,0.0,0.0,0.0,0.0,0.0,0.0,0.4348475609756098,0.4348475609756098,0.0,0.0,0.0,0.0,11.0,12.0,13.0,14.0,43.47
2024-04-03 17:20:08,359.9375,-6.875,14.875,0.0862463091495897,0.0,0.0,-1.0,0.0,0.0,0.0,0.0,0.0,0.0,0.5915548780487805,0.5915548780487805,0.0,0.0,0.0,0.0,11.0,12.0,13.0,14.0,42.932
2024-04-03 17:20:08,359.9375,-6.875,14.875,0.0862463091495897,0.0,0.0,-1.0,0.0,0.0,0.0,0.0,0.0,0.0,0.6307317073170732,0.6307317073170732,0.0,0.0,0.0,0.0,11.0,12.0,13.0,14.0,42.932
2024-04-03 17:20:09,359.9375,2041.125,14.875,0.0862463091495897,0.0,0.0,-1.0,0.0,0.0,0.0,0.0,0.0,0.0,0.6934146341463414,0.6934146341463414,0.0,0.0,0.0,0.0,11.0,12.0,13.0,14.0,43.47
2024-04-03 17:20:09,359.9375,-6.875,14.875,0.0845659306089673,0.0,0.0,110.0,0.0,0.0,0.0,0.0,0.0,0.0,0.9989939024390244,0.9989939024390244,0.0,0.0,0.0,0.0,11.0,12.0,13.0,14.0,43.47
2024-04-03 17:20:09,359.9375,-6.875,14.875,0.0845659306089673,0.0,0.0,-1.0,0.0,0.0,0.0,0.0,0.0,0.0,0.9989939024390244,0.9989939024390244,0.0,0.0,0.0,0.0,11.0,12.0,13.0,14.0,43.47
2024-04-03 17:20:09,359.9375,-6.875,14.875,0.0845659306089673,0.0,0.0,-1.0,0.0,0.0,0.0,0.0,0.0,0.0,0.9989939024390244,0.9989939024390244,0.0,0.0,0.0,0.0,11.0,12.0,13.0,14.0,43.47
2024-04-03 17:20:09,359.9375,-6.875,14.875,0.0845659306089673,0.0,0.0,0.0,0.0,0.0,0.0,0.0,0.0,0.0,-0.803109756097561,-0.803109756097561,0.0,0.0,0.0,0.0,11.0,12.0,13.0,14.0,44.008
2024-04-03 17:20:09,359.9375,-6.875,14.875,0.0845659306089673,0.0,0.0,-1.0,0.0,0.0,0.0,0.0,0.0,0.0,-0.4583536585365854,-0.4583536585365854,0.0,0.0,0.0,0.0,11.0,12.0,13.0,14.0,43.47
2024-04-03 17:20:09,359.9375,-6.875,14.875,0.0845659306089673,0.0,0.0,-1.0,0.0,0.0,0.0,0.0,0.0,0.0,-0.0,0.0,0.0,0.0,0.0,0.0,11.0,12.0,13.0,14.0,44.008
2024-04-03 17:20:09,359.9375,-6.875,14.875,0.0845659306089673,0.0,0.0,-1.0,0.0,0.0,0.0,0.0,0.0,0.0,-0.0,0.0,0.0,0.0,0.0,0.0,11.0,12.0,13.0,14.0,42.932
2024-04-03 17:20:09,359.9375,-6.875,14.875,0.0845659306089673,0.0,0.0,-1.0,0.0,0.0,0.0,0.0,0.0,0.0,-0.0,0.0,0.0,0.0,0.0,0.0,11.0,12.0,13.0,14.0,43.47
2024-04-03 17:20:09,359.9375,-6.875,14.875,0.0845659306089673,0.0,0.0,-1.0,0.0,0.0,0.0,0.0,0.0,0.0,-0.0,0.0,0.0,0.0,0.0,0.0,11.0,12.0,13.0,14.0,43.47
2024-04-03 17:20:09,359.9375,-6.875,14.875,0.0845659306089673,0.0,0.0,-1.0,0.0,0.0,0.0,0.0,0.0,0.0,-0.0,0.0,0.0,0.0,0.0,0.0,11.0,12.0,13.0,14.0,43.47
2024-04-03 17:20:09,359.9375,-6.875,14.875,0.0845659306089673,0.0,0.0,-1.0,0.0,0.0,0.0,0.0,0.0,0.0,0.13710365853658538,0.13710365853658538,0.0,0.0,0.0,0.0,11.0,12.0,13.0,14.0,43.47
2024-04-03 17:20:09,359.9375,-6.875,14.875,0.0845659306089673,0.0,0.0,-1.0,0.0,0.0,-0.20762195121951219,0.20762195121951219,0.20762195121951219,-0.20762195121951219,0.9989939024390244,0.9989939024390244,0.0,0.0,0.0,0.0,11.0,12.0,13.0,14.0,42.932
2024-04-03 17:20:09,359.9375,-6.875,14.875,0.0845659306089673,0.0,0.0,-1.0,0.0,0.0,-0.10576219512195122,0.10576219512195122,0.10576219512195122,-0.10576219512195122,0.7796036585365854,0.7796036585365854,0.0,0.0,0.0,0.0,11.0,12.0,13.0,14.0,43.47
2024-04-03 17:20:10,359.9375,-6.875,14.875,0.08548091002324573,0.0,0.0,-1.0,0.0,0.0,-0.17628048780487804,0.17628048780487804,0.17628048780487804,-0.17628048780487804,-0.9676524390243902,-0.9676524390243902,0.0,0.0,0.0,0.0,11.0,12.0,13.0,14.0,44.008
2024-04-03 17:20:10,359.9375,-6.875,14.875,0.08548091002324573,0.0,0.0,-1.0,0.0,0.0,-0.2938109756097561,0.2938109756097561,0.2938109756097561,-0.2938109756097561,-0.9989939024390244,-0.9989939024390244,0.0,0.0,0.0,0.0,11.0,12.0,13.0,14.0,43.47
2024-04-03 17:20:10,359.9375,-6.875,14.875,0.08548091002324573,0.0,0.0,-1.0,0.0,0.0,-0.03524390243902439,0.03524390243902439,0.03524390243902439,-0.03524390243902439,-0.4348475609756098,-0.4348475609756098,0.0,0.0,0.0,0.0,11.0,12.0,13.0,14.0,44.008
2024-04-03 17:20:10,359.9375,-6.875,14.875,0.08548091002324573,0.0,0.0,-1.0,0.0,0.0,0.0,0.0,0.0,0.0,-0.0,0.0,0.0,0.0,0.0,0.0,11.0,12.0,13.0,14.0,43.47
2024-04-03 17:20:10,359.9375,-6.875,14.875,0.08548091002324573,0.0,0.0,109.0,0.0,0.0,0.0,0.0,0.0,0.0,-0.0,0.0,0.0,0.0,0.0,0.0,11.0,12.0,13.0,14.0,43.47
2024-04-03 17:20:10,359.9375,-6.875,14.875,0.08548091002324573,0.0,0.0,-1.0,0.0,0.0,0.0,0.0,0.0,0.0,0.9989939024390244,0.9989939024390244,0.0,0.0,0.0,0.0,11.0,12.0,13.0,14.0,43.47
2024-04-03 17:20:10,359.9375,-6.875,14.875,0.08548091002324573,0.0,0.0,-1.0,0.0,0.0,0.0,0.0,0.0,0.0,0.9989939024390244,0.9989939024390244,0.0,0.0,0.0,0.0,11.0,12.0,13.0,14.0,44.008
2024-04-03 17:20:10,359.9375,-6.875,14.875,0.08548091002324573,0.0,0.0,107.0,0.0,0.0,0.0,0.0,0.0,0.0,0.8109451219512195,0.8109451219512195,0.0,0.0,0.0,0.0,11.0,12.0,13.0,14.0,43.47
2024-04-03 17:20:10,359.9375,-6.875,14.875,0.08548091002324573,0.0,0.0,-1.0,0.0,0.0,0.0,0.0,0.0,0.0,-0.17628048780487804,-0.17628048780487804,0.0,0.0,0.0,0.0,11.0,12.0,13.0,14.0,43.47
2024-04-03 17:20:10,359.9375,-6.875,14.875,0.08548091002324573,0.0,0.0,-1.0,0.0,0.0,-0.06658536585365854,0.06658536585365854,0.06658536585365854,-0.06658536585365854,-0.9989939024390244,-0.9989939024390244,0.0,0.0,0.0,0.0,11.0,12.0,13.0,14.0,44.008
2024-04-03 17:20:10,359.9375,-6.875,14.875,0.08548091002324573,0.0,0.0,0.0,0.0,0.0,-0.06658536585365854,0.06658536585365854,0.06658536585365854,-0.06658536585365854,-0.9989939024390244,-0.9989939024390244,0.0,0.0,0.0,0.0,11.0,12.0,13.0,14.0,42.932
2024-04-03 17:20:10,359.9375,-6.875,14.875,0.08548091002324573,0.0,0.0,-1.0,0.0,0.0,-0.12926829268292683,0.12926829268292683,0.12926829268292683,-0.12926829268292683,-0.12926829268292683,-0.12926829268292683,0.0,0.0,0.0,0.0,11.0,12.0,13.0,14.0,43.47
2024-04-03 17:20:10,359.9375,-6.875,14.875,0.08548091002324573,0.0,0.0,-1.0,0.0,0.0,-0.21545731707317073,0.21545731707317073,0.21545731707317073,-0.21545731707317073,0.9363109756097561,0.9363109756097561,0.0,0.0,0.0,0.0,11.0,12.0,13.0,14.0,43.47
2024-04-03 17:20:10,359.9375,-6.875,14.875,0.08341551131212607,0.0,0.0,-1.0,0.0,0.0,0.0,0.0,0.0,0.0,0.9989939024390244,0.9989939024390244,0.0,0.0,0.0,0.0,11.0,12.0,13.0,14.0,43.47
2024-04-03 17:20:11,359.9375,-6.875,14.875,0.08341551131212607,0.0,0.0,-1.0,0.0,0.0,0.0,0.0,0.0,0.0,-0.05091463414634146,-0.05091463414634146,0.0,0.0,0.0,0.0,11.0,12.0,13.0,14.0,42.932
2024-04-03 17:20:11,359.9375,-6.875,14.875,0.08341551131212607,0.0,0.0,0.0,0.0,0.0,0.0,0.0,0.0,0.0,-0.9989939024390244,-0.9989939024390244,0.0,0.0,0.0,0.0,11.0,12.0,13.0,14.0,43.47
2024-04-03 17:20:11,359.9375,-6.875,14.875,0.08341551131212607,0.0,0.0,-1.0,0.0,0.0,0.0,0.0,0.0,0.0,-0.9989939024390244,-0.9989939024390244,0.0,0.0,0.0,0.0,11.0,12.0,13.0,14.0,42.932
2024-04-03 17:20:11,359.9375,-6.875,14.875,0.08341551131212607,0.0,0.0,-1.0,0.0,0.0,0.11359756097560976,-0.11359756097560976,-0.11359756097560976,0.11359756097560976,-0.9989939024390244,-0.9989939024390244,0.0,0.0,0.0,0.0,11.0,12.0,13.0,14.0,42.932
2024-04-03 17:20:11,359.9375,-6.875,14.875,0.08341551131212607,0.0,0.0,0.0,0.0,0.0,0.0,0.0,0.0,0.0,-0.0,0.0,0.0,0.0,0.0,0.0,11.0,12.0,13.0,14.0,43.47
2024-04-03 17:20:11,359.9375,-6.875,14.875,0.08341551131212607,0.0,0.0,-1.0,0.0,0.0,0.0,0.0,0.0,0.0,-0.0,0.0,0.0,0.0,0.0,0.0,11.0,12.0,13.0,14.0,43.47
2024-04-03 17:20:11,359.9375,-6.875,14.875,0.08341551131212607,0.0,0.0,-1.0,0.0,0.0,0.0,0.0,0.0,0.0,-0.0,0.0,0.0,0.0,0.0,0.0,11.0,12.0,13.0,14.0,44.008
2024-04-03 17:20:11,359.9375,-6.875,14.875,0.08341551131212607,0.0,0.0,-1.0,0.0,0.0,0.0,0.0,0.0,0.0,-0.0,0.0,0.0,0.0,0.0,0.0,11.0,12.0,13.0,14.0,42.932
2024-04-03 17:20:11,359.9375,-6.875,14.875,0.08341551131212607,0.0,0.0,-1.0,0.0,0.0,0.0,0.0,0.0,0.0,-0.0,0.0,0.0,0.0,0.0,0.0,11.0,12.0,13.0,14.0,43.47
2024-04-03 17:20:11,359.9375,-6.875,14.875,0.08341551131212607,0.0,0.0,-1.0,0.0,0.0,0.0,0.0,0.0,0.0,-0.0,0.0,0.0,0.0,0.0,0.0,11.0,12.0,13.0,14.0,42.932
2024-04-03 17:20:11,359.9375,-6.875,14.875,0.08341551131212607,0.0,0.0,-1.0,0.0,0.0,0.0,0.0,0.0,0.0,-0.0,0.0,0.0,0.0,0.0,0.0,11.0,12.0,13.0,14.0,42.932
2024-04-03 17:20:11,359.9375,-6.875,14.875,0.08341551131212607,0.0,0.0,-1.0,0.0,0.0,0.0,0.0,0.0,0.0,-0.0,0.0,0.0,0.0,0.0,0.0,11.0,12.0,13.0,14.0,43.47
2024-04-03 17:20:11,359.9375,-6.875,14.875,0.08483793964661303,0.0,0.0,107.0,0.0,0.0,0.0,0.0,0.0,0.0,-0.0,0.0,0.0,0.0,0.0,0.0,11.0,12.0,13.0,14.0,43.47
2024-04-03 17:20:11,359.9375,-6.875,14.875,0.08483793964661303,0.0,0.0,-1.0,0.0,0.0,0.0,0.0,0.0,0.0,-0.0,0.0,0.0,0.0,0.0,0.0,11.0,12.0,13.0,14.0,43.47
2024-04-03 17:20:12,359.9375,-6.875,14.875,0.08483793964661303,0.0,0.0,-1.0,0.0,0.0,0.0,0.0,0.0,0.0,-0.0,0.0,0.0,0.0,0.0,0.0,11.0,12.0,13.0,14.0,43.47
2024-04-03 17:20:12,359.9375,-6.875,14.875,0.08483793964661303,0.0,0.0,107.0,0.0,0.0,0.0,0.0,0.0,0.0,-0.0,0.0,0.0,0.0,0.0,0.0,11.0,12.0,13.0,14.0,44.008
2024-04-03 17:20:12,359.9375,-6.875,14.875,0.08483793964661303,0.0,0.0,-1.0,0.0,0.0,0.0,0.0,0.0,0.0,-0.0,0.0,0.0,0.0,0.0,0.0,11.0,12.0,13.0,14.0,42.932
2024-04-03 17:20:12,359.9375,-6.875,14.875,0.08483793964661303,0.0,0.0,-1.0,0.0,0.0,0.0,0.0,0.0,0.0,-0.0,0.0,0.0,0.0,0.0,0.0,11.0,12.0,13.0,14.0,43.47
2024-04-03 17:20:12,359.9375,-6.875,14.875,0.08483793964661303,0.0,0.0,106.0,0.0,0.0,0.0,0.0,0.0,0.0,-0.0,0.0,0.0,0.0,0.0,0.0,11.0,12.0,13.0,14.0,43.47
2024-04-03 17:20:12,359.9375,-6.875,14.875,0.08483793964661303,0.0,0.0,-1.0,0.0,0.0,0.0,0.0,0.0,0.0,-0.0,0.0,0.0,0.0,0.0,0.0,11.0,12.0,13.0,14.0,43.47
2024-04-03 17:20:12,359.9375,-6.875,14.875,0.08483793964661303,0.0,0.0,-1.0,0.0,0.0,0.0,0.0,0.0,0.0,-0.0,0.0,0.0,0.0,0.0,0.0,11.0,12.0,13.0,14.0,43.47
2024-04-03 17:20:12,359.9375,-6.875,14.875,0.08483793964661303,0.0,0.0,106.0,0.0,0.0,0.0,0.0,0.0,0.0,-0.0,0.0,0.0,0.0,0.0,0.0,11.0,12.0,13.0,14.0,43.47
2024-04-03 17:20:12,359.9375,-6.875,14.875,0.08483793964661303,0.0,0.0,-1.0,0.0,0.0,0.0,0.0,0.0,0.0,-0.0,0.0,0.0,0.0,0.0,0.0,11.0,12.0,13.0,14.0,44.008
2024-04-03 17:20:12,359.9375,-6.875,14.875,0.08483793964661303,0.0,0.0,-1.0,0.0,0.0,0.0,0.0,0.0,0.0,-0.0,0.0,0.0,0.0,0.0,0.0,11.0,12.0,13.0,14.0,43.47
2024-04-03 17:20:12,359.9375,-6.875,14.875,0.08483793964661303,0.0,0.0,107.0,0.0,0.0,0.0,0.0,0.0,0.0,-0.0,0.0,0.0,0.0,0.0,0.0,11.0,12.0,13.0,14.0,42.932
2024-04-03 17:20:12,359.9375,-6.875,14.875,0.08536133222329689,0.0,0.0,-1.0,0.0,0.0,0.0,0.0,0.0,0.0,-0.0,0.0,0.0,0.0,0.0,0.0,11.0,12.0,13.0,14.0,42.932
2024-04-03 17:20:12,359.9375,-6.875,14.875,0.08536133222329689,0.0,0.0,-1.0,0.0,0.0,0.0,0.0,0.0,0.0,-0.0,0.0,0.0,0.0,0.0,0.0,11.0,12.0,13.0,14.0,43.47
2024-04-03 17:20:12,359.9375,-6.875,14.875,0.08536133222329689,0.0,0.0,-1.0,0.0,0.0,0.0,0.0,0.0,0.0,-0.0,0.0,0.0,0.0,0.0,0.0,11.0,12.0,13.0,14.0,43.47
2024-04-03 17:20:13,359.9375,-6.875,14.875,0.08536133222329689,0.0,0.0,-1.0,0.0,0.0,0.0,0.0,0.0,0.0,-0.0,0.0,0.0,0.0,0.0,0.0,11.0,12.0,13.0,14.0,44.008
2024-04-03 17:20:13,359.9375,-6.875,14.875,0.08536133222329689,0.0,0.0,107.0,0.0,0.0,0.0,0.0,0.0,0.0,-0.0,0.0,1.0,1.0,1.0,1.0,11.0,12.0,13.0,14.0,43.47
2024-04-03 17:20:13,359.9375,-6.875,14.875,0.08536133222329689,0.0,0.0,-1.0,0.0,0.0,0.0,0.0,0.0,0.0,-0.0,0.0,1.0,1.0,1.0,1.0,11.0,12.0,13.0,14.0,44.008
2024-04-03 17:20:13,359.9375,-6.875,14.875,0.08536133222329689,0.0,0.0,-1.0,0.0,0.0,0.0,0.0,0.0,0.0,-0.0,0.0,1.0,1.0,1.0,1.0,11.0,12.0,13.0,14.0,43.47
2024-04-03 17:20:13,359.9375,-6.875,14.875,0.08536133222329689,0.0,0.0,0.0,0.0,0.0,0.0,0.0,0.0,0.0,-0.0,0.0,1.0,1.0,1.0,1.0,11.0,12.0,13.0,14.0,44.008
2024-04-03 17:20:13,359.9375,-6.875,14.875,0.08536133222329689,0.0,0.0,-1.0,0.0,0.0,0.0,0.0,0.0,0.0,-0.0,0.0,1.0,1.0,1.0,1.0,11.0,12.0,13.0,14.0,43.47
2024-04-03 17:20:13,359.9375,-6.875,14.875,0.08536133222329689,0.0,0.0,-1.0,0.0,0.0,0.0,0.0,0.0,0.0,-0.0,0.0,1.0,1.0,1.0,1.0,11.0,12.0,13.0,14.0,43.47
2024-04-03 17:20:13,359.9375,-6.875,14.875,0.08536133222329689,0.0,0.0,78.0,0.0,0.0,0.0,0.0,0.0,0.0,-0.0,0.0,1.0,1.0,1.0,1.0,11.0,12.0,13.0,14.0,44.008
2024-04-03 17:20:13,359.9375,-6.875,14.875,0.08536133222329689,0.0,0.0,-1.0,0.0,0.0,0.0,0.0,0.0,0.0,-0.0,0.0,1.0,1.0,1.0,1.0,11.0,12.0,13.0,14.0,43.47
2024-04-03 17:20:13,359.9375,-6.875,14.875,0.08536133222329689,0.0,0.0,-1.0,0.0,0.0,0.0,0.0,0.0,0.0,-0.0,0.0,1.0,1.0,1.0,1.0,11.0,12.0,13.0,14.0,44.008
2024-04-03 17:20:13,359.9375,-6.875,14.875,0.08598205979868119,0.0,0.0,76.0,0.0,0.0,0.0,0.0,0.0,0.0,-0.0,0.0,1.0,1.0,1.0,1.0,11.0,12.0,13.0,14.0,43.47
2024-04-03 17:20:13,359.9375,-6.875,14.875,0.08598205979868119,0.0,0.0,-1.0,0.0,0.0,0.0,0.0,0.0,0.0,-0.0,0.0,1.0,1.0,1.0,1.0,11.0,12.0,13.0,14.0,43.47
2024-04-03 17:20:13,359.9375,-6.875,14.875,0.08598205979868119,0.0,0.0,-1.0,0.0,0.0,0.0,0.0,0.0,0.0,-0.0,0.0,1.0,1.0,1.0,1.0,11.0,12.0,13.0,14.0,44.008
2024-04-03 17:20:13,359.9375,-6.875,14.875,0.08598205979868119,0.0,0.0,-1.0,0.0,0.0,0.0,0.0,0.0,0.0,-0.0,0.0,1.0,1.0,1.0,1.0,11.0,12.0,13.0,14.0,44.008
2024-04-03 17:20:14,359.9375,-6.875,14.875,0.08598205979868119,0.0,0.0,-1.0,0.0,0.0,0.0,0.0,0.0,0.0,-0.0,0.0,1.0,1.0,1.0,1.0,11.0,12.0,13.0,14.0,43.47
2024-04-03 17:20:14,359.9375,-6.875,14.875,0.08598205979868119,0.0,0.0,-1.0,0.0,0.0,0.0,0.0,0.0,0.0,-0.0,0.0,1.0,1.0,1.0,1.0,11.0,12.0,13.0,14.0,43.47
2024-04-03 17:20:14,359.9375,-6.875,14.875,0.08598205979868119,0.0,0.0,-1.0,0.0,0.0,0.0,0.0,0.0,0.0,-0.0,0.0,1.0,1.0,1.0,1.0,11.0,12.0,13.0,14.0,44.008
2024-04-03 17:20:14,359.9375,-6.875,14.875,0.08598205979868119,0.0,0.0,-1.0,0.0,0.0,0.0,0.0,0.0,0.0,-0.0,0.0,1.0,1.0,1.0,1.0,11.0,12.0,13.0,14.0,44.008
2024-04-03 17:20:14,359.9375,-6.875,14.875,0.08598205979868119,0.0,0.0,-1.0,0.0,0.0,0.0,0.0,0.0,0.0,-0.0,0.0,1.0,1.0,1.0,1.0,11.0,12.0,13.0,14.0,43.47
2024-04-03 17:20:14,359.9375,-6.875,14.875,0.08598205979868119,0.0,0.0,-1.0,0.0,0.0,0.0,0.0,0.0,0.0,-0.0,0.0,1.0,1.0,1.0,1.0,11.0,12.0,13.0,14.0,43.47
2024-04-03 17:20:14,359.9375,-6.875,14.875,0.08598205979868119,0.0,0.0,-1.0,0.0,0.0,0.0,0.0,0.0,0.0,-0.0,0.0,1.0,1.0,1.0,1.0,11.0,12.0,13.0,14.0,43.47
2024-04-03 17:20:14,359.9375,-6.875,14.875,0.08598205979868119,0.0,0.0,-1.0,0.0,0.0,0.0,0.0,0.0,0.0,-0.0,0.0,1.0,1.0,1.0,1.0,11.0,12.0,13.0,14.0,43.47
2024-04-03 17:20:14,359.9375,-6.875,14.875,0.0871474556910356,0.0,0.0,-1.0,0.0,0.0,0.0,0.0,0.0,0.0,-0.0,0.0,1.0,1.0,1.0,1.0,11.0,12.0,13.0,14.0,43.47
2024-04-03 17:20:14,359.9375,-6.875,14.875,0.0871474556910356,0.0,0.0,-1.0,0.0,0.0,0.0,0.0,0.0,0.0,-0.0,0.0,1.0,1.0,1.0,1.0,11.0,12.0,13.0,14.0,43.47
2024-04-03 17:20:14,359.9375,-6.875,14.875,0.0871474556910356,0.0,0.0,-1.0,0.0,0.0,0.0,0.0,0.0,0.0,-0.0,0.0,1.0,1.0,1.0,1.0,11.0,12.0,13.0,14.0,44.008
2024-04-03 17:20:14,359.9375,-6.875,14.875,0.0871474556910356,0.0,0.0,-1.0,0.0,0.0,0.0,0.0,0.0,0.0,-0.0,0.0,1.0,1.0,1.0,1.0,11.0,12.0,13.0,14.0,44.008
2024-04-03 17:20:14,359.9375,-6.875,14.875,0.0871474556910356,0.0,0.0,72.0,0.0,0.0,0.0,0.0,0.0,0.0,-0.0,0.0,1.0,1.0,1.0,1.0,11.0,12.0,13.0,14.0,44.008
2024-04-03 17:20:14,359.9375,-6.875,14.875,0.0871474556910356,0.0,0.0,-1.0,0.0,0.0,0.0,0.0,0.0,0.0,-0.0,0.0,1.0,1.0,1.0,1.0,11.0,12.0,13.0,14.0,44.008
2024-04-03 17:20:15,359.9375,-6.875,14.875,0.0871474556910356,0.0,0.0,73.0,0.0,0.0,0.0,0.0,0.0,0.0,-0.0,0.0,1.0,1.0,1.0,1.0,11.0,12.0,13.0,14.0,43.47
2024-04-03 17:20:15,359.9375,-6.875,-2033.125,0.0871474556910356,0.0,0.0,-1.0,0.0,0.0,0.0,0.0,0.0,0.0,-0.0,0.0,1.0,1.0,1.0,1.0,11.0,12.0,13.0,14.0,44.546
2024-04-03 17:20:15,359.9375,-6.875,14.875,0.0871474556910356,0.0,0.0,-1.0,0.0,0.0,0.0,0.0,0.0,0.0,-0.0,0.0,1.0,1.0,1.0,1.0,11.0,12.0,13.0,14.0,44.008
2024-04-03 17:20:15,359.9375,-6.875,14.875,0.0871474556910356,0.0,0.0,-1.0,0.0,0.0,0.0,0.0,0.0,0.0,-0.0,0.0,1.0,1.0,1.0,1.0,11.0,12.0,13.0,14.0,42.932
2024-04-03 17:20:15,359.9375,-6.875,14.875,0.0871474556910356,0.0,0.0,-1.0,0.0,0.0,0.0,0.0,0.0,0.0,-0.0,0.0,1.0,1.0,1.0,1.0,11.0,12.0,13.0,14.0,43.47
2024-04-03 17:20:15,359.9375,-6.875,14.875,0.0871474556910356,0.0,0.0,-1.0,0.0,0.0,0.0,0.0,0.0,0.0,-0.0,0.0,1.0,1.0,1.0,1.0,11.0,12.0,13.0,14.0,44.008
2024-04-03 17:20:15,359.9375,-6.875,14.875,0.0871474556910356,0.0,0.0,-1.0,0.0,0.0,0.0,0.0,0.0,0.0,-0.0,0.0,1.0,1.0,1.0,1.0,11.0,12.0,13.0,14.0,43.47
2024-04-03 17:20:15,359.9375,-6.875,14.875,0.08568035531650764,0.0,0.0,-1.0,0.0,0.0,0.0,0.0,0.0,0.0,-0.0,0.0,1.0,1.0,1.0,1.0,11.0,12.0,13.0,14.0,44.008
2024-04-03 17:20:15,359.9375,-6.875,14.875,0.08568035531650764,0.0,0.0,74.0,0.0,0.0,0.0,0.0,0.0,0.0,-0.0,0.0,1.0,1.0,1.0,1.0,11.0,12.0,13.0,14.0,44.008
2024-04-03 17:20:15,359.9375,-6.875,14.875,0.08568035531650764,0.0,0.0,-1.0,0.0,0.0,0.0,0.0,0.0,0.0,-0.0,0.0,1.0,1.0,1.0,1.0,11.0,12.0,13.0,14.0,44.008
2024-04-03 17:20:15,359.9375,-6.875,14.875,0.08568035531650764,0.0,0.0,-1.0,0.0,0.0,0.0,0.0,0.0,0.0,-0.0,0.0,1.0,1.0,1.0,1.0,11.0,12.0,13.0,14.0,44.008
2024-04-03 17:20:15,359.9375,-6.875,14.875,0.08568035531650764,0.0,0.0,-1.0,0.0,0.0,0.0,0.0,0.0,0.0,-0.0,0.0,1.0,1.0,1.0,1.0,11.0,12.0,13.0,14.0,42.932
2024-04-03 17:20:15,359.9375,-6.875,14.875,0.08568035531650764,0.0,0.0,-1.0,0.0,0.0,0.0,0.0,0.0,0.0,-0.0,0.0,1.0,1.0,1.0,1.0,11.0,12.0,13.0,14.0,44.546
2024-04-03 17:20:15,359.9375,-6.875,14.875,0.08568035531650764,0.0,0.0,-1.0,0.0,0.0,0.0,0.0,0.0,0.0,-0.0,0.0,1.0,1.0,1.0,1.0,11.0,12.0,13.0,14.0,43.47
2024-04-03 17:20:16,359.9375,-6.875,14.875,0.08568035531650764,0.0,0.0,-1.0,0.0,0.0,0.0,0.0,0.0,0.0,-0.0,0.0,1.0,1.0,1.0,1.0,11.0,12.0,13.0,14.0,43.47
2024-04-03 17:20:16,359.9375,-6.875,14.875,0.08568035531650764,0.0,0.0,-1.0,0.0,0.0,0.0,0.0,0.0,0.0,-0.0,0.0,1.0,1.0,1.0,1.0,11.0,12.0,13.0,14.0,43.47
2024-04-03 17:20:16,359.9375,-6.875,14.875,0.08568035531650764,0.0,0.0,-1.0,0.0,0.0,0.0,0.0,0.0,0.0,-0.0,0.0,1.0,1.0,1.0,1.0,11.0,12.0,13.0,14.0,42.932
2024-04-03 17:20:16,359.9375,-6.875,14.875,0.08568035531650764,0.0,0.0,-1.0,0.0,0.0,0.0,0.0,0.0,0.0,-0.0,0.0,1.0,1.0,1.0,1.0,11.0,12.0,13.0,14.0,43.47
2024-04-03 17:20:16,359.9375,-6.875,14.875,0.08568035531650764,0.0,0.0,-1.0,0.0,0.0,0.0,0.0,0.0,0.0,-0.0,0.0,1.0,1.0,1.0,1.0,11.0,12.0,13.0,14.0,43.47
2024-04-03 17:20:16,359.9375,-6.875,14.875,0.08568035531650764,0.0,0.0,-1.0,0.0,0.0,0.0,0.0,0.0,0.0,-0.0,0.0,1.0,1.0,1.0,1.0,11.0,12.0,13.0,14.0,43.47
2024-04-03 17:20:16,359.9375,-6.875,14.875,0.08587411259031541,0.0,0.0,74.0,0.0,0.0,0.0,0.0,0.0,0.0,-0.0,0.0,1.0,1.0,1.0,1.0,11.0,12.0,13.0,14.0,43.47
2024-04-03 17:20:16,359.9375,-6.875,14.875,0.08587411259031541,0.0,0.0,-1.0,0.0,0.0,0.0,0.0,0.0,0.0,-0.0,0.0,1.0,1.0,1.0,1.0,11.0,12.0,13.0,14.0,43.47
2024-04-03 17:20:16,359.9375,-6.875,14.875,0.08587411259031541,0.0,0.0,-1.0,0.0,0.0,0.0,0.0,0.0,0.0,-0.0,0.0,1.0,1.0,1.0,1.0,11.0,12.0,13.0,14.0,43.47
2024-04-03 17:20:16,359.9375,-6.875,14.875,0.08587411259031541,0.0,0.0,-1.0,0.0,0.0,0.0,0.0,0.0,0.0,-0.0,0.0,1.0,1.0,1.0,1.0,11.0,12.0,13.0,14.0,43.47
2024-04-03 17:20:16,2407.9375,-6.875,14.875,0.08587411259031541,0.0,0.0,-1.0,0.0,0.0,0.0,0.0,0.0,0.0,-0.0,0.0,1.0,1.0,1.0,1.0,11.0,12.0,13.0,14.0,44.008
2024-04-03 17:20:16,359.9375,-6.875,14.875,0.08587411259031541,0.0,0.0,-1.0,0.0,0.0,0.0,0.0,0.0,0.0,-0.0,0.0,1.0,1.0,1.0,1.0,11.0,12.0,13.0,14.0,44.008
2024-04-03 17:20:16,359.9375,-6.875,14.875,0.08587411259031541,0.0,0.0,-1.0,0.0,0.0,0.0,0.0,0.0,0.0,-0.0,0.0,1.0,1.0,1.0,1.0,11.0,12.0,13.0,14.0,43.47
2024-04-03 17:20:16,359.9375,-6.875,14.875,0.08587411259031541,0.0,0.0,-1.0,0.0,0.0,0.0,0.0,0.0,0.0,-0.0,0.0,1.0,1.0,1.0,1.0,11.0,12.0,13.0,14.0,43.47
2024-04-03 17:20:17,359.9375,-6.875,14.875,0.08587411259031541,0.0,0.0,74.0,0.0,0.0,0.0,0.0,0.0,0.0,-0.0,0.0,1.0,1.0,1.0,1.0,11.0,12.0,13.0,14.0,44.008
2024-04-03 17:20:17,359.9375,-6.875,14.875,0.08587411259031541,0.0,0.0,-1.0,0.0,0.0,0.0,0.0,0.0,0.0,-0.0,0.0,1.0,1.0,1.0,1.0,11.0,12.0,13.0,14.0,44.008
2024-04-03 17:20:17,359.9375,-6.875,14.875,0.08587411259031541,0.0,0.0,-1.0,0.0,0.0,0.0,0.0,0.0,0.0,-0.0,0.0,1.0,1.0,1.0,1.0,11.0,12.0,13.0,14.0,44.008
2024-04-03 17:20:17,359.9375,-6.875,14.875,0.08587411259031541,0.0,0.0,73.0,0.0,0.0,0.0,0.0,0.0,0.0,-0.0,0.0,1.0,1.0,1.0,1.0,11.0,12.0,13.0,14.0,44.008
2024-04-03 17:20:17,359.9375,-6.875,14.875,0.08874620068194614,0.0,0.0,-1.0,0.0,0.0,0.0,0.0,0.0,0.0,-0.0,0.0,1.0,1.0,1.0,1.0,11.0,12.0,13.0,14.0,44.008
2024-04-03 17:20:17,359.9375,-6.875,14.875,0.08874620068194614,0.0,0.0,-1.0,0.0,0.0,0.0,0.0,0.0,0.0,-0.0,0.0,1.0,1.0,1.0,1.0,11.0,12.0,13.0,14.0,43.47
2024-04-03 17:20:17,359.9375,-6.875,14.875,0.08874620068194614,0.0,0.0,-1.0,0.0,0.0,0.0,0.0,0.0,0.0,-0.0,0.0,1.0,1.0,1.0,1.0,11.0,12.0,13.0,14.0,44.008
2024-04-03 17:20:17,359.9375,-6.875,14.875,0.08874620068194614,0.0,0.0,-1.0,0.0,0.0,0.0,0.0,0.0,0.0,-0.0,0.0,1.0,1.0,1.0,1.0,11.0,12.0,13.0,14.0,42.932
2024-04-03 17:20:17,359.9375,-6.875,14.875,0.08874620068194614,0.0,0.0,-1.0,0.0,0.0,0.0,0.0,0.0,0.0,-0.0,0.0,1.0,1.0,1.0,1.0,11.0,12.0,13.0,14.0,44.008
2024-04-03 17:20:17,359.9375,-6.875,14.875,0.08874620068194614,0.0,0.0,-1.0,0.0,0.0,0.0,0.0,0.0,0.0,-0.0,0.0,1.0,1.0,1.0,1.0,11.0,12.0,13.0,14.0,44.008
2024-04-03 17:20:17,359.9375,-6.875,14.875,0.08874620068194614,0.0,0.0,-1.0,0.0,0.0,0.0,0.0,0.0,0.0,-0.0,0.0,1.0,1.0,1.0,1.0,11.0,12.0,13.0,14.0,43.47
2024-04-03 17:20:17,359.9375,-6.875,14.875,0.08874620068194614,0.0,0.0,-1.0,0.0,0.0,0.0,0.0,0.0,0.0,-0.0,0.0,1.0,1.0,1.0,1.0,11.0,12.0,13.0,14.0,44.008
2024-04-03 17:20:17,359.9375,-6.875,14.875,0.08874620068194614,0.0,0.0,-1.0,0.0,0.0,0.0,0.0,0.0,0.0,-0.0,0.0,1.0,1.0,1.0,1.0,11.0,12.0,13.0,14.0,44.008
2024-04-03 17:20:17,359.9375,-6.875,14.875,0.08874620068194614,0.0,0.0,-1.0,0.0,0.0,0.0,0.0,0.0,0.0,-0.0,0.0,1.0,1.0,1.0,1.0,11.0,12.0,13.0,14.0,43.47
2024-04-03 17:20:17,359.9375,-6.875,14.875,0.08874620068194614,0.0,0.0,-1.0,0.0,0.0,0.0,0.0,0.0,0.0,-0.0,0.0,1.0,1.0,1.0,1.0,11.0,12.0,13.0,14.0,43.47
2024-04-03 17:20:18,359.9375,-6.875,14.875,0.08874620068194614,0.0,0.0,-1.0,0.0,0.0,0.0,0.0,0.0,0.0,-0.0,0.0,1.0,1.0,1.0,1.0,11.0,12.0,13.0,14.0,44.008
2024-04-03 17:20:18,359.9375,-6.875,14.875,0.08830243531013882,0.0,0.0,-1.0,0.0,0.0,0.0,0.0,0.0,0.0,-0.0,0.0,1.0,1.0,1.0,1.0,11.0,12.0,13.0,14.0,44.546
2024-04-03 17:20:18,359.9375,-6.875,14.875,0.08830243531013882,0.0,0.0,-1.0,0.0,0.0,0.0,0.0,0.0,0.0,-0.0,0.0,1.0,1.0,1.0,1.0,11.0,12.0,13.0,14.0,43.47
2024-04-03 17:20:18,359.9375,-6.875,14.875,0.08830243531013882,0.0,0.0,-1.0,0.0,0.0,0.0,0.0,0.0,0.0,-0.0,0.0,1.0,1.0,1.0,1.0,11.0,12.0,13.0,14.0,43.47
2024-04-03 17:20:18,359.9375,-6.875,14.875,0.08830243531013882,0.0,0.0,-1.0,0.0,0.0,0.0,0.0,0.0,0.0,-0.0,0.0,1.0,1.0,1.0,1.0,11.0,12.0,13.0,14.0,44.008
2024-04-03 17:20:18,359.9375,-6.875,14.875,0.08830243531013882,0.0,0.0,73.0,0.0,0.0,0.0,0.0,0.0,0.0,-0.0,0.0,1.0,1.0,1.0,1.0,11.0,12.0,13.0,14.0,44.008
2024-04-03 17:20:18,359.9375,-6.875,14.875,0.08830243531013882,0.0,0.0,-1.0,0.0,0.0,0.0,0.0,0.0,0.0,-0.0,0.0,1.0,1.0,1.0,1.0,11.0,12.0,13.0,14.0,43.47
