Timestamp,Yaw,Pitch,Roll,Depth,Depth Set,Depth Control,Water,Roll Control,Pitch Control,Thruster1,Thruster2,Thruster3,Thruster4,Thruster5,Thruster6,BCD1,BCD2,BCD3,BCD4,BCD1 Volt,BCD2 Volt,BCD3 Volt,BCD4 Volt,CPU
2024-04-02 22:52:10,0.0,-11.6875,17.375,-0.015298677654372568,0.0,0.0,0.0,0.0,0.0,0.0,0.0,0.0,0.0,-0.0,0.0,0.0,0.0,0.0,0.0,11.0,12.0,13.0,14.0,46.16
2024-04-02 22:52:10,0.0,-11.6875,17.375,-0.015298677654372568,0.0,0.0,-1.0,0.0,0.0,0.0,0.0,0.0,0.0,-0.0,0.0,0.0,0.0,0.0,0.0,11.0,12.0,13.0,14.0,46.16
2024-04-02 22:52:10,0.0,-11.6875,17.375,-0.015298677654372568,0.0,0.0,-1.0,0.0,0.0,0.0,0.0,0.0,0.0,-0.0,0.0,0.0,0.0,0.0,0.0,11.0,12.0,13.0,14.0,46.16
2024-04-02 22:52:10,0.0,-11.6875,17.375,-0.015298677654372568,0.0,0.0,-1.0,0.0,0.0,0.0,0.0,0.0,0.0,-0.0,0.0,0.0,0.0,0.0,0.0,11.0,12.0,13.0,14.0,46.16
2024-04-02 22:52:11,0.0,-11.6875,17.375,-0.015298677654372568,0.0,0.0,-1.0,0.0,0.0,0.0,0.0,0.0,0.0,-0.0,0.0,0.0,0.0,0.0,0.0,11.0,12.0,13.0,14.0,45.622
2024-04-02 22:52:11,0.0,-11.6875,17.375,-0.015298677654372568,0.0,0.0,-1.0,0.0,0.0,0.0,0.0,0.0,0.0,-0.0,0.0,0.0,0.0,0.0,0.0,11.0,12.0,13.0,14.0,45.622
2024-04-02 22:52:11,0.0,-11.6875,17.375,-0.015298677654372568,0.0,0.0,-1.0,0.0,0.0,0.0,0.0,0.0,0.0,-0.0,0.0,0.0,0.0,0.0,0.0,11.0,12.0,13.0,14.0,46.16
2024-04-02 22:52:11,0.0,-11.6875,17.375,-0.015298677654372568,0.0,0.0,126.0,0.0,0.0,0.0,0.0,0.0,0.0,-0.0,0.0,0.0,0.0,0.0,0.0,11.0,12.0,13.0,14.0,45.622
2024-04-02 22:52:11,0.0,-11.6875,17.375,-0.015298677654372568,0.0,0.0,-1.0,0.0,0.0,0.0,0.0,0.0,0.0,-0.0,0.0,0.0,0.0,0.0,0.0,11.0,12.0,13.0,14.0,46.16
2024-04-02 22:52:11,0.0,-11.6875,17.375,-0.015298677654372568,0.0,0.0,-1.0,0.0,0.0,0.0,0.0,0.0,0.0,-0.0,0.0,0.0,0.0,0.0,0.0,11.0,12.0,13.0,14.0,46.16
2024-04-02 22:52:11,0.0,-11.6875,17.375,-0.015298677654372568,0.0,0.0,80.0,0.0,0.0,0.0,0.0,0.0,0.0,-0.0,0.0,0.0,0.0,0.0,0.0,11.0,12.0,13.0,14.0,46.16
2024-04-02 22:52:11,0.0,-11.6875,17.375,-0.015298677654372568,0.0,0.0,-1.0,0.0,0.0,0.0,0.0,0.0,0.0,-0.0,0.0,0.0,0.0,0.0,0.0,11.0,12.0,13.0,14.0,46.16
2024-04-02 22:52:11,0.0,-11.6875,17.375,-0.015298677654372568,0.0,0.0,-1.0,0.0,0.0,0.0,0.0,0.0,0.0,-0.0,0.0,0.0,0.0,0.0,0.0,11.0,12.0,13.0,14.0,45.622
2024-04-02 22:52:11,0.0,-11.6875,17.375,-0.015298677654372568,0.0,0.0,-1.0,0.0,0.0,0.0,0.0,0.0,0.0,-0.0,0.0,0.0,0.0,0.0,0.0,11.0,12.0,13.0,14.0,46.16
2024-04-02 22:52:11,0.0,-11.6875,17.375,-0.014577831331933733,0.0,0.0,-1.0,0.0,0.0,0.0,0.0,0.0,0.0,-0.0,0.0,0.0,0.0,0.0,0.0,11.0,12.0,13.0,14.0,46.16
2024-04-02 22:52:11,0.0,-11.6875,17.375,-0.014577831331933733,0.0,0.0,-1.0,0.0,0.0,0.0,0.0,0.0,0.0,-0.0,0.0,0.0,0.0,0.0,0.0,11.0,12.0,13.0,14.0,46.16
2024-04-02 22:52:11,0.0,-11.6875,17.375,-0.014577831331933733,0.0,0.0,-1.0,0.0,0.0,0.0,0.0,0.0,0.0,-0.0,0.0,0.0,0.0,0.0,0.0,11.0,12.0,13.0,14.0,46.16
2024-04-02 22:52:11,0.0,-11.6875,17.375,-0.014577831331933733,0.0,0.0,-1.0,0.0,0.0,0.0,0.0,0.0,0.0,-0.0,0.0,0.0,0.0,0.0,0.0,11.0,12.0,13.0,14.0,46.16
2024-04-02 22:52:11,0.0,-11.6875,17.375,-0.014577831331933733,0.0,0.0,-1.0,0.0,0.0,0.0,0.0,0.0,0.0,-0.0,0.0,0.0,0.0,0.0,0.0,11.0,12.0,13.0,14.0,46.16
2024-04-02 22:52:12,0.0,-11.6875,17.375,-0.014577831331933733,0.0,0.0,-1.0,0.0,0.0,0.0,0.0,0.0,0.0,-0.0,0.0,0.0,0.0,0.0,0.0,11.0,12.0,13.0,14.0,46.16
2024-04-02 22:52:12,0.0,-11.6875,17.375,-0.014577831331933733,0.0,0.0,-1.0,0.0,0.0,0.0,0.0,0.0,0.0,-0.0,0.0,0.0,0.0,0.0,0.0,11.0,12.0,13.0,14.0,46.16
2024-04-02 22:52:12,0.0,-11.6875,17.375,-0.014577831331933733,0.0,0.0,-1.0,0.0,0.0,0.0,0.0,0.0,0.0,-0.0,0.0,0.0,0.0,0.0,0.0,11.0,12.0,13.0,14.0,46.16
2024-04-02 22:52:12,0.0,-11.6875,17.375,-0.014577831331933733,0.0,0.0,-1.0,0.0,0.0,0.0,0.0,0.0,0.0,-0.0,0.0,0.0,0.0,0.0,0.0,11.0,12.0,13.0,14.0,45.622
2024-04-02 22:52:12,0.0,-11.6875,17.375,-0.014577831331933733,0.0,0.0,-1.0,0.0,0.0,0.0,0.0,0.0,0.0,-0.0,0.0,0.0,0.0,0.0,0.0,11.0,12.0,13.0,14.0,46.16
2024-04-02 22:52:12,0.0,-11.6875,17.375,-0.014577831331933733,0.0,0.0,-1.0,0.0,0.0,0.0,0.0,0.0,0.0,-0.0,0.0,0.0,0.0,0.0,0.0,11.0,12.0,13.0,14.0,46.16
2024-04-02 22:52:12,0.0,-11.6875,17.375,-0.014577831331933733,0.0,0.0,-1.0,0.0,0.0,0.0,0.0,0.0,0.0,-0.0,0.0,0.0,0.0,0.0,0.0,11.0,12.0,13.0,14.0,46.16
2024-04-02 22:52:12,0.0,-11.6875,17.375,-0.014577831331933733,0.0,0.0,-1.0,0.0,0.0,0.0,0.0,0.0,0.0,-0.0,0.0,0.0,0.0,0.0,0.0,11.0,12.0,13.0,14.0,46.698
2024-04-02 22:52:12,0.0,-11.6875,17.375,-0.014577831331933733,0.0,0.0,245.0,0.0,0.0,0.0,0.0,0.0,0.0,-0.0,0.0,0.0,0.0,0.0,0.0,11.0,12.0,13.0,14.0,46.698
2024-04-02 22:52:12,0.0,-11.6875,17.375,-0.014577831331933733,0.0,0.0,-1.0,0.0,0.0,0.0,0.0,0.0,0.0,-0.0,0.0,0.0,0.0,0.0,0.0,11.0,12.0,13.0,14.0,46.16
2024-04-02 22:52:12,0.0,-11.6875,17.375,-0.014577831331933733,0.0,0.0,-1.0,0.0,0.0,0.0,0.0,0.0,0.0,-0.0,0.0,0.0,0.0,0.0,0.0,11.0,12.0,13.0,14.0,46.698
2024-04-02 22:52:12,0.0,-11.6875,17.375,-0.015116266178293404,0.0,0.0,0.0,0.0,0.0,0.0,0.0,0.0,0.0,-0.0,0.0,0.0,0.0,0.0,0.0,11.0,12.0,13.0,14.0,46.16
2024-04-02 22:52:12,0.0,-11.6875,17.375,-0.015116266178293404,0.0,0.0,-1.0,0.0,0.0,0.0,0.0,0.0,0.0,-0.0,0.0,0.0,0.0,0.0,0.0,11.0,12.0,13.0,14.0,46.16
2024-04-02 22:52:12,0.0,-11.6875,17.375,-0.015116266178293404,0.0,0.0,-1.0,0.0,0.0,0.0,0.0,0.0,0.0,-0.0,0.0,0.0,0.0,0.0,0.0,11.0,12.0,13.0,14.0,46.698
2024-04-02 22:52:13,0.0,-11.6875,17.375,-0.015116266178293404,0.0,0.0,0.0,0.0,0.0,0.0,0.0,0.0,0.0,-0.0,0.0,0.0,0.0,0.0,0.0,11.0,12.0,13.0,14.0,47.236
2024-04-02 22:52:13,0.0,-11.6875,17.375,-0.015116266178293404,0.0,0.0,-1.0,0.0,0.0,0.0,0.0,0.0,0.0,-0.0,0.0,0.0,0.0,0.0,0.0,11.0,12.0,13.0,14.0,46.16
2024-04-02 22:52:13,0.0,-11.6875,17.375,-0.015116266178293404,0.0,0.0,-1.0,0.0,0.0,0.0,0.0,0.0,0.0,-0.0,0.0,0.0,0.0,0.0,0.0,11.0,12.0,13.0,14.0,46.698
2024-04-02 22:52:13,0.0,-11.6875,17.375,-0.015116266178293404,0.0,0.0,241.0,0.0,0.0,0.0,0.0,0.0,0.0,-0.0,0.0,0.0,0.0,0.0,0.0,11.0,12.0,13.0,14.0,47.236
2024-04-02 22:52:13,0.0,-11.6875,17.375,-0.015116266178293404,0.0,0.0,-1.0,0.0,0.0,0.0,0.0,0.0,0.0,-0.0,0.0,0.0,0.0,0.0,0.0,11.0,12.0,13.0,14.0,46.698
2024-04-02 22:52:13,0.0,-11.6875,17.375,-0.015116266178293404,0.0,0.0,-1.0,0.0,0.0,0.0,0.0,0.0,0.0,-0.0,0.0,0.0,0.0,0.0,0.0,11.0,12.0,13.0,14.0,46.698
2024-04-02 22:52:13,0.0,-11.6875,17.375,-0.015116266178293404,0.0,0.0,240.0,0.0,0.0,0.0,0.0,0.0,0.0,-0.0,0.0,0.0,0.0,0.0,0.0,11.0,12.0,13.0,14.0,47.236
2024-04-02 22:52:13,0.0,-11.6875,17.375,-0.015116266178293404,0.0,0.0,-1.0,0.0,0.0,0.0,0.0,0.0,0.0,-0.0,0.0,0.0,0.0,0.0,0.0,11.0,12.0,13.0,14.0,47.236
2024-04-02 22:52:13,0.0,-11.6875,17.375,-0.015116266178293404,0.0,0.0,-1.0,0.0,0.0,0.0,0.0,0.0,0.0,-0.0,0.0,0.0,0.0,0.0,0.0,11.0,12.0,13.0,14.0,47.236
2024-04-02 22:52:13,0.0,-11.6875,17.375,-0.015116266178293404,0.0,0.0,240.0,0.0,0.0,0.0,0.0,0.0,0.0,-0.0,0.0,0.0,0.0,0.0,0.0,11.0,12.0,13.0,14.0,46.698
2024-04-02 22:52:13,0.0,-11.6875,17.375,-0.015116266178293404,0.0,0.0,-1.0,0.0,0.0,0.0,0.0,0.0,0.0,-0.0,0.0,0.0,0.0,0.0,0.0,11.0,12.0,13.0,14.0,47.236
2024-04-02 22:52:13,0.0,-11.6875,17.375,-0.015116266178293404,0.0,0.0,-1.0,0.0,0.0,0.0,0.0,0.0,0.0,-0.0,0.0,0.0,0.0,0.0,0.0,11.0,12.0,13.0,14.0,47.236
2024-04-02 22:52:13,0.0,-11.6875,17.375,-0.014503260883450568,0.0,0.0,241.0,0.0,0.0,0.0,0.0,0.0,0.0,-0.0,0.0,0.0,0.0,0.0,0.0,11.0,12.0,13.0,14.0,46.698
2024-04-02 22:52:13,0.0,-11.6875,17.375,-0.014503260883450568,0.0,0.0,-1.0,0.0,0.0,0.0,0.0,0.0,0.0,-0.0,0.0,0.0,0.0,0.0,0.0,11.0,12.0,13.0,14.0,46.16
2024-04-02 22:52:13,0.0,-11.6875,17.375,-0.014503260883450568,0.0,0.0,-1.0,0.0,0.0,0.0,0.0,0.0,0.0,-0.0,0.0,0.0,0.0,0.0,0.0,11.0,12.0,13.0,14.0,46.698
2024-04-02 22:52:14,0.0,-11.6875,17.375,-0.014503260883450568,0.0,0.0,239.0,0.0,0.0,0.0,0.0,0.0,0.0,-0.0,0.0,0.0,0.0,0.0,0.0,11.0,12.0,13.0,14.0,47.236
2024-04-02 22:52:14,0.0,-11.6875,17.375,-0.014503260883450568,0.0,0.0,-1.0,0.0,0.0,0.0,0.0,0.0,0.0,-0.0,0.0,0.0,0.0,0.0,0.0,11.0,12.0,13.0,14.0,46.16
2024-04-02 22:52:14,0.0,-11.6875,17.375,-0.014503260883450568,0.0,0.0,-1.0,0.0,0.0,0.0,0.0,0.0,0.0,-0.0,0.0,0.0,0.0,0.0,0.0,11.0,12.0,13.0,14.0,46.698
2024-04-02 22:52:14,0.0,-11.6875,17.375,-0.014503260883450568,0.0,0.0,239.0,0.0,0.0,0.0,0.0,0.0,0.0,-0.0,0.0,0.0,0.0,0.0,0.0,11.0,12.0,13.0,14.0,46.16
2024-04-02 22:52:14,0.0,-11.6875,17.375,-0.014503260883450568,0.0,0.0,-1.0,0.0,0.0,0.0,0.0,0.0,0.0,-0.0,0.0,0.0,0.0,0.0,0.0,11.0,12.0,13.0,14.0,46.16
2024-04-02 22:52:14,0.0,-11.6875,17.375,-0.014503260883450568,0.0,0.0,-1.0,0.0,0.0,0.0,0.0,0.0,0.0,-0.0,0.0,0.0,0.0,0.0,0.0,11.0,12.0,13.0,14.0,46.698
2024-04-02 22:52:14,0.0,-11.6875,17.375,-0.014503260883450568,0.0,0.0,240.0,0.0,0.0,0.0,0.0,0.0,0.0,-0.0,0.0,0.0,0.0,0.0,0.0,11.0,12.0,13.0,14.0,46.698
2024-04-02 22:52:14,0.0,-11.6875,17.375,-0.014503260883450568,0.0,0.0,-1.0,0.0,0.0,0.0,0.0,0.0,0.0,-0.0,0.0,0.0,0.0,0.0,0.0,11.0,12.0,13.0,14.0,46.698
2024-04-02 22:52:14,0.0,-11.6875,17.375,-0.014503260883450568,0.0,0.0,-1.0,0.0,0.0,0.0,0.0,0.0,0.0,-0.0,0.0,0.0,0.0,0.0,0.0,11.0,12.0,13.0,14.0,46.16
2024-04-02 22:52:14,0.0,-11.6875,17.375,-0.014503260883450568,0.0,0.0,-1.0,0.0,0.0,0.0,0.0,0.0,0.0,-0.0,0.0,0.0,0.0,0.0,0.0,11.0,12.0,13.0,14.0,47.236
2024-04-02 22:52:14,0.0,-11.6875,17.375,-0.014503260883450568,0.0,0.0,-1.0,0.0,0.0,0.0,0.0,0.0,0.0,-0.0,0.0,0.0,0.0,0.0,0.0,11.0,12.0,13.0,14.0,46.698
2024-04-02 22:52:14,0.0,-11.6875,17.375,-0.015427433301732518,0.0,0.0,240.0,0.0,0.0,0.0,0.0,0.0,0.0,-0.0,0.0,0.0,0.0,0.0,0.0,11.0,12.0,13.0,14.0,46.698
2024-04-02 22:52:14,0.0,-11.6875,17.375,-0.015427433301732518,0.0,0.0,-1.0,0.0,0.0,0.0,0.0,0.0,0.0,-0.0,0.0,0.0,0.0,0.0,0.0,11.0,12.0,13.0,14.0,47.236
2024-04-02 22:52:15,0.0,-11.6875,17.375,-0.015427433301732518,0.0,0.0,-1.0,0.0,0.0,0.0,0.0,0.0,0.0,-0.0,0.0,0.0,0.0,0.0,0.0,11.0,12.0,13.0,14.0,47.236
2024-04-02 22:52:15,0.0,-11.6875,17.375,-0.015427433301732518,0.0,0.0,-1.0,0.0,0.0,0.0,0.0,0.0,0.0,-0.0,0.0,0.0,0.0,0.0,0.0,11.0,12.0,13.0,14.0,47.236
2024-04-02 22:52:15,0.0,-11.6875,17.375,-0.015427433301732518,0.0,0.0,-1.0,0.0,0.0,0.0,0.0,0.0,0.0,-0.0,0.0,0.0,0.0,0.0,0.0,11.0,12.0,13.0,14.0,47.236
2024-04-02 22:52:15,0.0,-11.6875,17.375,-0.015427433301732518,0.0,0.0,239.0,0.0,0.0,0.0,0.0,0.0,0.0,-0.0,0.0,0.0,0.0,0.0,0.0,11.0,12.0,13.0,14.0,46.698
2024-04-02 22:52:15,0.0,-11.6875,17.375,-0.015427433301732518,0.0,0.0,-1.0,0.0,0.0,0.0,0.0,0.0,0.0,-0.0,0.0,0.0,0.0,0.0,0.0,11.0,12.0,13.0,14.0,47.236
2024-04-02 22:52:15,0.0,-11.6875,17.375,-0.015427433301732518,0.0,0.0,-1.0,0.0,0.0,0.0,0.0,0.0,0.0,-0.0,0.0,0.0,0.0,0.0,0.0,11.0,12.0,13.0,14.0,46.698
2024-04-02 22:52:15,0.0,-11.6875,17.375,-0.015427433301732518,0.0,0.0,240.0,0.0,0.0,0.0,0.0,0.0,0.0,-0.0,0.0,0.0,0.0,0.0,0.0,11.0,12.0,13.0,14.0,46.16
2024-04-02 22:52:15,0.0,-11.6875,17.375,-0.015427433301732518,0.0,0.0,-1.0,0.0,0.0,0.0,0.0,0.0,0.0,-0.0,0.0,0.0,0.0,0.0,0.0,11.0,12.0,13.0,14.0,46.698
2024-04-02 22:52:15,0.0,-11.6875,17.375,-0.015427433301732518,0.0,0.0,-1.0,0.0,0.0,0.0,0.0,0.0,0.0,-0.0,0.0,0.0,0.0,0.0,0.0,11.0,12.0,13.0,14.0,46.698
2024-04-02 22:52:15,0.0,-11.6875,17.375,-0.015427433301732518,0.0,0.0,0.0,0.0,0.0,0.0,0.0,0.0,0.0,-0.0,0.0,0.0,0.0,0.0,0.0,11.0,12.0,13.0,14.0,46.698
2024-04-02 22:52:15,0.0,-11.6875,17.375,-0.015427433301732518,0.0,0.0,-1.0,0.0,0.0,0.0,0.0,0.0,0.0,-0.0,0.0,0.0,0.0,0.0,0.0,11.0,12.0,13.0,14.0,47.236
2024-04-02 22:52:15,0.0,-11.6875,17.375,-0.015427433301732518,0.0,0.0,-1.0,0.0,0.0,0.0,0.0,0.0,0.0,-0.0,0.0,0.0,0.0,0.0,0.0,11.0,12.0,13.0,14.0,47.236
2024-04-02 22:52:15,0.0,-11.6875,17.375,-0.015427433301732518,0.0,0.0,240.0,0.0,0.0,0.0,0.0,0.0,0.0,-0.0,0.0,0.0,0.0,0.0,0.0,11.0,12.0,13.0,14.0,45.622
2024-04-02 22:52:15,0.0,-11.6875,17.375,-0.014539930484165216,0.0,0.0,-1.0,0.0,0.0,0.0,0.0,0.0,0.0,-0.0,0.0,0.0,0.0,0.0,0.0,11.0,12.0,13.0,14.0,47.236
2024-04-02 22:52:15,0.0,-11.6875,17.375,-0.014539930484165216,0.0,0.0,-1.0,0.0,0.0,0.0,0.0,0.0,0.0,-0.0,0.0,0.0,0.0,0.0,0.0,11.0,12.0,13.0,14.0,46.16
2024-04-02 22:52:16,0.0,-11.6875,17.375,-0.014539930484165216,0.0,0.0,241.0,0.0,0.0,0.0,0.0,0.0,0.0,-0.0,0.0,0.0,0.0,0.0,0.0,11.0,12.0,13.0,14.0,46.698
2024-04-02 22:52:16,0.0,-11.6875,17.375,-0.014539930484165216,0.0,0.0,-1.0,0.0,0.0,0.0,0.0,0.0,0.0,-0.0,0.0,0.0,0.0,0.0,0.0,11.0,12.0,13.0,14.0,47.236
2024-04-02 22:52:16,0.0,-11.6875,17.375,-0.014539930484165216,0.0,0.0,-1.0,0.0,0.0,0.0,0.0,0.0,0.0,-0.0,0.0,0.0,0.0,0.0,0.0,11.0,12.0,13.0,14.0,47.236
2024-04-02 22:52:16,0.0,-11.6875,17.375,-0.014539930484165216,0.0,0.0,0.0,0.0,0.0,0.0,0.0,0.0,0.0,-0.0,0.0,0.0,0.0,0.0,0.0,11.0,12.0,13.0,14.0,47.236
2024-04-02 22:52:16,0.0,-11.6875,17.375,-0.014539930484165216,0.0,0.0,-1.0,0.0,0.0,0.0,0.0,0.0,0.0,-0.0,0.0,0.0,0.0,0.0,0.0,11.0,12.0,13.0,14.0,47.236
2024-04-02 22:52:16,0.0,-11.6875,17.375,-0.014539930484165216,0.0,0.0,-1.0,0.0,0.0,0.0,0.0,0.0,0.0,-0.0,0.0,0.0,0.0,0.0,0.0,11.0,12.0,13.0,14.0,47.236
2024-04-02 22:52:16,0.0,-11.6875,17.375,-0.014539930484165216,0.0,0.0,-1.0,0.0,0.0,0.0,0.0,0.0,0.0,-0.0,0.0,1.0,1.0,1.0,1.0,11.0,12.0,13.0,14.0,47.236
2024-04-02 22:52:16,0.0,-11.6875,17.375,-0.014539930484165216,0.0,0.0,-1.0,0.0,0.0,0.0,0.0,0.0,0.0,-0.0,0.0,1.0,1.0,1.0,1.0,11.0,12.0,13.0,14.0,47.236
2024-04-02 22:52:16,0.0,-11.6875,17.375,-0.014539930484165216,0.0,0.0,239.0,0.0,0.0,0.0,0.0,0.0,0.0,-0.0,0.0,1.0,1.0,1.0,1.0,11.0,12.0,13.0,14.0,47.236
2024-04-02 22:52:16,0.0,-11.6875,17.375,-0.014539930484165216,0.0,0.0,-1.0,0.0,0.0,0.0,0.0,0.0,0.0,-0.0,0.0,1.0,1.0,1.0,1.0,11.0,12.0,13.0,14.0,47.236
2024-04-02 22:52:16,0.0,-11.6875,17.375,-0.014539930484165216,0.0,0.0,235.0,0.0,0.0,0.0,0.0,0.0,0.0,-0.0,0.0,1.0,1.0,1.0,1.0,11.0,12.0,13.0,14.0,47.236
2024-04-02 22:52:16,0.0,-11.6875,17.375,-0.014539930484165216,0.0,0.0,-1.0,0.0,0.0,0.0,0.0,0.0,0.0,-0.0,0.0,1.0,1.0,1.0,1.0,11.0,12.0,13.0,14.0,47.236
2024-04-02 22:52:16,0.0,-11.6875,17.375,-0.014539930484165216,0.0,0.0,-1.0,0.0,0.0,0.0,0.0,0.0,0.0,-0.0,0.0,1.0,1.0,1.0,1.0,11.0,12.0,13.0,14.0,47.236
2024-04-02 22:52:17,0.0,-11.6875,17.375,-0.01571202991994204,0.0,0.0,236.0,0.0,0.0,0.0,0.0,0.0,0.0,-0.0,0.0,1.0,1.0,1.0,1.0,11.0,12.0,13.0,14.0,47.236
2024-04-02 22:52:17,0.0,-11.6875,17.375,-0.01571202991994204,0.0,0.0,-1.0,0.0,0.0,0.0,0.0,0.0,0.0,-0.0,0.0,1.0,1.0,1.0,1.0,11.0,12.0,13.0,14.0,47.236
2024-04-02 22:52:17,0.0,-11.6875,17.375,-0.01571202991994204,0.0,0.0,-1.0,0.0,0.0,0.0,0.0,0.0,0.0,-0.0,0.0,1.0,1.0,1.0,1.0,11.0,12.0,13.0,14.0,47.774
2024-04-02 22:52:17,0.0,-11.6875,17.375,-0.01571202991994204,0.0,0.0,-1.0,0.0,0.0,0.0,0.0,0.0,0.0,-0.0,0.0,1.0,1.0,1.0,1.0,11.0,12.0,13.0,14.0,47.236
2024-04-02 22:52:17,0.0,-11.6875,17.375,-0.01571202991994204,0.0,0.0,-1.0,0.0,0.0,0.0,0.0,0.0,0.0,-0.0,0.0,1.0,1.0,1.0,1.0,11.0,12.0,13.0,14.0,47.236
2024-04-02 22:52:17,0.0,-11.6875,17.375,-0.01571202991994204,0.0,0.0,232.0,0.0,0.0,0.0,0.0,0.0,0.0,-0.0,0.0,1.0,1.0,1.0,1.0,11.0,12.0,13.0,14.0,47.236
2024-04-02 22:52:17,0.0,-11.6875,17.375,-0.01571202991994204,0.0,0.0,-1.0,0.0,0.0,0.0,0.0,0.0,0.0,-0.0,0.0,1.0,1.0,1.0,1.0,11.0,12.0,13.0,14.0,47.236
2024-04-02 22:52:17,0.0,-11.6875,17.375,-0.01571202991994204,0.0,0.0,0.0,0.0,0.0,0.0,0.0,0.0,0.0,-0.0,0.0,1.0,1.0,1.0,1.0,11.0,12.0,13.0,14.0,47.236
2024-04-02 22:52:17,0.0,-11.6875,17.375,-0.01571202991994204,0.0,0.0,-1.0,0.0,0.0,0.0,0.0,0.0,0.0,-0.0,0.0,1.0,1.0,1.0,1.0,11.0,12.0,13.0,14.0,47.236
2024-04-02 22:52:17,0.0,-11.6875,17.375,-0.01571202991994204,0.0,0.0,-1.0,0.0,0.0,0.0,0.0,0.0,0.0,-0.0,0.0,1.0,1.0,1.0,1.0,11.0,12.0,13.0,14.0,47.774
2024-04-02 22:52:17,0.0,-11.6875,17.375,-0.01571202991994204,0.0,0.0,-1.0,0.0,0.0,0.0,0.0,0.0,0.0,-0.0,0.0,1.0,1.0,1.0,1.0,11.0,12.0,13.0,14.0,47.774
2024-04-02 22:52:17,0.0,-11.6875,17.375,-0.01571202991994204,0.0,0.0,-1.0,0.0,0.0,0.0,0.0,0.0,0.0,-0.0,0.0,1.0,1.0,1.0,1.0,11.0,12.0,13.0,14.0,47.774
2024-04-02 22:52:18,0.0,-11.6875,17.375,-0.01571202991994204,0.0,0.0,228.0,0.0,0.0,0.0,0.0,0.0,0.0,-0.0,0.0,1.0,1.0,1.0,1.0,11.0,12.0,13.0,14.0,47.236
2024-04-02 22:52:18,0.0,-11.6875,17.375,-0.014736086395791978,0.0,0.0,-1.0,0.0,0.0,0.0,0.0,0.0,0.0,-0.0,0.0,1.0,1.0,1.0,1.0,11.0,12.0,13.0,14.0,47.236
2024-04-02 22:52:18,0.0,-11.6875,17.375,-0.014736086395791978,0.0,0.0,228.0,0.0,0.0,0.0,0.0,0.0,0.0,-0.0,0.0,1.0,1.0,1.0,1.0,11.0,12.0,13.0,14.0,47.236
2024-04-02 22:52:18,0.0,-11.6875,17.375,-0.014736086395791978,0.0,0.0,-1.0,0.0,0.0,0.0,0.0,0.0,0.0,-0.0,0.0,1.0,1.0,1.0,1.0,11.0,12.0,13.0,14.0,47.774
2024-04-02 22:52:18,0.0,-11.6875,17.375,-0.014736086395791978,0.0,0.0,227.0,0.0,0.0,0.0,0.0,0.0,0.0,-0.0,0.0,1.0,1.0,1.0,1.0,11.0,12.0,13.0,14.0,47.774
2024-04-02 22:52:18,0.0,-11.6875,17.375,-0.014736086395791978,0.0,0.0,-1.0,0.0,0.0,0.0,0.0,0.0,0.0,-0.0,0.0,1.0,1.0,1.0,1.0,11.0,12.0,13.0,14.0,47.774
2024-04-02 22:52:18,0.0,-11.6875,17.375,-0.014736086395791978,0.0,0.0,225.0,0.0,0.0,0.0,0.0,0.0,0.0,-0.0,0.0,1.0,1.0,1.0,1.0,11.0,12.0,13.0,14.0,47.774
2024-04-02 22:52:18,0.0,-11.6875,17.375,-0.014736086395791978,0.0,0.0,-1.0,0.0,0.0,0.0,0.0,0.0,0.0,-0.0,0.0,1.0,1.0,1.0,1.0,11.0,12.0,13.0,14.0,47.774
2024-04-02 22:52:18,0.0,-11.6875,17.375,-0.014736086395791978,0.0,0.0,224.0,0.0,0.0,0.0,0.0,0.0,0.0,-0.0,0.0,1.0,1.0,1.0,1.0,11.0,12.0,13.0,14.0,48.312
2024-04-02 22:52:18,0.0,-11.6875,17.375,-0.014736086395791978,0.0,0.0,-1.0,0.0,0.0,0.0,0.0,0.0,0.0,-0.0,0.0,1.0,1.0,1.0,1.0,11.0,12.0,13.0,14.0,48.312
2024-04-02 22:52:19,0.0,-11.6875,17.375,-0.014736086395791978,0.0,0.0,225.0,0.0,0.0,0.0,0.0,0.0,0.0,-0.0,0.0,1.0,1.0,1.0,1.0,11.0,12.0,13.0,14.0,47.774
2024-04-02 22:52:19,0.0,-11.6875,17.375,-0.014736086395791978,0.0,0.0,-1.0,0.0,0.0,0.0,0.0,0.0,0.0,-0.0,0.0,1.0,1.0,1.0,1.0,11.0,12.0,13.0,14.0,48.312
2024-04-02 22:52:19,0.0,-11.6875,17.375,-0.014736086395791978,0.0,0.0,223.0,0.0,0.0,0.0,0.0,0.0,0.0,-0.0,0.0,1.0,1.0,1.0,1.0,11.0,12.0,13.0,14.0,47.774
2024-04-02 22:52:19,0.0,-11.6875,17.375,-0.014736086395791978,0.0,0.0,-1.0,0.0,0.0,0.0,0.0,0.0,0.0,-0.0,0.0,1.0,1.0,1.0,1.0,11.0,12.0,13.0,14.0,47.774
2024-04-02 22:52:19,0.0,-11.6875,17.375,-0.014736086395791978,0.0,0.0,0.0,0.0,0.0,0.0,0.0,0.0,0.0,-0.0,0.0,1.0,1.0,1.0,1.0,11.0,12.0,13.0,14.0,47.774
2024-04-02 22:52:19,0.0,-11.6875,17.375,-0.016480545218250757,0.0,0.0,-1.0,0.0,0.0,0.0,0.0,0.0,0.0,-0.0,0.0,1.0,1.0,1.0,1.0,11.0,12.0,13.0,14.0,48.312
2024-04-02 22:52:19,0.0,-11.6875,17.375,-0.016480545218250757,0.0,0.0,-1.0,0.0,0.0,0.0,0.0,0.0,0.0,-0.0,0.0,1.0,1.0,1.0,1.0,11.0,12.0,13.0,14.0,48.312
2024-04-02 22:52:19,0.0,-11.6875,17.375,-0.016480545218250757,0.0,0.0,-1.0,0.0,0.0,0.0,0.0,0.0,0.0,-0.0,0.0,1.0,1.0,1.0,1.0,11.0,12.0,13.0,14.0,48.312
2024-04-02 22:52:19,0.0,-11.6875,17.375,-0.016480545218250757,0.0,0.0,-1.0,0.0,0.0,0.0,0.0,0.0,0.0,-0.0,0.0,1.0,1.0,1.0,1.0,11.0,12.0,13.0,14.0,48.312
2024-04-02 22:52:19,0.0,-11.6875,17.375,-0.016480545218250757,0.0,0.0,224.0,0.0,0.0,0.0,0.0,0.0,0.0,-0.0,0.0,1.0,1.0,1.0,1.0,11.0,12.0,13.0,14.0,48.312
2024-04-02 22:52:19,0.0,-11.6875,17.375,-0.016480545218250757,0.0,0.0,-1.0,0.0,0.0,0.0,0.0,0.0,0.0,-0.0,0.0,1.0,1.0,1.0,1.0,11.0,12.0,13.0,14.0,48.312
2024-04-02 22:52:19,0.0,-11.6875,17.375,-0.016480545218250757,0.0,0.0,-1.0,0.0,0.0,0.0,0.0,0.0,0.0,-0.0,0.0,1.0,1.0,1.0,1.0,11.0,12.0,13.0,14.0,48.312
2024-04-02 22:52:20,0.0,-11.6875,17.375,-0.016480545218250757,0.0,0.0,-1.0,0.0,0.0,0.0,0.0,0.0,0.0,-0.0,0.0,1.0,1.0,1.0,1.0,11.0,12.0,13.0,14.0,48.312
2024-04-02 22:52:20,0.0,-11.6875,17.375,-0.016480545218250757,0.0,0.0,-1.0,0.0,0.0,0.0,0.0,0.0,0.0,-0.0,0.0,1.0,1.0,1.0,1.0,11.0,12.0,13.0,14.0,48.312
2024-04-02 22:52:20,0.0,-11.6875,17.375,-0.016480545218250757,0.0,0.0,-1.0,0.0,0.0,0.0,0.0,0.0,0.0,-0.0,0.0,1.0,1.0,1.0,1.0,11.0,12.0,13.0,14.0,48.312
2024-04-02 22:52:20,0.0,-11.6875,17.375,-0.016480545218250757,0.0,0.0,-1.0,0.0,0.0,0.0,0.0,0.0,0.0,-0.0,0.0,1.0,1.0,1.0,1.0,11.0,12.0,13.0,14.0,48.312
2024-04-02 22:52:20,0.0,-11.6875,17.375,-0.016480545218250757,0.0,0.0,-1.0,0.0,0.0,0.0,0.0,0.0,0.0,-0.0,0.0,1.0,1.0,1.0,1.0,11.0,12.0,13.0,14.0,48.312
2024-04-02 22:52:20,0.0,-11.6875,17.375,-0.016480545218250757,0.0,0.0,226.0,0.0,0.0,0.0,0.0,0.0,0.0,-0.0,0.0,1.0,1.0,1.0,1.0,11.0,12.0,13.0,14.0,48.312
2024-04-02 22:52:20,0.0,-11.6875,17.375,-0.016480545218250757,0.0,0.0,-1.0,0.0,0.0,0.0,0.0,0.0,0.0,-0.0,0.0,1.0,1.0,1.0,1.0,11.0,12.0,13.0,14.0,48.312
2024-04-02 22:52:20,0.0,-11.6875,17.375,-0.016480545218250757,0.0,0.0,224.0,0.0,0.0,0.0,0.0,0.0,0.0,-0.0,0.0,1.0,1.0,1.0,1.0,11.0,12.0,13.0,14.0,48.312
2024-04-02 22:52:20,0.0,-11.6875,17.375,-0.015547366196574215,0.0,0.0,-1.0,0.0,0.0,0.0,0.0,0.0,0.0,-0.0,0.0,1.0,1.0,1.0,1.0,11.0,12.0,13.0,14.0,49.388
2024-04-02 22:52:20,0.0,-11.6875,17.375,-0.015547366196574215,0.0,0.0,0.0,0.0,0.0,0.0,0.0,0.0,0.0,-0.0,0.0,1.0,1.0,1.0,1.0,11.0,12.0,13.0,14.0,48.312
2024-04-02 22:52:20,0.0,-11.6875,17.375,-0.015547366196574215,0.0,0.0,-1.0,0.0,0.0,0.0,0.0,0.0,0.0,-0.0,0.0,1.0,1.0,1.0,1.0,11.0,12.0,13.0,14.0,48.85
2024-04-02 22:52:21,0.0,-11.6875,17.375,-0.015547366196574215,0.0,0.0,228.0,0.0,0.0,0.0,0.0,0.0,0.0,-0.0,0.0,1.0,1.0,1.0,1.0,11.0,12.0,13.0,14.0,48.312
2024-04-02 22:52:21,0.0,-11.6875,17.375,-0.015547366196574215,0.0,0.0,-1.0,0.0,0.0,0.0,0.0,0.0,0.0,-0.0,0.0,1.0,1.0,1.0,1.0,11.0,12.0,13.0,14.0,49.388
2024-04-02 22:52:21,0.0,-11.6875,17.375,-0.015547366196574215,0.0,0.0,227.0,0.0,0.0,0.0,0.0,0.0,0.0,-0.0,0.0,1.0,1.0,1.0,1.0,11.0,12.0,13.0,14.0,48.312
2024-04-02 22:52:21,0.0,-11.6875,17.375,-0.015547366196574215,0.0,0.0,-1.0,0.0,0.0,0.0,0.0,0.0,0.0,-0.0,0.0,1.0,1.0,1.0,1.0,11.0,12.0,13.0,14.0,48.312
2024-04-02 22:52:21,0.0,-11.6875,17.375,-0.015547366196574215,0.0,0.0,226.0,0.0,0.0,0.0,0.0,0.0,0.0,-0.0,0.0,1.0,1.0,1.0,1.0,11.0,12.0,13.0,14.0,49.388
2024-04-02 22:52:21,0.0,-11.6875,17.375,-0.015547366196574215,0.0,0.0,-1.0,0.0,0.0,0.0,0.0,0.0,0.0,-0.0,0.0,1.0,1.0,1.0,1.0,11.0,12.0,13.0,14.0,48.85
2024-04-02 22:52:21,0.0,-11.6875,17.375,-0.015547366196574215,0.0,0.0,0.0,0.0,0.0,0.0,0.0,0.0,0.0,-0.0,0.0,1.0,1.0,1.0,1.0,11.0,12.0,13.0,14.0,48.312
2024-04-02 22:52:21,0.0,-11.6875,17.375,-0.015547366196574215,0.0,0.0,-1.0,0.0,0.0,0.0,0.0,0.0,0.0,-0.0,0.0,1.0,1.0,1.0,1.0,11.0,12.0,13.0,14.0,48.85
2024-04-02 22:52:21,0.0,-11.6875,17.375,-0.015547366196574215,0.0,0.0,-1.0,0.0,0.0,0.0,0.0,0.0,0.0,-0.0,0.0,1.0,1.0,1.0,1.0,11.0,12.0,13.0,14.0,48.312
2024-04-02 22:52:21,0.0,-11.6875,17.375,-0.015547366196574215,0.0,0.0,230.0,0.0,0.0,0.0,0.0,0.0,0.0,-0.0,0.0,1.0,1.0,1.0,1.0,11.0,12.0,13.0,14.0,48.312
2024-04-02 22:52:21,0.0,-11.6875,17.375,-0.014492172001499945,0.0,0.0,-1.0,0.0,0.0,0.0,0.0,0.0,0.0,-0.0,0.0,1.0,1.0,1.0,1.0,11.0,12.0,13.0,14.0,48.85
2024-04-02 22:52:21,0.0,-11.6875,17.375,-0.014492172001499945,0.0,0.0,-1.0,0.0,0.0,0.0,0.0,0.0,0.0,-0.0,0.0,1.0,1.0,1.0,1.0,11.0,12.0,13.0,14.0,49.388
2024-04-02 22:52:22,0.0,-11.6875,17.375,-0.014492172001499945,0.0,0.0,231.0,0.0,0.0,0.0,0.0,0.0,0.0,-0.0,0.0,1.0,1.0,1.0,1.0,11.0,12.0,13.0,14.0,48.85
2024-04-02 22:52:22,0.0,-11.6875,17.375,-0.014492172001499945,0.0,0.0,-1.0,0.0,0.0,0.0,0.0,0.0,0.0,-0.0,0.0,1.0,1.0,1.0,1.0,11.0,12.0,13.0,14.0,48.312
2024-04-02 22:52:22,0.0,-11.6875,17.375,-0.014492172001499945,0.0,0.0,228.0,0.0,0.0,0.0,0.0,0.0,0.0,-0.0,0.0,1.0,1.0,1.0,1.0,11.0,12.0,13.0,14.0,49.388
2024-04-02 22:52:22,0.0,-11.6875,17.375,-0.014492172001499945,0.0,0.0,-1.0,0.0,0.0,0.0,0.0,0.0,0.0,-0.0,0.0,1.0,1.0,1.0,1.0,11.0,12.0,13.0,14.0,49.388
2024-04-02 22:52:22,0.0,-11.6875,17.375,-0.014492172001499945,0.0,0.0,229.0,0.0,0.0,0.0,0.0,0.0,0.0,-0.0,0.0,1.0,1.0,1.0,1.0,11.0,12.0,13.0,14.0,48.85
2024-04-02 22:52:22,0.0,-11.6875,17.375,-0.014492172001499945,0.0,0.0,-1.0,0.0,0.0,0.0,0.0,0.0,0.0,-0.0,0.0,1.0,1.0,1.0,1.0,11.0,12.0,13.0,14.0,48.312
2024-04-02 22:52:22,0.0,-11.6875,17.375,-0.014492172001499945,0.0,0.0,228.0,0.0,0.0,0.0,0.0,0.0,0.0,-0.0,0.0,1.0,1.0,1.0,1.0,11.0,12.0,13.0,14.0,49.388
2024-04-02 22:52:22,0.0,-11.6875,17.375,-0.014492172001499945,0.0,0.0,-1.0,0.0,0.0,0.0,0.0,0.0,0.0,-0.0,0.0,1.0,1.0,1.0,1.0,11.0,12.0,13.0,14.0,48.312
2024-04-02 22:52:22,0.0,-11.6875,17.375,-0.014492172001499945,0.0,0.0,228.0,0.0,0.0,0.0,0.0,0.0,0.0,-0.0,0.0,1.0,1.0,1.0,1.0,11.0,12.0,13.0,14.0,48.312
2024-04-02 22:52:22,0.0,-11.6875,17.375,-0.014492172001499945,0.0,0.0,-1.0,0.0,0.0,0.0,0.0,0.0,0.0,-0.0,0.0,1.0,1.0,1.0,1.0,11.0,12.0,13.0,14.0,48.312
2024-04-02 22:52:23,0.0,-11.6875,17.375,-0.014492172001499945,0.0,0.0,229.0,0.0,0.0,0.0,0.0,0.0,0.0,-0.0,0.0,1.0,1.0,1.0,1.0,11.0,12.0,13.0,14.0,49.388
2024-04-02 22:52:23,0.0,-11.6875,17.375,-0.015949859732055496,0.0,0.0,-1.0,0.0,0.0,0.0,0.0,0.0,0.0,-0.0,0.0,1.0,1.0,1.0,1.0,11.0,12.0,13.0,14.0,48.312
2024-04-02 22:52:23,0.0,-11.6875,17.375,-0.015949859732055496,0.0,0.0,-1.0,0.0,0.0,0.0,0.0,0.0,0.0,-0.0,0.0,1.0,1.0,1.0,1.0,11.0,12.0,13.0,14.0,48.85
2024-04-02 22:52:23,0.0,-11.6875,17.375,-0.015949859732055496,0.0,0.0,-1.0,0.0,0.0,0.0,0.0,0.0,0.0,-0.0,0.0,1.0,1.0,1.0,1.0,11.0,12.0,13.0,14.0,48.312
2024-04-02 22:52:23,0.0,-11.6875,17.375,-0.015949859732055496,0.0,0.0,-1.0,0.0,0.0,0.0,0.0,0.0,0.0,-0.0,0.0,1.0,1.0,1.0,1.0,11.0,12.0,13.0,14.0,48.312
2024-04-02 22:52:23,0.0,-11.6875,17.375,-0.015949859732055496,0.0,0.0,228.0,0.0,0.0,0.0,0.0,0.0,0.0,-0.0,0.0,1.0,1.0,1.0,1.0,11.0,12.0,13.0,14.0,48.85
2024-04-02 22:52:23,0.0,-11.6875,17.375,-0.015949859732055496,0.0,0.0,-1.0,0.0,0.0,0.0,0.0,0.0,0.0,-0.0,0.0,1.0,1.0,1.0,1.0,11.0,12.0,13.0,14.0,48.85
2024-04-02 22:52:23,0.0,-11.6875,17.375,-0.015949859732055496,0.0,0.0,229.0,0.0,0.0,0.0,0.0,0.0,0.0,-0.0,0.0,1.0,1.0,1.0,1.0,11.0,12.0,13.0,14.0,49.388
2024-04-02 22:52:23,0.0,-11.6875,17.375,-0.015949859732055496,0.0,0.0,-1.0,0.0,0.0,0.0,0.0,0.0,0.0,-0.0,0.0,1.0,1.0,1.0,1.0,11.0,12.0,13.0,14.0,49.388
2024-04-02 22:52:23,0.0,-11.6875,17.375,-0.015949859732055496,0.0,0.0,228.0,0.0,0.0,0.0,0.0,0.0,0.0,-0.0,0.0,1.0,1.0,1.0,1.0,11.0,12.0,13.0,14.0,48.85
2024-04-02 22:52:23,0.0,-11.6875,17.375,-0.015949859732055496,0.0,0.0,-1.0,0.0,0.0,0.0,0.0,0.0,0.0,-0.0,0.0,1.0,1.0,1.0,1.0,11.0,12.0,13.0,14.0,49.388
2024-04-02 22:52:24,0.0,-11.6875,17.375,-0.015949859732055496,0.0,0.0,0.0,0.0,0.0,0.0,0.0,0.0,0.0,-0.0,0.0,1.0,1.0,1.0,1.0,11.0,12.0,13.0,14.0,49.388
2024-04-02 22:52:24,0.0,-11.6875,17.375,-0.015949859732055496,0.0,0.0,-1.0,0.0,0.0,0.0,0.0,0.0,0.0,-0.0,0.0,1.0,1.0,1.0,1.0,11.0,12.0,13.0,14.0,49.388
2024-04-02 22:52:24,0.0,-11.6875,17.375,-0.015949859732055496,0.0,0.0,-1.0,0.0,0.0,0.0,0.0,0.0,0.0,-0.0,0.0,1.0,1.0,1.0,1.0,11.0,12.0,13.0,14.0,49.388
2024-04-02 22:52:24,0.0,-11.6875,17.375,-0.016771691587189573,0.0,0.0,230.0,0.0,0.0,0.0,0.0,0.0,0.0,-0.0,0.0,1.0,1.0,1.0,1.0,11.0,12.0,13.0,14.0,49.388
2024-04-02 22:52:24,0.0,-11.6875,17.375,-0.016771691587189573,0.0,0.0,-1.0,0.0,0.0,0.0,0.0,0.0,0.0,-0.0,0.0,1.0,1.0,1.0,1.0,11.0,12.0,13.0,14.0,49.388
2024-04-02 22:52:24,0.0,-11.6875,17.375,-0.016771691587189573,0.0,0.0,229.0,0.0,0.0,0.0,0.0,0.0,0.0,-0.0,0.0,1.0,1.0,1.0,1.0,11.0,12.0,13.0,14.0,49.388
2024-04-02 22:52:24,0.0,-11.6875,17.375,-0.016771691587189573,0.0,0.0,-1.0,0.0,0.0,0.0,0.0,0.0,0.0,-0.0,0.0,1.0,1.0,1.0,1.0,11.0,12.0,13.0,14.0,49.388
2024-04-02 22:52:24,0.0,-11.6875,17.375,-0.016771691587189573,0.0,0.0,228.0,0.0,0.0,0.0,0.0,0.0,0.0,-0.0,0.0,1.0,1.0,1.0,1.0,11.0,12.0,13.0,14.0,49.388
2024-04-02 22:52:24,0.0,-11.6875,17.375,-0.016771691587189573,0.0,0.0,-1.0,0.0,0.0,0.0,0.0,0.0,0.0,-0.0,0.0,1.0,1.0,1.0,1.0,11.0,12.0,13.0,14.0,49.388
2024-04-02 22:52:24,0.0,-11.6875,17.375,-0.016771691587189573,0.0,0.0,0.0,0.0,0.0,0.0,0.0,0.0,0.0,-0.0,0.0,1.0,1.0,1.0,1.0,11.0,12.0,13.0,14.0,49.388
2024-04-02 22:52:24,0.0,-11.6875,17.375,-0.016771691587189573,0.0,0.0,-1.0,0.0,0.0,0.0,0.0,0.0,0.0,-0.0,0.0,1.0,1.0,1.0,1.0,11.0,12.0,13.0,14.0,49.388
2024-04-02 22:52:25,0.0,-11.6875,17.375,-0.016771691587189573,0.0,0.0,0.0,0.0,0.0,0.0,0.0,0.0,0.0,-0.0,0.0,1.0,1.0,1.0,1.0,11.0,12.0,13.0,14.0,49.388
2024-04-02 22:52:25,0.0,-11.6875,17.375,-0.016771691587189573,0.0,0.0,-1.0,0.0,0.0,0.0,0.0,0.0,0.0,-0.0,0.0,1.0,1.0,1.0,1.0,11.0,12.0,13.0,14.0,49.388
2024-04-02 22:52:25,0.0,-11.6875,17.375,-0.016771691587189573,0.0,0.0,229.0,0.0,0.0,0.0,0.0,0.0,0.0,-0.0,0.0,1.0,1.0,1.0,1.0,11.0,12.0,13.0,14.0,49.388
2024-04-02 22:52:25,0.0,-11.6875,17.375,-0.016771691587189573,0.0,0.0,-1.0,0.0,0.0,0.0,0.0,0.0,0.0,-0.0,0.0,1.0,1.0,1.0,1.0,11.0,12.0,13.0,14.0,49.388
2024-04-02 22:52:25,0.0,-11.6875,17.375,-0.016634295472551637,0.0,0.0,-1.0,0.0,0.0,0.0,0.0,0.0,0.0,-0.0,0.0,1.0,1.0,1.0,1.0,11.0,12.0,13.0,14.0,49.388
2024-04-02 22:52:25,0.0,-11.6875,17.375,-0.016634295472551637,0.0,0.0,-1.0,0.0,0.0,0.0,0.0,0.0,0.0,-0.0,0.0,1.0,1.0,1.0,1.0,11.0,12.0,13.0,14.0,49.388
2024-04-02 22:52:25,0.0,-11.6875,17.375,-0.016634295472551637,0.0,0.0,-1.0,0.0,0.0,0.0,0.0,0.0,0.0,-0.0,0.0,1.0,1.0,1.0,1.0,11.0,12.0,13.0,14.0,49.388
2024-04-02 22:52:25,0.0,-11.6875,17.375,-0.016634295472551637,0.0,0.0,-1.0,0.0,0.0,0.0,0.0,0.0,0.0,-0.0,0.0,1.0,1.0,1.0,1.0,11.0,12.0,13.0,14.0,49.388
2024-04-02 22:52:25,0.0,-11.6875,17.375,-0.016634295472551637,0.0,0.0,-1.0,0.0,0.0,0.0,0.0,0.0,0.0,-0.0,0.0,1.0,1.0,1.0,1.0,11.0,12.0,13.0,14.0,49.388
2024-04-02 22:52:25,0.0,-11.6875,17.375,-0.016634295472551637,0.0,0.0,-1.0,0.0,0.0,0.0,0.0,0.0,0.0,-0.0,0.0,1.0,1.0,1.0,1.0,11.0,12.0,13.0,14.0,49.388
2024-04-02 22:52:25,0.0,-11.6875,17.375,-0.016634295472551637,0.0,0.0,-1.0,0.0,0.0,0.0,0.0,0.0,0.0,-0.0,0.0,1.0,1.0,1.0,1.0,11.0,12.0,13.0,14.0,49.388
2024-04-02 22:52:25,0.0,-11.6875,17.375,-0.016634295472551637,0.0,0.0,-1.0,0.0,0.0,0.0,0.0,0.0,0.0,-0.0,0.0,1.0,1.0,1.0,1.0,11.0,12.0,13.0,14.0,49.388
2024-04-02 22:52:25,0.0,-11.6875,17.375,-0.016634295472551637,0.0,0.0,-1.0,0.0,0.0,0.0,0.0,0.0,0.0,-0.0,0.0,1.0,1.0,1.0,1.0,11.0,12.0,13.0,14.0,49.388
2024-04-02 22:52:26,0.0,-11.6875,17.375,-0.016634295472551637,0.0,0.0,230.0,0.0,0.0,0.0,0.0,0.0,0.0,-0.0,0.0,1.0,1.0,1.0,1.0,11.0,12.0,13.0,14.0,49.388
2024-04-02 22:52:26,0.0,-11.6875,17.375,-0.016634295472551637,0.0,0.0,-1.0,0.0,0.0,0.0,0.0,0.0,0.0,-0.0,0.0,1.0,1.0,1.0,1.0,11.0,12.0,13.0,14.0,49.388
2024-04-02 22:52:26,0.0,-11.6875,17.375,-0.016634295472551637,0.0,0.0,-1.0,0.0,0.0,0.0,0.0,0.0,0.0,-0.0,0.0,1.0,1.0,1.0,1.0,11.0,12.0,13.0,14.0,49.388
2024-04-02 22:52:26,0.0,-11.6875,17.375,-0.016634295472551637,0.0,0.0,-1.0,0.0,0.0,0.0,0.0,0.0,0.0,-0.0,0.0,1.0,1.0,1.0,1.0,11.0,12.0,13.0,14.0,49.388
2024-04-02 22:52:26,0.0,-11.6875,17.375,-0.016634295472551637,0.0,0.0,-1.0,0.0,0.0,0.0,0.0,0.0,0.0,-0.0,0.0,1.0,1.0,1.0,1.0,11.0,12.0,13.0,14.0,49.926
2024-04-02 22:52:26,0.0,-11.6875,17.375,-0.016634295472551637,0.0,0.0,229.0,0.0,0.0,0.0,0.0,0.0,0.0,-0.0,0.0,1.0,1.0,1.0,1.0,11.0,12.0,13.0,14.0,49.388
2024-04-02 22:52:26,0.0,-11.6875,17.375,-0.017151343247870227,0.0,0.0,-1.0,0.0,0.0,0.0,0.0,0.0,0.0,-0.0,0.0,1.0,1.0,1.0,1.0,11.0,12.0,13.0,14.0,49.388
2024-04-02 22:52:26,0.0,-11.6875,17.375,-0.017151343247870227,0.0,0.0,229.0,0.0,0.0,0.0,0.0,0.0,0.0,-0.0,0.0,1.0,1.0,1.0,1.0,11.0,12.0,13.0,14.0,49.388
2024-04-02 22:52:26,0.0,-11.6875,17.375,-0.017151343247870227,0.0,0.0,-1.0,0.0,0.0,0.0,0.0,0.0,0.0,-0.0,0.0,1.0,1.0,1.0,1.0,11.0,12.0,13.0,14.0,49.388
2024-04-02 22:52:26,0.0,-11.6875,17.375,-0.017151343247870227,0.0,0.0,229.0,0.0,0.0,0.0,0.0,0.0,0.0,-0.0,0.0,1.0,1.0,1.0,1.0,11.0,12.0,13.0,14.0,49.388
2024-04-02 22:52:26,0.0,-11.6875,17.375,-0.017151343247870227,0.0,0.0,-1.0,0.0,0.0,0.0,0.0,0.0,0.0,-0.0,0.0,1.0,1.0,1.0,1.0,11.0,12.0,13.0,14.0,49.388
2024-04-02 22:52:27,0.0,0.0,0.0,-0.017151343247870227,0.0,0.0,0.0,0.0,0.0,0.0,0.0,0.0,0.0,-0.0,0.0,1.0,1.0,1.0,1.0,11.0,12.0,13.0,14.0,49.388
2024-04-02 22:52:27,0.0,0.0,0.0,-0.017151343247870227,0.0,0.0,-1.0,0.0,0.0,0.0,0.0,0.0,0.0,-0.0,0.0,1.0,1.0,1.0,1.0,11.0,12.0,13.0,14.0,49.388
2024-04-02 22:52:27,0.0,0.0,0.0,-0.017151343247870227,0.0,0.0,228.0,0.0,0.0,0.0,0.0,0.0,0.0,-0.0,0.0,1.0,1.0,1.0,1.0,11.0,12.0,13.0,14.0,49.388
2024-04-02 22:52:27,0.0,0.0,0.0,-0.017151343247870227,0.0,0.0,-1.0,0.0,0.0,0.0,0.0,0.0,0.0,-0.0,0.0,1.0,1.0,1.0,1.0,11.0,12.0,13.0,14.0,49.388
2024-04-02 22:52:27,0.0,0.0,0.0,-0.017151343247870227,0.0,0.0,0.0,0.0,0.0,0.0,0.0,0.0,0.0,-0.0,0.0,1.0,1.0,1.0,1.0,11.0,12.0,13.0,14.0,49.388
2024-04-02 22:52:27,0.0,0.0,0.0,-0.017151343247870227,0.0,0.0,-1.0,0.0,0.0,0.0,0.0,0.0,0.0,-0.0,0.0,1.0,1.0,1.0,1.0,11.0,12.0,13.0,14.0,49.388
2024-04-02 22:52:27,0.0,0.0,0.0,-0.017151343247870227,0.0,0.0,-1.0,0.0,0.0,0.0,0.0,0.0,0.0,-0.0,0.0,1.0,1.0,1.0,1.0,11.0,12.0,13.0,14.0,49.388
2024-04-02 22:52:27,0.0,0.0,0.0,-0.017151343247870227,0.0,0.0,229.0,0.0,0.0,0.0,0.0,0.0,0.0,-0.0,0.0,1.0,1.0,1.0,1.0,11.0,12.0,13.0,14.0,49.388
2024-04-02 22:52:27,0.0,0.0,0.0,-0.01708791419912385,0.0,0.0,-1.0,0.0,0.0,0.0,0.0,0.0,0.0,-0.0,0.0,1.0,1.0,1.0,1.0,11.0,12.0,13.0,14.0,49.388
2024-04-02 22:52:27,0.0,0.0,0.0,-0.01708791419912385,0.0,0.0,226.0,0.0,0.0,0.0,0.0,0.0,0.0,-0.0,0.0,1.0,1.0,1.0,1.0,11.0,12.0,13.0,14.0,49.388
2024-04-02 22:52:27,0.0,0.0,0.0,-0.01708791419912385,0.0,0.0,-1.0,0.0,0.0,0.0,0.0,0.0,0.0,-0.0,0.0,1.0,1.0,1.0,1.0,11.0,12.0,13.0,14.0,49.388
2024-04-02 22:52:28,0.0,0.0,0.0,-0.01708791419912385,0.0,0.0,228.0,0.0,0.0,0.0,0.0,0.0,0.0,-0.0,0.0,1.0,1.0,1.0,1.0,11.0,12.0,13.0,14.0,49.926
2024-04-02 22:52:28,0.0,0.0,0.0,-0.01708791419912385,0.0,0.0,-1.0,0.0,0.0,0.0,0.0,0.0,0.0,-0.0,0.0,1.0,1.0,1.0,1.0,11.0,12.0,13.0,14.0,49.388
2024-04-02 22:52:28,0.0,0.0,0.0,-0.01708791419912385,0.0,0.0,230.0,0.0,0.0,0.0,0.0,0.0,0.0,-0.0,0.0,1.0,1.0,1.0,1.0,11.0,12.0,13.0,14.0,49.388
2024-04-02 22:52:28,0.0,0.0,0.0,-0.01708791419912385,0.0,0.0,-1.0,0.0,0.0,0.0,0.0,0.0,0.0,-0.0,0.0,1.0,1.0,1.0,1.0,11.0,12.0,13.0,14.0,49.388
2024-04-02 22:52:28,0.0,0.0,0.0,-0.01708791419912385,0.0,0.0,230.0,0.0,0.0,0.0,0.0,0.0,0.0,-0.0,0.0,1.0,1.0,1.0,1.0,11.0,12.0,13.0,14.0,49.388
2024-04-02 22:52:28,0.0,0.0,0.0,-0.01708791419912385,0.0,0.0,-1.0,0.0,0.0,0.0,0.0,0.0,0.0,-0.0,0.0,1.0,1.0,1.0,1.0,11.0,12.0,13.0,14.0,49.388
2024-04-02 22:52:28,0.0,0.0,0.0,-0.01708791419912385,0.0,0.0,228.0,0.0,0.0,0.0,0.0,0.0,0.0,-0.0,0.0,1.0,1.0,1.0,1.0,11.0,12.0,13.0,14.0,49.926
2024-04-02 22:52:28,0.0,0.0,0.0,-0.01708791419912385,0.0,0.0,-1.0,0.0,0.0,0.0,0.0,0.0,0.0,-0.0,0.0,1.0,1.0,1.0,1.0,11.0,12.0,13.0,14.0,49.926
2024-04-02 22:52:28,0.0,0.0,0.0,-0.01708791419912385,0.0,0.0,-1.0,0.0,0.0,0.0,0.0,0.0,0.0,-0.0,0.0,1.0,1.0,1.0,1.0,11.0,12.0,13.0,14.0,49.388
2024-04-02 22:52:28,0.0,0.0,0.0,-0.01708791419912385,0.0,0.0,0.0,0.0,0.0,0.0,0.0,0.0,0.0,-0.0,0.0,1.0,1.0,1.0,1.0,11.0,12.0,13.0,14.0,49.388
2024-04-02 22:52:28,0.0,0.0,0.0,-0.01708791419912385,0.0,0.0,-1.0,0.0,0.0,0.0,0.0,0.0,0.0,-0.0,0.0,1.0,1.0,1.0,1.0,11.0,12.0,13.0,14.0,49.388
2024-04-02 22:52:29,0.0,0.0,0.0,-0.016292035012078303,0.0,0.0,-1.0,0.0,0.0,0.0,0.0,0.0,0.0,-0.0,0.0,1.0,1.0,1.0,1.0,11.0,12.0,13.0,14.0,50.464
2024-04-02 22:52:29,0.0,0.0,0.0,-0.016292035012078303,0.0,0.0,-1.0,0.0,0.0,0.0,0.0,0.0,0.0,-0.0,0.0,1.0,1.0,1.0,1.0,11.0,12.0,13.0,14.0,49.926
2024-04-02 22:52:29,0.0,0.0,0.0,-0.016292035012078303,0.0,0.0,-1.0,0.0,0.0,0.0,0.0,0.0,0.0,-0.0,0.0,1.0,1.0,1.0,1.0,11.0,12.0,13.0,14.0,49.388
2024-04-02 22:52:29,0.0,0.0,0.0,-0.016292035012078303,0.0,0.0,229.0,0.0,0.0,0.0,0.0,0.0,0.0,-0.0,0.0,1.0,1.0,1.0,1.0,11.0,12.0,13.0,14.0,49.926
2024-04-02 22:52:29,0.0,0.0,0.0,-0.016292035012078303,0.0,0.0,-1.0,0.0,0.0,0.0,0.0,0.0,0.0,-0.0,0.0,1.0,1.0,1.0,1.0,11.0,12.0,13.0,14.0,50.464
2024-04-02 22:52:29,0.0,0.0,0.0,-0.016292035012078303,0.0,0.0,231.0,0.0,0.0,0.0,0.0,0.0,0.0,-0.0,0.0,1.0,1.0,1.0,1.0,11.0,12.0,13.0,14.0,49.388
2024-04-02 22:52:29,0.0,0.0,0.0,-0.016292035012078303,0.0,0.0,-1.0,0.0,0.0,0.0,0.0,0.0,0.0,-0.0,0.0,1.0,1.0,1.0,1.0,11.0,12.0,13.0,14.0,49.388
2024-04-02 22:52:29,0.0,0.0,0.0,-0.016292035012078303,0.0,0.0,-1.0,0.0,0.0,0.0,0.0,0.0,0.0,-0.0,0.0,1.0,1.0,1.0,1.0,11.0,12.0,13.0,14.0,49.388
2024-04-02 22:52:29,0.0,0.0,0.0,-0.016292035012078303,0.0,0.0,-1.0,0.0,0.0,0.0,0.0,0.0,0.0,-0.0,0.0,1.0,1.0,1.0,1.0,11.0,12.0,13.0,14.0,49.388
2024-04-02 22:52:29,0.0,0.0,0.0,-0.016292035012078303,0.0,0.0,-1.0,0.0,0.0,0.0,0.0,0.0,0.0,-0.0,0.0,1.0,1.0,1.0,1.0,11.0,12.0,13.0,14.0,49.388
2024-04-02 22:52:29,0.0,0.0,0.0,-0.016292035012078303,0.0,0.0,231.0,0.0,0.0,0.0,0.0,0.0,0.0,-0.0,0.0,1.0,1.0,1.0,1.0,11.0,12.0,13.0,14.0,49.926
2024-04-02 22:52:29,0.0,0.0,0.0,-0.016292035012078303,0.0,0.0,-1.0,0.0,0.0,0.0,0.0,0.0,0.0,-0.0,0.0,1.0,1.0,1.0,1.0,11.0,12.0,13.0,14.0,49.388
2024-04-02 22:52:30,0.0,0.0,0.0,-0.016292035012078303,0.0,0.0,229.0,0.0,0.0,0.0,0.0,0.0,0.0,-0.0,0.0,1.0,1.0,1.0,1.0,11.0,12.0,13.0,14.0,49.388
2024-04-02 22:52:30,0.0,0.0,0.0,-0.016292035012078303,0.0,0.0,-1.0,0.0,0.0,0.0,0.0,0.0,0.0,-0.0,0.0,1.0,1.0,1.0,1.0,11.0,12.0,13.0,14.0,50.464
2024-04-02 22:52:30,0.0,0.0,0.0,-0.01666020907880433,0.0,0.0,228.0,0.0,0.0,0.0,0.0,0.0,0.0,-0.0,0.0,1.0,1.0,1.0,1.0,11.0,12.0,13.0,14.0,49.926
2024-04-02 22:52:30,0.0,0.0,0.0,-0.01666020907880433,0.0,0.0,-1.0,0.0,0.0,0.0,0.0,0.0,0.0,-0.0,0.0,1.0,1.0,1.0,1.0,11.0,12.0,13.0,14.0,50.464
2024-04-02 22:52:30,0.0,0.0,0.0,-0.01666020907880433,0.0,0.0,-1.0,0.0,0.0,0.0,0.0,0.0,0.0,-0.0,0.0,1.0,1.0,1.0,1.0,11.0,12.0,13.0,14.0,49.926
2024-04-02 22:52:30,0.0,0.0,0.0,-0.01666020907880433,0.0,0.0,229.0,0.0,0.0,0.0,0.0,0.0,0.0,-0.0,0.0,1.0,1.0,1.0,1.0,11.0,12.0,13.0,14.0,49.388
2024-04-02 22:52:30,0.0,0.0,0.0,-0.01666020907880433,0.0,0.0,-1.0,0.0,0.0,0.0,0.0,0.0,0.0,-0.0,0.0,1.0,1.0,1.0,1.0,11.0,12.0,13.0,14.0,49.926
2024-04-02 22:52:30,0.0,0.0,0.0,-0.01666020907880433,0.0,0.0,231.0,0.0,0.0,0.0,0.0,0.0,0.0,-0.0,0.0,1.0,1.0,1.0,1.0,11.0,12.0,13.0,14.0,49.388
2024-04-02 22:52:30,0.0,0.0,0.0,-0.01666020907880433,0.0,0.0,-1.0,0.0,0.0,0.0,0.0,0.0,0.0,-0.0,0.0,1.0,1.0,1.0,1.0,11.0,12.0,13.0,14.0,49.926
2024-04-02 22:52:30,0.0,0.0,0.0,-0.01666020907880433,0.0,0.0,-1.0,0.0,0.0,0.0,0.0,0.0,0.0,-0.0,0.0,1.0,1.0,1.0,1.0,11.0,12.0,13.0,14.0,50.464
2024-04-02 22:52:30,0.0,0.0,0.0,-0.01666020907880433,0.0,0.0,-1.0,0.0,0.0,0.0,0.0,0.0,0.0,-0.0,0.0,1.0,1.0,1.0,1.0,11.0,12.0,13.0,14.0,49.926
2024-04-02 22:52:30,0.0,0.0,0.0,-0.01666020907880433,0.0,0.0,-1.0,0.0,0.0,0.0,0.0,0.0,0.0,-0.0,0.0,1.0,1.0,1.0,1.0,11.0,12.0,13.0,14.0,49.926
2024-04-02 22:52:31,0.0,0.0,0.0,-0.01666020907880433,0.0,0.0,229.0,0.0,0.0,0.0,0.0,0.0,0.0,-0.0,0.0,1.0,1.0,1.0,1.0,11.0,12.0,13.0,14.0,49.926
2024-04-02 22:52:31,0.0,0.0,0.0,-0.01666020907880433,0.0,0.0,-1.0,0.0,0.0,0.0,0.0,0.0,0.0,-0.0,0.0,1.0,1.0,1.0,1.0,11.0,12.0,13.0,14.0,49.388
2024-04-02 22:52:31,0.0,0.0,0.0,-0.01666020907880433,0.0,0.0,231.0,0.0,0.0,0.0,0.0,0.0,0.0,-0.0,0.0,1.0,1.0,1.0,1.0,11.0,12.0,13.0,14.0,49.926
2024-04-02 22:52:31,0.0,0.0,0.0,-0.01666020907880433,0.0,0.0,-1.0,0.0,0.0,0.0,0.0,0.0,0.0,-0.0,0.0,1.0,1.0,1.0,1.0,11.0,12.0,13.0,14.0,50.464
2024-04-02 22:52:31,0.0,0.0,0.0,-0.01524336511335846,0.0,0.0,230.0,0.0,0.0,0.0,0.0,0.0,0.0,-0.0,0.0,1.0,1.0,1.0,1.0,11.0,12.0,13.0,14.0,49.926
2024-04-02 22:52:31,0.0,0.0,0.0,-0.01524336511335846,0.0,0.0,-1.0,0.0,0.0,0.0,0.0,0.0,0.0,-0.0,0.0,1.0,1.0,1.0,1.0,11.0,12.0,13.0,14.0,49.388
2024-04-02 22:52:31,0.0,0.0,0.0,-0.01524336511335846,0.0,0.0,-1.0,0.0,0.0,0.0,0.0,0.0,0.0,-0.0,0.0,1.0,1.0,1.0,1.0,11.0,12.0,13.0,14.0,50.464
2024-04-02 22:52:31,0.0,0.0,0.0,-0.01524336511335846,0.0,0.0,230.0,0.0,0.0,0.0,0.0,0.0,0.0,-0.0,0.0,1.0,1.0,1.0,1.0,11.0,12.0,13.0,14.0,49.926
2024-04-02 22:52:31,0.0,0.0,0.0,-0.01524336511335846,0.0,0.0,-1.0,0.0,0.0,0.0,0.0,0.0,0.0,-0.0,0.0,1.0,1.0,1.0,1.0,11.0,12.0,13.0,14.0,49.926
2024-04-02 22:52:31,0.0,0.0,0.0,-0.01524336511335846,0.0,0.0,-1.0,0.0,0.0,0.0,0.0,0.0,0.0,-0.0,0.0,1.0,1.0,1.0,1.0,11.0,12.0,13.0,14.0,50.464
2024-04-02 22:52:31,0.0,0.0,0.0,-0.01524336511335846,0.0,0.0,-1.0,0.0,0.0,0.0,0.0,0.0,0.0,-0.0,0.0,1.0,1.0,1.0,1.0,11.0,12.0,13.0,14.0,49.926
2024-04-02 22:52:31,0.0,0.0,0.0,-0.01524336511335846,0.0,0.0,-1.0,0.0,0.0,0.0,0.0,0.0,0.0,-0.0,0.0,1.0,1.0,1.0,1.0,11.0,12.0,13.0,14.0,49.926
2024-04-02 22:52:32,0.0,0.0,0.0,-0.01524336511335846,0.0,0.0,231.0,0.0,0.0,0.0,0.0,0.0,0.0,-0.0,0.0,1.0,1.0,1.0,1.0,11.0,12.0,13.0,14.0,49.926
2024-04-02 22:52:32,0.0,0.0,0.0,-0.01524336511335846,0.0,0.0,-1.0,0.0,0.0,0.0,0.0,0.0,0.0,-0.0,0.0,1.0,1.0,1.0,1.0,11.0,12.0,13.0,14.0,49.926
2024-04-02 22:52:32,0.0,0.0,0.0,-0.01524336511335846,0.0,0.0,230.0,0.0,0.0,0.0,0.0,0.0,0.0,-0.0,0.0,1.0,1.0,1.0,1.0,11.0,12.0,13.0,14.0,49.926
2024-04-02 22:52:32,0.0,0.0,0.0,-0.01524336511335846,0.0,0.0,-1.0,0.0,0.0,0.0,0.0,0.0,0.0,-0.0,0.0,1.0,1.0,1.0,1.0,11.0,12.0,13.0,14.0,50.464
2024-04-02 22:52:32,0.0,0.0,0.0,-0.01524336511335846,0.0,0.0,-1.0,0.0,0.0,0.0,0.0,0.0,0.0,-0.0,0.0,1.0,1.0,1.0,1.0,11.0,12.0,13.0,14.0,49.926
2024-04-02 22:52:32,0.0,0.0,0.0,-0.01524336511335846,0.0,0.0,229.0,0.0,0.0,0.0,0.0,0.0,0.0,-0.0,0.0,1.0,1.0,1.0,1.0,11.0,12.0,13.0,14.0,49.926
2024-04-02 22:52:32,0.0,0.0,0.0,-0.01524336511335846,0.0,0.0,-1.0,0.0,0.0,0.0,0.0,0.0,0.0,-0.0,0.0,1.0,1.0,1.0,1.0,11.0,12.0,13.0,14.0,50.464
2024-04-02 22:52:32,0.0,0.0,0.0,-0.015614895814350927,0.0,0.0,230.0,0.0,0.0,0.0,0.0,0.0,0.0,-0.0,0.0,1.0,1.0,1.0,1.0,11.0,12.0,13.0,14.0,49.926
2024-04-02 22:52:32,0.0,0.0,0.0,-0.015614895814350927,0.0,0.0,-1.0,0.0,0.0,0.0,0.0,0.0,0.0,-0.0,0.0,1.0,1.0,1.0,1.0,11.0,12.0,13.0,14.0,49.926
2024-04-02 22:52:32,0.0,0.0,0.0,-0.015614895814350927,0.0,0.0,-1.0,0.0,0.0,0.0,0.0,0.0,0.0,-0.0,0.0,1.0,1.0,1.0,1.0,11.0,12.0,13.0,14.0,50.464
2024-04-02 22:52:32,0.0,0.0,0.0,-0.015614895814350927,0.0,0.0,-1.0,0.0,0.0,0.0,0.0,0.0,0.0,-0.0,0.0,1.0,1.0,1.0,1.0,11.0,12.0,13.0,14.0,49.926
2024-04-02 22:52:32,0.0,0.0,0.0,-0.015614895814350927,0.0,0.0,-1.0,0.0,0.0,0.0,0.0,0.0,0.0,-0.0,0.0,1.0,1.0,1.0,1.0,11.0,12.0,13.0,14.0,49.926
2024-04-02 22:52:33,0.0,0.0,0.0,-0.015614895814350927,0.0,0.0,-1.0,0.0,0.0,0.0,0.0,0.0,0.0,-0.0,0.0,1.0,1.0,1.0,1.0,11.0,12.0,13.0,14.0,49.926
2024-04-02 22:52:33,0.0,0.0,0.0,-0.015614895814350927,0.0,0.0,-1.0,0.0,0.0,0.0,0.0,0.0,0.0,-0.0,0.0,1.0,1.0,1.0,1.0,11.0,12.0,13.0,14.0,49.388
2024-04-02 22:52:33,0.0,0.0,0.0,-0.015614895814350927,0.0,0.0,-1.0,0.0,0.0,0.0,0.0,0.0,0.0,-0.0,0.0,1.0,1.0,1.0,1.0,11.0,12.0,13.0,14.0,50.464
2024-04-02 22:52:33,0.0,0.0,0.0,-0.015614895814350927,0.0,0.0,-1.0,0.0,0.0,0.0,0.0,0.0,0.0,-0.0,0.0,1.0,1.0,1.0,1.0,11.0,12.0,13.0,14.0,50.464
2024-04-02 22:52:33,0.0,0.0,0.0,-0.015614895814350927,0.0,0.0,-1.0,0.0,0.0,0.0,0.0,0.0,0.0,-0.0,0.0,1.0,1.0,1.0,1.0,11.0,12.0,13.0,14.0,50.464
2024-04-02 22:52:33,0.0,0.0,0.0,-0.015614895814350927,0.0,0.0,228.0,0.0,0.0,0.0,0.0,0.0,0.0,-0.0,0.0,1.0,1.0,1.0,1.0,11.0,12.0,13.0,14.0,49.388
2024-04-02 22:52:33,0.0,0.0,0.0,-0.015614895814350927,0.0,0.0,-1.0,0.0,0.0,0.0,0.0,0.0,0.0,-0.0,0.0,1.0,1.0,1.0,1.0,11.0,12.0,13.0,14.0,49.926
2024-04-02 22:52:33,0.0,0.0,0.0,-0.015614895814350927,0.0,0.0,229.0,0.0,0.0,0.0,0.0,0.0,0.0,-0.0,0.0,1.0,1.0,1.0,1.0,11.0,12.0,13.0,14.0,49.926
2024-04-02 22:52:33,0.0,0.0,0.0,-0.015120907094336942,0.0,0.0,-1.0,0.0,0.0,0.0,0.0,0.0,0.0,-0.0,0.0,1.0,1.0,1.0,1.0,11.0,12.0,13.0,14.0,49.926
2024-04-02 22:52:33,0.0,0.0,0.0,-0.015120907094336942,0.0,0.0,230.0,0.0,0.0,0.0,0.0,0.0,0.0,-0.0,0.0,1.0,1.0,1.0,1.0,11.0,12.0,13.0,14.0,50.464
2024-04-02 22:52:34,0.0,0.0,0.0,-0.015120907094336942,0.0,0.0,-1.0,0.0,0.0,0.0,0.0,0.0,0.0,-0.0,0.0,1.0,1.0,1.0,1.0,11.0,12.0,13.0,14.0,50.464
2024-04-02 22:52:34,0.0,0.0,0.0,-0.015120907094336942,0.0,0.0,0.0,0.0,0.0,0.0,0.0,0.0,0.0,-0.0,0.0,1.0,1.0,1.0,1.0,11.0,12.0,13.0,14.0,49.926
2024-04-02 22:52:34,0.0,0.0,0.0,-0.015120907094336942,0.0,0.0,-1.0,0.0,0.0,0.0,0.0,0.0,0.0,-0.0,0.0,1.0,1.0,1.0,1.0,11.0,12.0,13.0,14.0,50.464
2024-04-02 22:52:34,0.0,0.0,0.0,-0.015120907094336942,0.0,0.0,231.0,0.0,0.0,0.0,0.0,0.0,0.0,-0.0,0.0,1.0,1.0,1.0,1.0,11.0,12.0,13.0,14.0,49.926
2024-04-02 22:52:34,0.0,0.0,0.0,-0.015120907094336942,0.0,0.0,-1.0,0.0,0.0,0.0,0.0,0.0,0.0,-0.0,0.0,1.0,1.0,1.0,1.0,11.0,12.0,13.0,14.0,49.926
2024-04-02 22:52:34,0.0,0.0,0.0,-0.015120907094336942,0.0,0.0,228.0,0.0,0.0,0.0,0.0,0.0,0.0,-0.0,0.0,1.0,1.0,1.0,1.0,11.0,12.0,13.0,14.0,49.926
2024-04-02 22:52:34,0.0,0.0,0.0,-0.015120907094336942,0.0,0.0,-1.0,0.0,0.0,0.0,0.0,0.0,0.0,-0.0,0.0,1.0,1.0,1.0,1.0,11.0,12.0,13.0,14.0,50.464
2024-04-02 22:52:34,0.0,0.0,0.0,-0.015120907094336942,0.0,0.0,229.0,0.0,0.0,0.0,0.0,0.0,0.0,-0.0,0.0,1.0,1.0,1.0,1.0,11.0,12.0,13.0,14.0,50.464
2024-04-02 22:52:34,0.0,0.0,0.0,-0.015120907094336942,0.0,0.0,-1.0,0.0,0.0,0.0,0.0,0.0,0.0,-0.0,0.0,1.0,1.0,1.0,1.0,11.0,12.0,13.0,14.0,50.464
2024-04-02 22:52:34,0.0,0.0,0.0,-0.015120907094336942,0.0,0.0,-1.0,0.0,0.0,0.0,0.0,0.0,0.0,-0.0,0.0,1.0,1.0,1.0,1.0,11.0,12.0,13.0,14.0,50.464
2024-04-02 22:52:34,0.0,0.0,0.0,-0.015120907094336942,0.0,0.0,-1.0,0.0,0.0,0.0,0.0,0.0,0.0,-0.0,0.0,1.0,1.0,1.0,1.0,11.0,12.0,13.0,14.0,50.464
2024-04-02 22:52:35,0.0,0.0,0.0,-0.015120907094336942,0.0,0.0,-1.0,0.0,0.0,0.0,0.0,0.0,0.0,-0.0,0.0,1.0,1.0,1.0,1.0,11.0,12.0,13.0,14.0,50.464
2024-04-02 22:52:35,0.0,0.0,0.0,-0.01725397584118088,0.0,0.0,-1.0,0.0,0.0,0.0,0.0,0.0,0.0,-0.0,0.0,1.0,1.0,1.0,1.0,11.0,12.0,13.0,14.0,50.464
2024-04-02 22:52:35,0.0,0.0,0.0,-0.01725397584118088,0.0,0.0,-1.0,0.0,0.0,0.0,0.0,0.0,0.0,-0.0,0.0,1.0,1.0,1.0,1.0,11.0,12.0,13.0,14.0,50.464
2024-04-02 22:52:35,0.0,0.0,0.0,-0.01725397584118088,0.0,0.0,-1.0,0.0,0.0,0.0,0.0,0.0,0.0,-0.0,0.0,1.0,1.0,1.0,1.0,11.0,12.0,13.0,14.0,50.464
2024-04-02 22:52:35,0.0,0.0,0.0,-0.01725397584118088,0.0,0.0,-1.0,0.0,0.0,0.0,0.0,0.0,0.0,-0.0,0.0,1.0,1.0,1.0,1.0,11.0,12.0,13.0,14.0,50.464
2024-04-02 22:52:35,0.0,0.0,0.0,-0.01725397584118088,0.0,0.0,-1.0,0.0,0.0,0.0,0.0,0.0,0.0,-0.0,0.0,1.0,1.0,1.0,1.0,11.0,12.0,13.0,14.0,49.926
2024-04-02 22:52:35,0.0,0.0,0.0,-0.01725397584118088,0.0,0.0,-1.0,0.0,0.0,0.0,0.0,0.0,0.0,-0.0,0.0,1.0,1.0,1.0,1.0,11.0,12.0,13.0,14.0,50.464
2024-04-02 22:52:35,0.0,0.0,0.0,-0.01725397584118088,0.0,0.0,-1.0,0.0,0.0,0.0,0.0,0.0,0.0,-0.0,0.0,1.0,1.0,1.0,1.0,11.0,12.0,13.0,14.0,50.464
2024-04-02 22:52:35,0.0,0.0,0.0,-0.01725397584118088,0.0,0.0,-1.0,0.0,0.0,0.0,0.0,0.0,0.0,-0.0,0.0,1.0,1.0,1.0,1.0,11.0,12.0,13.0,14.0,50.464
2024-04-02 22:52:35,0.0,0.0,0.0,-0.01725397584118088,0.0,0.0,-1.0,0.0,0.0,0.0,0.0,0.0,0.0,-0.0,0.0,1.0,1.0,1.0,1.0,11.0,12.0,13.0,14.0,49.926
2024-04-02 22:52:35,0.0,0.0,0.0,-0.01725397584118088,0.0,0.0,0.0,0.0,0.0,0.0,0.0,0.0,0.0,-0.0,0.0,1.0,1.0,1.0,1.0,11.0,12.0,13.0,14.0,50.464
2024-04-02 22:52:35,0.0,0.0,0.0,-0.01725397584118088,0.0,0.0,-1.0,0.0,0.0,0.0,0.0,0.0,0.0,-0.0,0.0,1.0,1.0,1.0,1.0,11.0,12.0,13.0,14.0,50.464
2024-04-02 22:52:35,0.0,0.0,0.0,-0.01725397584118088,0.0,0.0,230.0,0.0,0.0,0.0,0.0,0.0,0.0,-0.0,0.0,1.0,1.0,1.0,1.0,11.0,12.0,13.0,14.0,50.464
2024-04-02 22:52:35,0.0,0.0,0.0,-0.01725397584118088,0.0,0.0,-1.0,0.0,0.0,0.0,0.0,0.0,0.0,-0.0,0.0,1.0,1.0,1.0,1.0,11.0,12.0,13.0,14.0,50.464
2024-04-02 22:52:36,0.0,0.0,0.0,-0.01725397584118088,0.0,0.0,-1.0,0.0,0.0,0.0,0.0,0.0,0.0,-0.0,0.0,1.0,1.0,1.0,1.0,11.0,12.0,13.0,14.0,50.464
2024-04-02 22:52:36,0.0,0.0,0.0,-0.01725397584118088,0.0,0.0,229.0,0.0,0.0,0.0,0.0,0.0,0.0,-0.0,0.0,1.0,1.0,1.0,1.0,11.0,12.0,13.0,14.0,50.464
2024-04-02 22:52:36,0.0,0.0,0.0,-0.01725397584118088,0.0,0.0,-1.0,0.0,0.0,0.0,0.0,0.0,0.0,-0.0,0.0,1.0,1.0,1.0,1.0,11.0,12.0,13.0,14.0,50.464
2024-04-02 22:52:36,0.0,0.0,0.0,-0.016481008653521218,0.0,0.0,-1.0,0.0,0.0,0.0,0.0,0.0,0.0,-0.0,0.0,1.0,1.0,1.0,1.0,11.0,12.0,13.0,14.0,50.464
2024-04-02 22:52:36,0.0,0.0,0.0,-0.016481008653521218,0.0,0.0,-1.0,0.0,0.0,0.0,0.0,0.0,0.0,-0.0,0.0,1.0,1.0,1.0,1.0,11.0,12.0,13.0,14.0,50.464
2024-04-02 22:52:36,0.0,0.0,0.0,-0.016481008653521218,0.0,0.0,-1.0,0.0,0.0,0.0,0.0,0.0,0.0,-0.0,0.0,1.0,1.0,1.0,1.0,11.0,12.0,13.0,14.0,50.464
2024-04-02 22:52:36,0.0,0.0,0.0,-0.016481008653521218,0.0,0.0,229.0,0.0,0.0,0.0,0.0,0.0,0.0,-0.0,0.0,1.0,1.0,1.0,1.0,11.0,12.0,13.0,14.0,50.464
2024-04-02 22:52:36,0.0,0.0,0.0,-0.016481008653521218,0.0,0.0,-1.0,0.0,0.0,0.0,0.0,0.0,0.0,-0.0,0.0,1.0,1.0,1.0,1.0,11.0,12.0,13.0,14.0,50.464
2024-04-02 22:52:36,0.0,0.0,0.0,-0.016481008653521218,0.0,0.0,228.0,0.0,0.0,0.0,0.0,0.0,0.0,-0.0,0.0,1.0,1.0,1.0,1.0,11.0,12.0,13.0,14.0,50.464
2024-04-02 22:52:36,0.0,0.0,0.0,-0.016481008653521218,0.0,0.0,-1.0,0.0,0.0,0.0,0.0,0.0,0.0,-0.0,0.0,1.0,1.0,1.0,1.0,11.0,12.0,13.0,14.0,50.464
2024-04-02 22:52:36,0.0,0.0,0.0,-0.016481008653521218,0.0,0.0,230.0,0.0,0.0,0.0,0.0,0.0,0.0,-0.0,0.0,1.0,1.0,1.0,1.0,11.0,12.0,13.0,14.0,50.464
2024-04-02 22:52:37,0.0,0.0,0.0,-0.016481008653521218,0.0,0.0,-1.0,0.0,0.0,0.0,0.0,0.0,0.0,-0.0,0.0,1.0,1.0,1.0,1.0,11.0,12.0,13.0,14.0,51.002
2024-04-02 22:52:37,0.0,0.0,0.0,-0.016481008653521218,0.0,0.0,229.0,0.0,0.0,0.0,0.0,0.0,0.0,-0.0,0.0,1.0,1.0,1.0,1.0,11.0,12.0,13.0,14.0,51.002
2024-04-02 22:52:37,0.0,0.0,0.0,-0.016481008653521218,0.0,0.0,-1.0,0.0,0.0,0.0,0.0,0.0,0.0,-0.0,0.0,1.0,1.0,1.0,1.0,11.0,12.0,13.0,14.0,51.002
2024-04-02 22:52:37,0.0,0.0,0.0,-0.016481008653521218,0.0,0.0,229.0,0.0,0.0,0.0,0.0,0.0,0.0,-0.0,0.0,1.0,1.0,1.0,1.0,11.0,12.0,13.0,14.0,50.464
2024-04-02 22:52:37,0.0,0.0,0.0,-0.016481008653521218,0.0,0.0,-1.0,0.0,0.0,0.0,0.0,0.0,0.0,-0.0,0.0,1.0,1.0,1.0,1.0,11.0,12.0,13.0,14.0,50.464
2024-04-02 22:52:37,0.0,0.0,0.0,-0.017024003519941888,0.0,0.0,229.0,0.0,0.0,0.0,0.0,0.0,0.0,-0.0,0.0,1.0,1.0,1.0,1.0,11.0,12.0,13.0,14.0,50.464
2024-04-02 22:52:37,0.0,0.0,0.0,-0.017024003519941888,0.0,0.0,-1.0,0.0,0.0,0.0,0.0,0.0,0.0,-0.0,0.0,1.0,1.0,1.0,1.0,11.0,12.0,13.0,14.0,50.464
2024-04-02 22:52:37,0.0,0.0,0.0,-0.017024003519941888,0.0,0.0,-1.0,0.0,0.0,0.0,0.0,0.0,0.0,-0.0,0.0,1.0,1.0,1.0,1.0,11.0,12.0,13.0,14.0,50.464
2024-04-02 22:52:37,0.0,0.0,0.0,-0.017024003519941888,0.0,0.0,228.0,0.0,0.0,0.0,0.0,0.0,0.0,-0.0,0.0,1.0,1.0,1.0,1.0,11.0,12.0,13.0,14.0,50.464
2024-04-02 22:52:37,0.0,0.0,0.0,-0.017024003519941888,0.0,0.0,-1.0,0.0,0.0,0.0,0.0,0.0,0.0,-0.0,0.0,1.0,1.0,1.0,1.0,11.0,12.0,13.0,14.0,50.464
2024-04-02 22:52:37,0.0,0.0,0.0,-0.017024003519941888,0.0,0.0,229.0,0.0,0.0,0.0,0.0,0.0,0.0,-0.0,0.0,1.0,1.0,1.0,1.0,11.0,12.0,13.0,14.0,50.464
2024-04-02 22:52:37,0.0,0.0,0.0,-0.017024003519941888,0.0,0.0,-1.0,0.0,0.0,0.0,0.0,0.0,0.0,-0.0,0.0,1.0,1.0,1.0,1.0,11.0,12.0,13.0,14.0,50.464
2024-04-02 22:52:38,0.0,0.0,0.0,-0.017024003519941888,0.0,0.0,-1.0,0.0,0.0,0.0,0.0,0.0,0.0,-0.0,0.0,1.0,1.0,1.0,1.0,11.0,12.0,13.0,14.0,50.464
2024-04-02 22:52:38,0.0,0.0,0.0,-0.017024003519941888,0.0,0.0,229.0,0.0,0.0,0.0,0.0,0.0,0.0,-0.0,0.0,1.0,1.0,1.0,1.0,11.0,12.0,13.0,14.0,51.002
2024-04-02 22:52:38,0.0,0.0,0.0,-0.017024003519941888,0.0,0.0,-1.0,0.0,0.0,0.0,0.0,0.0,0.0,-0.0,0.0,1.0,1.0,1.0,1.0,11.0,12.0,13.0,14.0,50.464
2024-04-02 22:52:38,0.0,0.0,0.0,-0.017024003519941888,0.0,0.0,-1.0,0.0,0.0,0.0,0.0,0.0,0.0,-0.0,0.0,1.0,1.0,1.0,1.0,11.0,12.0,13.0,14.0,50.464
2024-04-02 22:52:38,0.0,0.0,0.0,-0.017024003519941888,0.0,0.0,229.0,0.0,0.0,0.0,0.0,0.0,0.0,-0.0,0.0,1.0,1.0,1.0,1.0,11.0,12.0,13.0,14.0,50.464
2024-04-02 22:52:38,0.0,0.0,0.0,-0.017024003519941888,0.0,0.0,-1.0,0.0,0.0,0.0,0.0,0.0,0.0,-0.0,0.0,1.0,1.0,1.0,1.0,11.0,12.0,13.0,14.0,50.464
2024-04-02 22:52:38,0.0,0.0,0.0,-0.017024003519941888,0.0,0.0,229.0,0.0,0.0,0.0,0.0,0.0,0.0,-0.0,0.0,1.0,1.0,1.0,1.0,11.0,12.0,13.0,14.0,50.464
2024-04-02 22:52:38,0.0,0.0,0.0,-0.019180133500449083,0.0,0.0,-1.0,0.0,0.0,0.0,0.0,0.0,0.0,-0.0,0.0,1.0,1.0,1.0,1.0,11.0,12.0,13.0,14.0,50.464
2024-04-02 22:52:38,0.0,0.0,0.0,-0.019180133500449083,0.0,0.0,-1.0,0.0,0.0,0.0,0.0,0.0,0.0,-0.0,0.0,1.0,1.0,1.0,1.0,11.0,12.0,13.0,14.0,50.464
2024-04-02 22:52:38,0.0,0.0,0.0,-0.019180133500449083,0.0,0.0,227.0,0.0,0.0,0.0,0.0,0.0,0.0,-0.0,0.0,1.0,1.0,1.0,1.0,11.0,12.0,13.0,14.0,50.464
2024-04-02 22:52:38,0.0,0.0,0.0,-0.019180133500449083,0.0,0.0,-1.0,0.0,0.0,0.0,0.0,0.0,0.0,-0.0,0.0,1.0,1.0,1.0,1.0,11.0,12.0,13.0,14.0,51.002
2024-04-02 22:52:38,0.0,0.0,0.0,-0.019180133500449083,0.0,0.0,228.0,0.0,0.0,0.0,0.0,0.0,0.0,-0.0,0.0,1.0,1.0,1.0,1.0,11.0,12.0,13.0,14.0,50.464
2024-04-02 22:52:39,0.0,0.0,0.0,-0.019180133500449083,0.0,0.0,-1.0,0.0,0.0,0.0,0.0,0.0,0.0,-0.0,0.0,1.0,1.0,1.0,1.0,11.0,12.0,13.0,14.0,51.54
2024-04-02 22:52:39,0.0,0.0,0.0,-0.019180133500449083,0.0,0.0,228.0,0.0,0.0,0.0,0.0,0.0,0.0,-0.0,0.0,1.0,1.0,1.0,1.0,11.0,12.0,13.0,14.0,51.54
2024-04-02 22:52:39,0.0,0.0,0.0,-0.019180133500449083,0.0,0.0,-1.0,0.0,0.0,0.0,0.0,0.0,0.0,-0.0,0.0,1.0,1.0,1.0,1.0,11.0,12.0,13.0,14.0,51.002
2024-04-02 22:52:39,0.0,0.0,0.0,-0.019180133500449083,0.0,0.0,-1.0,0.0,0.0,0.0,0.0,0.0,0.0,-0.0,0.0,1.0,1.0,1.0,1.0,11.0,12.0,13.0,14.0,50.464
2024-04-02 22:52:39,0.0,0.0,0.0,-0.019180133500449083,0.0,0.0,228.0,0.0,0.0,0.0,0.0,0.0,0.0,-0.0,0.0,1.0,1.0,1.0,1.0,11.0,12.0,13.0,14.0,51.54
2024-04-02 22:52:39,0.0,0.0,0.0,-0.019180133500449083,0.0,0.0,-1.0,0.0,0.0,0.0,0.0,0.0,0.0,-0.0,0.0,1.0,1.0,1.0,1.0,11.0,12.0,13.0,14.0,50.464
2024-04-02 22:52:39,0.0,0.0,0.0,-0.019180133500449083,0.0,0.0,0.0,0.0,0.0,0.0,0.0,0.0,0.0,-0.0,0.0,1.0,1.0,1.0,1.0,11.0,12.0,13.0,14.0,51.54
2024-04-02 22:52:39,0.0,0.0,0.0,-0.019180133500449083,0.0,0.0,-1.0,0.0,0.0,0.0,0.0,0.0,0.0,-0.0,0.0,1.0,1.0,1.0,1.0,11.0,12.0,13.0,14.0,50.464
2024-04-02 22:52:39,0.0,0.0,0.0,-0.017550487684947748,0.0,0.0,-1.0,0.0,0.0,0.0,0.0,0.0,0.0,-0.0,0.0,1.0,1.0,1.0,1.0,11.0,12.0,13.0,14.0,51.54
2024-04-02 22:52:39,0.0,0.0,0.0,-0.017550487684947748,0.0,0.0,228.0,0.0,0.0,0.0,0.0,0.0,0.0,-0.0,0.0,1.0,1.0,1.0,1.0,11.0,12.0,13.0,14.0,51.54
2024-04-02 22:52:39,0.0,0.0,0.0,-0.017550487684947748,0.0,0.0,-1.0,0.0,0.0,0.0,0.0,0.0,0.0,-0.0,0.0,1.0,1.0,1.0,1.0,11.0,12.0,13.0,14.0,51.002
2024-04-02 22:52:39,0.0,0.0,0.0,-0.017550487684947748,0.0,0.0,-1.0,0.0,0.0,0.0,0.0,0.0,0.0,-0.0,0.0,1.0,1.0,1.0,1.0,11.0,12.0,13.0,14.0,51.54
2024-04-02 22:52:39,0.0,0.0,0.0,-0.017550487684947748,0.0,0.0,0.0,0.0,0.0,0.0,0.0,0.0,0.0,-0.0,0.0,1.0,1.0,1.0,1.0,11.0,12.0,13.0,14.0,51.54
2024-04-02 22:52:39,0.0,0.0,0.0,-0.017550487684947748,0.0,0.0,-1.0,0.0,0.0,0.0,0.0,0.0,0.0,-0.0,0.0,1.0,1.0,1.0,1.0,11.0,12.0,13.0,14.0,51.54
2024-04-02 22:52:40,0.0,0.0,0.0,-0.017550487684947748,0.0,0.0,-1.0,0.0,0.0,0.0,0.0,0.0,0.0,-0.0,0.0,1.0,1.0,1.0,1.0,11.0,12.0,13.0,14.0,51.54
2024-04-02 22:52:40,0.0,0.0,0.0,-0.017550487684947748,0.0,0.0,0.0,0.0,0.0,0.0,0.0,0.0,0.0,-0.0,0.0,1.0,1.0,1.0,1.0,11.0,12.0,13.0,14.0,50.464
2024-04-02 22:52:40,0.0,0.0,0.0,-0.017550487684947748,0.0,0.0,-1.0,0.0,0.0,0.0,0.0,0.0,0.0,-0.0,0.0,1.0,1.0,1.0,1.0,11.0,12.0,13.0,14.0,51.54
2024-04-02 22:52:40,0.0,0.0,0.0,-0.017550487684947748,0.0,0.0,-1.0,0.0,0.0,0.0,0.0,0.0,0.0,-0.0,0.0,1.0,1.0,1.0,1.0,11.0,12.0,13.0,14.0,51.54
2024-04-02 22:52:40,0.0,0.0,0.0,-0.017550487684947748,0.0,0.0,227.0,0.0,0.0,0.0,0.0,0.0,0.0,-0.0,0.0,1.0,1.0,1.0,1.0,11.0,12.0,13.0,14.0,51.54
2024-04-02 22:52:40,0.0,0.0,0.0,-0.017550487684947748,0.0,0.0,-1.0,0.0,0.0,0.0,0.0,0.0,0.0,-0.0,0.0,1.0,1.0,1.0,1.0,11.0,12.0,13.0,14.0,51.54
2024-04-02 22:52:40,0.0,0.0,0.0,-0.017550487684947748,0.0,0.0,-1.0,0.0,0.0,0.0,0.0,0.0,0.0,-0.0,0.0,1.0,1.0,1.0,1.0,11.0,12.0,13.0,14.0,50.464
2024-04-02 22:52:40,0.0,0.0,0.0,-0.017550487684947748,0.0,0.0,228.0,0.0,0.0,0.0,0.0,0.0,0.0,-0.0,0.0,1.0,1.0,1.0,1.0,11.0,12.0,13.0,14.0,51.54
2024-04-02 22:52:40,0.0,0.0,0.0,-0.017550487684947748,0.0,0.0,-1.0,0.0,0.0,0.0,0.0,0.0,0.0,-0.0,0.0,1.0,1.0,1.0,1.0,11.0,12.0,13.0,14.0,50.464
2024-04-02 22:52:40,0.0,0.0,0.0,-0.019282516672758612,0.0,0.0,-1.0,0.0,0.0,0.0,0.0,0.0,0.0,-0.0,0.0,1.0,1.0,1.0,1.0,11.0,12.0,13.0,14.0,51.54
2024-04-02 22:52:40,0.0,0.0,0.0,-0.019282516672758612,0.0,0.0,-1.0,0.0,0.0,0.0,0.0,0.0,0.0,-0.0,0.0,1.0,1.0,1.0,1.0,11.0,12.0,13.0,14.0,50.464
2024-04-02 22:52:40,0.0,0.0,0.0,-0.019282516672758612,0.0,0.0,-1.0,0.0,0.0,0.0,0.0,0.0,0.0,-0.0,0.0,1.0,1.0,1.0,1.0,11.0,12.0,13.0,14.0,51.54
2024-04-02 22:52:40,0.0,0.0,0.0,-0.019282516672758612,0.0,0.0,-1.0,0.0,0.0,0.0,0.0,0.0,0.0,-0.0,0.0,1.0,1.0,1.0,1.0,11.0,12.0,13.0,14.0,51.54
2024-04-02 22:52:40,0.0,0.0,0.0,-0.019282516672758612,0.0,0.0,-1.0,0.0,0.0,0.0,0.0,0.0,0.0,-0.0,0.0,1.0,1.0,1.0,1.0,11.0,12.0,13.0,14.0,50.464
2024-04-02 22:52:41,0.0,0.0,0.0,-0.019282516672758612,0.0,0.0,-1.0,0.0,0.0,0.0,0.0,0.0,0.0,-0.0,0.0,1.0,1.0,1.0,1.0,11.0,12.0,13.0,14.0,51.54
2024-04-02 22:52:41,0.0,0.0,0.0,-0.019282516672758612,0.0,0.0,-1.0,0.0,0.0,0.0,0.0,0.0,0.0,-0.0,0.0,1.0,1.0,1.0,1.0,11.0,12.0,13.0,14.0,51.54
2024-04-02 22:52:41,0.0,0.0,0.0,-0.019282516672758612,0.0,0.0,-1.0,0.0,0.0,0.0,0.0,0.0,0.0,-0.0,0.0,1.0,1.0,1.0,1.0,11.0,12.0,13.0,14.0,51.002
2024-04-02 22:52:41,0.0,0.0,0.0,-0.019282516672758612,0.0,0.0,-1.0,0.0,0.0,0.0,0.0,0.0,0.0,-0.0,0.0,1.0,1.0,1.0,1.0,11.0,12.0,13.0,14.0,51.54
2024-04-02 22:52:41,0.0,0.0,0.0,-0.019282516672758612,0.0,0.0,-1.0,0.0,0.0,0.0,0.0,0.0,0.0,-0.0,0.0,1.0,1.0,1.0,1.0,11.0,12.0,13.0,14.0,51.002
2024-04-02 22:52:41,0.0,0.0,0.0,-0.019282516672758612,0.0,0.0,-1.0,0.0,0.0,0.0,0.0,0.0,0.0,-0.0,0.0,1.0,1.0,1.0,1.0,11.0,12.0,13.0,14.0,51.54
2024-04-02 22:52:41,0.0,0.0,0.0,-0.019282516672758612,0.0,0.0,-1.0,0.0,0.0,0.0,0.0,0.0,0.0,-0.0,0.0,1.0,1.0,1.0,1.0,11.0,12.0,13.0,14.0,51.54
2024-04-02 22:52:41,0.0,0.0,0.0,-0.019282516672758612,0.0,0.0,-1.0,0.0,0.0,0.0,0.0,0.0,0.0,-0.0,0.0,1.0,1.0,1.0,1.0,11.0,12.0,13.0,14.0,51.002
2024-04-02 22:52:41,0.0,0.0,0.0,-0.019282516672758612,0.0,0.0,-1.0,0.0,0.0,0.0,0.0,0.0,0.0,-0.0,0.0,1.0,1.0,1.0,1.0,11.0,12.0,13.0,14.0,51.54
2024-04-02 22:52:41,0.0,0.0,0.0,-0.018883735334025806,0.0,0.0,-1.0,0.0,0.0,0.0,0.0,0.0,0.0,-0.0,0.0,1.0,1.0,1.0,1.0,11.0,12.0,13.0,14.0,51.002
2024-04-02 22:52:41,0.0,0.0,0.0,-0.018883735334025806,0.0,0.0,227.0,0.0,0.0,0.0,0.0,0.0,0.0,-0.0,0.0,1.0,1.0,1.0,1.0,11.0,12.0,13.0,14.0,51.002
2024-04-02 22:52:41,0.0,0.0,0.0,-0.018883735334025806,0.0,0.0,-1.0,0.0,0.0,0.0,0.0,0.0,0.0,-0.0,0.0,1.0,1.0,1.0,1.0,11.0,12.0,13.0,14.0,51.002
2024-04-02 22:52:41,0.0,0.0,0.0,-0.018883735334025806,0.0,0.0,-1.0,0.0,0.0,0.0,0.0,0.0,0.0,-0.0,0.0,1.0,1.0,1.0,1.0,11.0,12.0,13.0,14.0,51.54
2024-04-02 22:52:41,0.0,0.0,0.0,-0.018883735334025806,0.0,0.0,227.0,0.0,0.0,0.0,0.0,0.0,0.0,-0.0,0.0,1.0,1.0,1.0,1.0,11.0,12.0,13.0,14.0,51.54
2024-04-02 22:52:41,0.0,0.0,0.0,-0.018883735334025806,0.0,0.0,-1.0,0.0,0.0,0.0,0.0,0.0,0.0,-0.0,0.0,1.0,1.0,1.0,1.0,11.0,12.0,13.0,14.0,51.54
2024-04-02 22:52:42,0.0,0.0,0.0,-0.018883735334025806,0.0,0.0,-1.0,0.0,0.0,0.0,0.0,0.0,0.0,-0.0,0.0,1.0,1.0,1.0,1.0,11.0,12.0,13.0,14.0,51.54
2024-04-02 22:52:42,0.0,0.0,0.0,-0.018883735334025806,0.0,0.0,228.0,0.0,0.0,0.0,0.0,0.0,0.0,-0.0,0.0,1.0,1.0,1.0,1.0,11.0,12.0,13.0,14.0,51.54
2024-04-02 22:52:42,0.0,0.0,0.0,-0.018883735334025806,0.0,0.0,-1.0,0.0,0.0,0.0,0.0,0.0,0.0,-0.0,0.0,1.0,1.0,1.0,1.0,11.0,12.0,13.0,14.0,51.002
2024-04-02 22:52:42,0.0,0.0,0.0,-0.018883735334025806,0.0,0.0,-1.0,0.0,0.0,0.0,0.0,0.0,0.0,-0.0,0.0,1.0,1.0,1.0,1.0,11.0,12.0,13.0,14.0,51.54
2024-04-02 22:52:42,0.0,0.0,0.0,-0.018883735334025806,0.0,0.0,226.0,0.0,0.0,0.0,0.0,0.0,0.0,-0.0,0.0,1.0,1.0,1.0,1.0,11.0,12.0,13.0,14.0,50.464
2024-04-02 22:52:42,0.0,0.0,0.0,-0.018883735334025806,0.0,0.0,-1.0,0.0,0.0,0.0,0.0,0.0,0.0,-0.0,0.0,1.0,1.0,1.0,1.0,11.0,12.0,13.0,14.0,51.54
2024-04-02 22:52:42,0.0,0.0,0.0,-0.018883735334025806,0.0,0.0,228.0,0.0,0.0,0.0,0.0,0.0,0.0,-0.0,0.0,1.0,1.0,1.0,1.0,11.0,12.0,13.0,14.0,51.002
2024-04-02 22:52:42,0.0,0.0,0.0,-0.018883735334025806,0.0,0.0,-1.0,0.0,0.0,0.0,0.0,0.0,0.0,-0.0,0.0,1.0,1.0,1.0,1.0,11.0,12.0,13.0,14.0,51.54
2024-04-02 22:52:42,0.0,0.0,0.0,-0.018883735334025806,0.0,0.0,-1.0,0.0,0.0,0.0,0.0,0.0,0.0,-0.0,0.0,1.0,1.0,1.0,1.0,11.0,12.0,13.0,14.0,51.002
2024-04-02 22:52:42,0.0,0.0,0.0,-0.01899471654293617,0.0,0.0,227.0,0.0,0.0,0.0,0.0,0.0,0.0,-0.0,0.0,1.0,1.0,1.0,1.0,11.0,12.0,13.0,14.0,51.002
2024-04-02 22:52:42,0.0,0.0,0.0,-0.01899471654293617,0.0,0.0,-1.0,0.0,0.0,0.0,0.0,0.0,0.0,-0.0,0.0,1.0,1.0,1.0,1.0,11.0,12.0,13.0,14.0,51.002
2024-04-02 22:52:42,0.0,0.0,0.0,-0.01899471654293617,0.0,0.0,-1.0,0.0,0.0,0.0,0.0,0.0,0.0,-0.0,0.0,1.0,1.0,1.0,1.0,11.0,12.0,13.0,14.0,51.002
2024-04-02 22:52:42,0.0,0.0,0.0,-0.01899471654293617,0.0,0.0,227.0,0.0,0.0,0.0,0.0,0.0,0.0,-0.0,0.0,1.0,1.0,1.0,1.0,11.0,12.0,13.0,14.0,51.002
2024-04-02 22:52:43,0.0,0.0,-0.0625,-0.01899471654293617,0.0,0.0,-1.0,0.0,0.0,0.0,0.0,0.0,0.0,-0.0,0.0,1.0,1.0,1.0,1.0,11.0,12.0,13.0,14.0,50.464
2024-04-02 22:52:43,0.0,0.0,-0.0625,-0.01899471654293617,0.0,0.0,-1.0,0.0,0.0,0.0,0.0,0.0,0.0,-0.0,0.0,1.0,1.0,1.0,1.0,11.0,12.0,13.0,14.0,50.464
2024-04-02 22:52:43,0.0,0.0,-0.0625,-0.01899471654293617,0.0,0.0,-1.0,0.0,0.0,0.0,0.0,0.0,0.0,-0.0,0.0,1.0,1.0,1.0,1.0,11.0,12.0,13.0,14.0,50.464
2024-04-02 22:52:43,0.0,0.0,-0.0625,-0.01899471654293617,0.0,0.0,-1.0,0.0,0.0,0.0,0.0,0.0,0.0,-0.0,0.0,1.0,1.0,1.0,1.0,11.0,12.0,13.0,14.0,50.464
2024-04-02 22:52:43,0.0,0.0,-0.0625,-0.01899471654293617,0.0,0.0,-1.0,0.0,0.0,0.0,0.0,0.0,0.0,-0.0,0.0,1.0,1.0,1.0,1.0,11.0,12.0,13.0,14.0,51.002
2024-04-02 22:52:43,0.0,0.0,-0.0625,-0.01899471654293617,0.0,0.0,-1.0,0.0,0.0,0.0,0.0,0.0,0.0,-0.0,0.0,1.0,1.0,1.0,1.0,11.0,12.0,13.0,14.0,50.464
