Timestamp,Yaw,Pitch,Roll,Depth,Depth Set,Depth Control,Water,Roll Control,Pitch Control,Thruster1,Thruster2,Thruster3,Thruster4,Thruster5,Thruster6,BCD1,BCD2,BCD3,BCD4,BCD1 Volt,BCD2 Volt,BCD3 Volt,BCD4 Volt,CPU
2024-04-02 22:03:31,0.125,-5.9375,135.125,0.004664565651196947,0.0,0.0,0.0,0.0,0.0,0.0,0.0,0.0,0.0,0.0,0.0,0.0,0.0,0.0,0.0,11.0,12.0,13.0,14.0,44.008
2024-04-02 22:03:32,0.125,-5.9375,135.125,0.004664565651196947,0.0,0.0,-1.0,0.0,0.0,0.0,0.0,0.0,0.0,0.0,0.0,0.0,0.0,0.0,0.0,11.0,12.0,13.0,14.0,43.47
2024-04-02 22:03:32,0.125,-5.9375,135.125,0.004664565651196947,0.0,0.0,-1.0,0.0,0.0,0.0,0.0,0.0,0.0,0.0,0.0,0.0,0.0,0.0,0.0,11.0,12.0,13.0,14.0,42.932
2024-04-02 22:03:32,0.125,-5.9375,135.125,0.004664565651196947,0.0,0.0,-1.0,0.0,0.0,0.0,0.0,0.0,0.0,0.0,0.0,0.0,0.0,0.0,0.0,11.0,12.0,13.0,14.0,43.47
2024-04-02 22:03:32,0.125,-5.9375,135.125,0.004664565651196947,0.0,0.0,-1.0,0.0,0.0,0.0,0.0,0.0,0.0,0.0,0.0,0.0,0.0,0.0,0.0,11.0,12.0,13.0,14.0,43.47
2024-04-02 22:03:32,0.125,-5.9375,135.125,0.004664565651196947,0.0,0.0,-1.0,0.0,0.0,0.0,0.0,0.0,0.0,0.0,0.0,0.0,0.0,0.0,0.0,11.0,12.0,13.0,14.0,43.47
2024-04-02 22:03:32,0.125,-5.9375,135.125,0.004664565651196947,0.0,0.0,-1.0,0.0,0.0,0.0,0.0,0.0,0.0,0.0,0.0,0.0,0.0,0.0,0.0,11.0,12.0,13.0,14.0,43.47
2024-04-02 22:03:32,0.125,-5.9375,135.125,0.004664565651196947,0.0,0.0,-1.0,0.0,0.0,0.0,0.0,0.0,0.0,0.0,0.0,0.0,0.0,0.0,0.0,11.0,12.0,13.0,14.0,42.932
2024-04-02 22:03:32,0.125,-5.9375,135.125,0.004664565651196947,0.0,0.0,-1.0,0.0,0.0,0.0,0.0,0.0,0.0,0.0,0.0,0.0,0.0,0.0,0.0,11.0,12.0,13.0,14.0,42.932
2024-04-02 22:03:32,0.125,-5.9375,135.125,0.004664565651196947,0.0,0.0,-1.0,0.0,0.0,0.0,0.0,0.0,0.0,0.0,0.0,0.0,0.0,0.0,0.0,11.0,12.0,13.0,14.0,43.47
2024-04-02 22:03:32,0.125,-5.9375,135.125,0.004664565651196947,0.0,0.0,-1.0,0.0,0.0,0.0,0.0,0.0,0.0,0.0,0.0,0.0,0.0,0.0,0.0,11.0,12.0,13.0,14.0,43.47
2024-04-02 22:03:32,0.125,-5.9375,135.125,0.004664565651196947,0.0,0.0,-1.0,0.0,0.0,0.0,0.0,0.0,0.0,0.0,0.0,0.0,0.0,0.0,0.0,11.0,12.0,13.0,14.0,42.932
2024-04-02 22:03:32,0.125,-5.9375,135.125,0.004664565651196947,0.0,0.0,-1.0,0.0,0.0,0.0,0.0,0.0,0.0,0.0,0.0,0.0,0.0,0.0,0.0,11.0,12.0,13.0,14.0,42.932
2024-04-02 22:03:32,0.125,-5.9375,135.125,0.0036306290178070738,0.0,0.0,-1.0,0.0,0.0,0.0,0.0,0.0,0.0,0.0,0.0,0.0,0.0,0.0,0.0,11.0,12.0,13.0,14.0,42.932
2024-04-02 22:03:33,0.125,-5.9375,135.125,0.0036306290178070738,0.0,0.0,-1.0,0.0,0.0,0.0,0.0,0.0,0.0,0.0,0.0,0.0,0.0,0.0,0.0,11.0,12.0,13.0,14.0,42.932
2024-04-02 22:03:33,0.125,-5.9375,135.125,0.0036306290178070738,0.0,0.0,-1.0,0.0,0.0,0.0,0.0,0.0,0.0,0.0,0.0,0.0,0.0,0.0,0.0,11.0,12.0,13.0,14.0,43.47
2024-04-02 22:03:33,0.125,-5.9375,135.125,0.0036306290178070738,0.0,0.0,-1.0,0.0,0.0,0.0,0.0,0.0,0.0,0.0,0.0,0.0,0.0,0.0,0.0,11.0,12.0,13.0,14.0,42.932
2024-04-02 22:03:33,0.125,-5.9375,135.125,0.0036306290178070738,0.0,0.0,118.0,0.0,0.0,0.0,0.0,0.0,0.0,0.0,0.0,0.0,0.0,0.0,0.0,11.0,12.0,13.0,14.0,43.47
2024-04-02 22:03:33,0.125,-5.9375,135.125,0.0036306290178070738,0.0,0.0,-1.0,0.0,0.0,0.0,0.0,0.0,0.0,0.0,0.0,0.0,0.0,0.0,0.0,11.0,12.0,13.0,14.0,43.47
2024-04-02 22:03:33,0.125,-5.9375,135.125,0.0036306290178070738,0.0,0.0,110.0,0.0,0.0,0.0,0.0,0.0,0.0,0.0,0.0,0.0,0.0,0.0,0.0,11.0,12.0,13.0,14.0,43.47
2024-04-02 22:03:33,0.125,-5.9375,135.125,0.0036306290178070738,0.0,0.0,-1.0,0.0,0.0,0.0,0.0,0.0,0.0,0.0,0.0,0.0,0.0,0.0,0.0,11.0,12.0,13.0,14.0,43.47
2024-04-02 22:03:33,0.125,-5.9375,135.125,0.0036306290178070738,0.0,0.0,108.0,0.0,0.0,0.0,0.0,0.0,0.0,0.0,0.0,0.0,0.0,0.0,0.0,11.0,12.0,13.0,14.0,43.47
2024-04-02 22:03:33,0.125,-5.9375,135.125,0.0036306290178070738,0.0,0.0,-1.0,0.0,0.0,0.0,0.0,0.0,0.0,0.0,0.0,0.0,0.0,0.0,0.0,11.0,12.0,13.0,14.0,44.008
2024-04-02 22:03:33,0.125,-5.9375,135.125,0.0036306290178070738,0.0,0.0,-1.0,0.0,0.0,0.0,0.0,0.0,0.0,0.0,0.0,0.0,0.0,0.0,0.0,11.0,12.0,13.0,14.0,44.008
2024-04-02 22:03:33,0.125,-5.9375,135.125,0.0036306290178070738,0.0,0.0,106.0,0.0,0.0,0.0,0.0,0.0,0.0,0.0,0.0,0.0,0.0,0.0,0.0,11.0,12.0,13.0,14.0,43.47
2024-04-02 22:03:33,0.125,-5.9375,135.125,0.0036306290178070738,0.0,0.0,-1.0,0.0,0.0,0.0,0.0,0.0,0.0,0.0,0.0,0.0,0.0,0.0,0.0,11.0,12.0,13.0,14.0,44.008
2024-04-02 22:03:33,0.125,-5.9375,135.125,0.0036306290178070738,0.0,0.0,-1.0,0.0,0.0,0.0,0.0,0.0,0.0,0.0,0.0,0.0,0.0,0.0,0.0,11.0,12.0,13.0,14.0,44.008
2024-04-02 22:03:34,0.125,-5.9375,135.125,0.0036306290178070738,0.0,0.0,0.0,0.0,0.0,0.0,0.0,0.0,0.0,0.0,0.0,0.0,0.0,0.0,0.0,11.0,12.0,13.0,14.0,44.008
2024-04-02 22:03:34,0.125,-5.9375,135.125,0.0020661432481759836,0.0,0.0,-1.0,0.0,0.0,0.0,0.0,0.0,0.0,0.0,0.0,0.0,0.0,0.0,0.0,11.0,12.0,13.0,14.0,43.47
2024-04-02 22:03:34,0.125,-5.9375,135.125,0.0020661432481759836,0.0,0.0,-1.0,0.0,0.0,0.0,0.0,0.0,0.0,0.0,0.0,0.0,0.0,0.0,0.0,11.0,12.0,13.0,14.0,43.47
2024-04-02 22:03:34,0.125,-5.9375,135.125,0.0020661432481759836,0.0,0.0,107.0,0.0,0.0,0.0,0.0,0.0,0.0,0.0,0.0,0.0,0.0,0.0,0.0,11.0,12.0,13.0,14.0,44.008
2024-04-02 22:03:34,0.125,-5.9375,135.125,0.0020661432481759836,0.0,0.0,-1.0,0.0,0.0,0.0,0.0,0.0,0.0,0.0,0.0,0.0,0.0,0.0,0.0,11.0,12.0,13.0,14.0,42.932
2024-04-02 22:03:34,0.125,-5.9375,135.125,0.0020661432481759836,0.0,0.0,-1.0,0.0,0.0,0.0,0.0,0.0,0.0,0.0,0.0,0.0,0.0,0.0,0.0,11.0,12.0,13.0,14.0,43.47
2024-04-02 22:03:34,0.125,-5.9375,135.125,0.0020661432481759836,0.0,0.0,108.0,0.0,0.0,0.0,0.0,0.0,0.0,0.0,0.0,0.0,0.0,0.0,0.0,11.0,12.0,13.0,14.0,43.47
2024-04-02 22:03:34,0.125,-5.9375,135.125,0.0020661432481759836,0.0,0.0,-1.0,0.0,0.0,0.0,0.0,0.0,0.0,0.0,0.0,0.0,0.0,0.0,0.0,11.0,12.0,13.0,14.0,43.47
2024-04-02 22:03:34,0.125,-5.9375,135.125,0.0020661432481759836,0.0,0.0,-1.0,0.0,0.0,0.0,0.0,0.0,0.0,0.0,0.0,0.0,0.0,0.0,0.0,11.0,12.0,13.0,14.0,43.47
2024-04-02 22:03:34,0.125,-5.9375,135.125,0.0020661432481759836,0.0,0.0,-1.0,0.0,0.0,0.0,0.0,0.0,0.0,0.0,0.0,0.0,0.0,0.0,0.0,11.0,12.0,13.0,14.0,44.008
2024-04-02 22:03:34,0.125,-5.9375,135.125,0.0020661432481759836,0.0,0.0,-1.0,0.0,0.0,0.0,0.0,0.0,0.0,0.0,0.0,0.0,0.0,0.0,0.0,11.0,12.0,13.0,14.0,44.008
2024-04-02 22:03:34,0.125,-5.9375,135.125,0.0020661432481759836,0.0,0.0,-1.0,0.0,0.0,0.0,0.0,0.0,0.0,0.0,0.0,0.0,0.0,0.0,0.0,11.0,12.0,13.0,14.0,43.47
2024-04-02 22:03:34,0.125,-5.9375,135.125,0.0020661432481759836,0.0,0.0,-1.0,0.0,0.0,0.0,0.0,0.0,0.0,0.0,0.0,0.0,0.0,0.0,0.0,11.0,12.0,13.0,14.0,42.932
2024-04-02 22:03:34,0.125,-5.9375,135.125,0.0020661432481759836,0.0,0.0,-1.0,0.0,0.0,0.0,0.0,0.0,0.0,0.0,0.0,0.0,0.0,0.0,0.0,11.0,12.0,13.0,14.0,43.47
2024-04-02 22:03:35,0.125,-5.9375,135.125,0.00309584108683395,0.0,0.0,-1.0,0.0,0.0,0.0,0.0,0.0,0.0,0.0,0.0,0.0,0.0,0.0,0.0,11.0,12.0,13.0,14.0,43.47
2024-04-02 22:03:35,0.125,-5.9375,135.125,0.00309584108683395,0.0,0.0,-1.0,0.0,0.0,0.0,0.0,0.0,0.0,0.0,0.0,0.0,0.0,0.0,0.0,11.0,12.0,13.0,14.0,42.932
2024-04-02 22:03:35,0.125,-5.9375,135.125,0.00309584108683395,0.0,0.0,-1.0,0.0,0.0,0.0,0.0,0.0,0.0,0.0,0.0,0.0,0.0,0.0,0.0,11.0,12.0,13.0,14.0,43.47
2024-04-02 22:03:35,0.125,-5.9375,135.125,0.00309584108683395,0.0,0.0,-1.0,0.0,0.0,0.0,0.0,0.0,0.0,0.0,0.0,0.0,0.0,0.0,0.0,11.0,12.0,13.0,14.0,44.008
2024-04-02 22:03:35,0.125,-5.9375,135.125,0.00309584108683395,0.0,0.0,-1.0,0.0,0.0,0.0,0.0,0.0,0.0,0.0,0.0,0.0,0.0,0.0,0.0,11.0,12.0,13.0,14.0,42.932
2024-04-02 22:03:35,0.125,-5.9375,135.125,0.00309584108683395,0.0,0.0,-1.0,0.0,0.0,0.0,0.0,0.0,0.0,0.0,0.0,0.0,0.0,0.0,0.0,11.0,12.0,13.0,14.0,44.008
2024-04-02 22:03:35,0.125,-5.9375,135.125,0.00309584108683395,0.0,0.0,-1.0,0.0,0.0,0.0,0.0,0.0,0.0,0.0,0.0,0.0,0.0,0.0,0.0,11.0,12.0,13.0,14.0,43.47
2024-04-02 22:03:35,0.125,-5.9375,135.125,0.00309584108683395,0.0,0.0,-1.0,0.0,0.0,0.0,0.0,0.0,0.0,0.0,0.0,0.0,0.0,0.0,0.0,11.0,12.0,13.0,14.0,43.47
2024-04-02 22:03:35,0.125,-5.9375,135.125,0.00309584108683395,0.0,0.0,-1.0,0.0,0.0,0.0,0.0,0.0,0.0,0.0,0.0,0.0,0.0,0.0,0.0,11.0,12.0,13.0,14.0,43.47
2024-04-02 22:03:35,0.125,-5.9375,135.125,0.00309584108683395,0.0,0.0,-1.0,0.0,0.0,0.0,0.0,0.0,0.0,0.0,0.0,0.0,0.0,0.0,0.0,11.0,12.0,13.0,14.0,44.008
2024-04-02 22:03:35,0.125,-5.9375,135.125,0.00309584108683395,0.0,0.0,-1.0,0.0,0.0,0.0,0.0,0.0,0.0,0.0,0.0,0.0,0.0,0.0,0.0,11.0,12.0,13.0,14.0,42.932
2024-04-02 22:03:35,0.125,-5.9375,135.125,0.00309584108683395,0.0,0.0,-1.0,0.0,0.0,0.0,0.0,0.0,0.0,0.0,0.0,0.0,0.0,0.0,0.0,11.0,12.0,13.0,14.0,44.008
2024-04-02 22:03:35,0.125,-5.9375,135.125,0.00309584108683395,0.0,0.0,-1.0,0.0,0.0,0.0,0.0,0.0,0.0,0.0,0.0,0.0,0.0,0.0,0.0,11.0,12.0,13.0,14.0,43.47
2024-04-02 22:03:35,0.125,-5.9375,135.125,0.00309584108683395,0.0,0.0,-1.0,0.0,0.0,0.0,0.0,0.0,0.0,0.0,0.0,0.0,0.0,0.0,0.0,11.0,12.0,13.0,14.0,43.47
2024-04-02 22:03:35,0.125,-5.9375,135.125,0.00309584108683395,0.0,0.0,-1.0,0.0,0.0,0.0,0.0,0.0,0.0,0.0,0.0,0.0,0.0,0.0,0.0,11.0,12.0,13.0,14.0,44.008
2024-04-02 22:03:36,0.125,-5.9375,135.125,0.0019150080713740887,0.0,0.0,-1.0,0.0,0.0,0.0,0.0,0.0,0.0,0.0,0.0,0.0,0.0,0.0,0.0,11.0,12.0,13.0,14.0,44.008
2024-04-02 22:03:36,0.125,-5.9375,135.125,0.0019150080713740887,0.0,0.0,-1.0,0.0,0.0,0.0,0.0,0.0,0.0,0.0,0.0,0.0,0.0,0.0,0.0,11.0,12.0,13.0,14.0,44.008
2024-04-02 22:03:36,0.125,-5.9375,135.125,0.0019150080713740887,0.0,0.0,-1.0,0.0,0.0,0.0,0.0,0.0,0.0,0.0,0.0,0.0,0.0,0.0,0.0,11.0,12.0,13.0,14.0,43.47
2024-04-02 22:03:36,0.125,-5.9375,135.125,0.0019150080713740887,0.0,0.0,106.0,0.0,0.0,0.0,0.0,0.0,0.0,0.0,0.0,0.0,0.0,0.0,0.0,11.0,12.0,13.0,14.0,44.008
2024-04-02 22:03:36,0.125,-5.9375,135.125,0.0019150080713740887,0.0,0.0,-1.0,0.0,0.0,0.0,0.0,0.0,0.0,0.0,0.0,0.0,0.0,0.0,0.0,11.0,12.0,13.0,14.0,44.008
2024-04-02 22:03:36,0.125,-5.9375,135.125,0.0019150080713740887,0.0,0.0,-1.0,0.0,0.0,0.0,0.0,0.0,0.0,0.0,0.0,0.0,0.0,0.0,0.0,11.0,12.0,13.0,14.0,44.008
2024-04-02 22:03:36,0.125,-5.9375,135.125,0.0019150080713740887,0.0,0.0,107.0,0.0,0.0,0.0,0.0,0.0,0.0,0.0,0.0,0.0,0.0,0.0,0.0,11.0,12.0,13.0,14.0,44.008
2024-04-02 22:03:36,0.125,-5.9375,135.125,0.0019150080713740887,0.0,0.0,-1.0,0.0,0.0,0.0,0.0,0.0,0.0,0.0,0.0,0.0,0.0,0.0,0.0,11.0,12.0,13.0,14.0,43.47
2024-04-02 22:03:36,0.125,-5.9375,135.125,0.0019150080713740887,0.0,0.0,-1.0,0.0,0.0,0.0,0.0,0.0,0.0,0.0,0.0,0.0,0.0,0.0,0.0,11.0,12.0,13.0,14.0,44.008
2024-04-02 22:03:36,0.125,-5.9375,135.125,0.0019150080713740887,0.0,0.0,109.0,0.0,0.0,0.0,0.0,0.0,0.0,0.0,0.0,0.0,0.0,0.0,0.0,11.0,12.0,13.0,14.0,42.932
2024-04-02 22:03:36,0.125,-5.9375,135.125,0.0019150080713740887,0.0,0.0,-1.0,0.0,0.0,0.0,0.0,0.0,0.0,0.0,0.0,0.0,0.0,0.0,0.0,11.0,12.0,13.0,14.0,44.008
2024-04-02 22:03:36,0.125,-5.9375,135.125,0.0019150080713740887,0.0,0.0,-1.0,0.0,0.0,0.0,0.0,0.0,0.0,0.0,0.0,0.0,0.0,0.0,0.0,11.0,12.0,13.0,14.0,43.47
2024-04-02 22:03:36,0.125,-5.9375,135.125,0.0019150080713740887,0.0,0.0,109.0,0.0,0.0,0.0,0.0,0.0,0.0,0.0,0.0,0.0,0.0,0.0,0.0,11.0,12.0,13.0,14.0,43.47
2024-04-02 22:03:37,0.125,-5.9375,135.125,0.001732544299315505,0.0,0.0,-1.0,0.0,0.0,0.0,0.0,0.0,0.0,0.0,0.0,0.0,0.0,0.0,0.0,11.0,12.0,13.0,14.0,44.008
2024-04-02 22:03:37,0.125,-5.9375,135.125,0.001732544299315505,0.0,0.0,107.0,0.0,0.0,0.0,0.0,0.0,0.0,0.0,0.0,0.0,0.0,0.0,0.0,11.0,12.0,13.0,14.0,44.008
2024-04-02 22:03:37,0.125,-5.9375,135.125,0.001732544299315505,0.0,0.0,-1.0,0.0,0.0,0.0,0.0,0.0,0.0,0.0,0.0,0.0,0.0,0.0,0.0,11.0,12.0,13.0,14.0,43.47
2024-04-02 22:03:37,0.125,-5.9375,135.125,0.001732544299315505,0.0,0.0,-1.0,0.0,0.0,0.0,0.0,0.0,0.0,0.0,0.0,0.0,0.0,0.0,0.0,11.0,12.0,13.0,14.0,44.008
2024-04-02 22:03:37,0.125,-5.9375,135.125,0.001732544299315505,0.0,0.0,108.0,0.0,0.0,0.0,0.0,0.0,0.0,0.0,0.0,0.0,0.0,0.0,0.0,11.0,12.0,13.0,14.0,44.008
2024-04-02 22:03:37,0.125,-5.9375,135.125,0.001732544299315505,0.0,0.0,-1.0,0.0,0.0,0.0,0.0,0.0,0.0,0.0,0.0,0.0,0.0,0.0,0.0,11.0,12.0,13.0,14.0,44.008
2024-04-02 22:03:37,0.125,-5.9375,135.125,0.001732544299315505,0.0,0.0,-1.0,0.0,0.0,0.0,0.0,0.0,0.0,0.0,0.0,0.0,0.0,0.0,0.0,11.0,12.0,13.0,14.0,43.47
2024-04-02 22:03:37,0.125,-5.9375,135.125,0.001732544299315505,0.0,0.0,108.0,0.0,0.0,0.0,0.0,0.0,0.0,0.0,0.0,0.0,0.0,0.0,0.0,11.0,12.0,13.0,14.0,43.47
2024-04-02 22:03:37,0.125,-5.9375,135.125,0.001732544299315505,0.0,0.0,-1.0,0.0,0.0,0.0,0.0,0.0,0.0,0.0,0.0,0.0,0.0,0.0,0.0,11.0,12.0,13.0,14.0,43.47
2024-04-02 22:03:37,0.125,-5.9375,135.125,0.001732544299315505,0.0,0.0,-1.0,0.0,0.0,0.0,0.0,0.0,0.0,0.0,0.0,0.0,0.0,0.0,0.0,11.0,12.0,13.0,14.0,44.008
2024-04-02 22:03:37,0.125,-5.9375,135.125,0.001732544299315505,0.0,0.0,109.0,0.0,0.0,0.0,0.0,0.0,0.0,0.0,0.0,0.0,0.0,0.0,0.0,11.0,12.0,13.0,14.0,44.008
2024-04-02 22:03:37,0.125,-5.9375,135.125,0.001732544299315505,0.0,0.0,-1.0,0.0,0.0,0.0,0.0,0.0,0.0,0.0,0.0,0.0,0.0,0.0,0.0,11.0,12.0,13.0,14.0,43.47
2024-04-02 22:03:37,0.125,-13.9375,135.125,0.001732544299315505,0.0,0.0,-1.0,0.0,0.0,0.0,0.0,0.0,0.0,0.0,0.0,0.0,0.0,0.0,0.0,11.0,12.0,13.0,14.0,44.008
2024-04-02 22:03:37,0.125,-5.9375,135.125,0.001732544299315505,0.0,0.0,0.0,0.0,0.0,0.0,0.0,0.0,0.0,0.0,0.0,0.0,0.0,0.0,0.0,11.0,12.0,13.0,14.0,43.47
2024-04-02 22:03:37,0.125,-5.9375,135.125,0.0015190268424754335,0.0,0.0,-1.0,0.0,0.0,0.0,0.0,0.0,0.0,0.0,0.0,0.0,0.0,0.0,0.0,11.0,12.0,13.0,14.0,44.008
2024-04-02 22:03:38,0.125,-5.9375,135.125,0.0015190268424754335,0.0,0.0,-1.0,0.0,0.0,0.0,0.0,0.0,0.0,0.0,0.0,0.0,0.0,0.0,0.0,11.0,12.0,13.0,14.0,43.47
2024-04-02 22:03:38,0.125,-5.9375,135.125,0.0015190268424754335,0.0,0.0,110.0,0.0,0.0,0.0,0.0,0.0,0.0,0.0,0.0,0.0,0.0,0.0,0.0,11.0,12.0,13.0,14.0,43.47
2024-04-02 22:03:38,0.125,-5.9375,135.125,0.0015190268424754335,0.0,0.0,-1.0,0.0,0.0,0.0,0.0,0.0,0.0,0.0,0.0,0.0,0.0,0.0,0.0,11.0,12.0,13.0,14.0,43.47
2024-04-02 22:03:38,0.125,-5.9375,135.125,0.0015190268424754335,0.0,0.0,-1.0,0.0,0.0,0.0,0.0,0.0,0.0,0.0,0.0,0.0,0.0,0.0,0.0,11.0,12.0,13.0,14.0,43.47
2024-04-02 22:03:38,0.125,-5.9375,135.125,0.0015190268424754335,0.0,0.0,108.0,0.0,0.0,0.0,0.0,0.0,0.0,0.0,0.0,0.0,0.0,0.0,0.0,11.0,12.0,13.0,14.0,44.008
2024-04-02 22:03:38,0.125,-5.9375,135.125,0.0015190268424754335,0.0,0.0,-1.0,0.0,0.0,0.0,0.0,0.0,0.0,0.0,0.0,0.0,0.0,0.0,0.0,11.0,12.0,13.0,14.0,44.008
2024-04-02 22:03:38,0.125,-5.9375,135.125,0.0015190268424754335,0.0,0.0,-1.0,0.0,0.0,0.0,0.0,0.0,0.0,0.0,0.0,0.0,0.0,0.0,0.0,11.0,12.0,13.0,14.0,43.47
2024-04-02 22:03:38,0.125,-5.9375,135.125,0.0015190268424754335,0.0,0.0,108.0,0.0,0.0,0.0,0.0,0.0,0.0,0.0,0.0,0.0,0.0,0.0,0.0,11.0,12.0,13.0,14.0,44.008
2024-04-02 22:03:38,0.125,-5.9375,135.125,0.0015190268424754335,0.0,0.0,-1.0,0.0,0.0,0.0,0.0,0.0,0.0,0.0,0.0,0.0,0.0,0.0,0.0,11.0,12.0,13.0,14.0,43.47
2024-04-02 22:03:38,0.125,-5.9375,135.125,0.0015190268424754335,0.0,0.0,-1.0,0.0,0.0,0.0,0.0,0.0,0.0,0.0,0.0,0.0,0.0,0.0,0.0,11.0,12.0,13.0,14.0,44.008
2024-04-02 22:03:38,0.125,-5.9375,135.125,0.0015190268424754335,0.0,0.0,104.0,0.0,0.0,0.0,0.0,0.0,0.0,0.0,0.0,0.0,0.0,0.0,0.0,11.0,12.0,13.0,14.0,43.47
2024-04-02 22:03:38,0.125,-5.9375,135.125,0.0015190268424754335,0.0,0.0,-1.0,0.0,0.0,0.0,0.0,0.0,0.0,0.0,0.0,0.0,0.0,0.0,0.0,11.0,12.0,13.0,14.0,44.008
2024-04-02 22:03:38,0.125,-5.9375,135.125,0.0015190268424754335,0.0,0.0,-1.0,0.0,0.0,0.0,0.0,0.0,0.0,0.0,0.0,0.0,0.0,0.0,0.0,11.0,12.0,13.0,14.0,44.008
2024-04-02 22:03:38,0.125,-5.9375,135.125,0.0015190268424754335,0.0,0.0,107.0,0.0,0.0,0.0,0.0,0.0,0.0,0.0,0.0,0.0,0.0,0.0,0.0,11.0,12.0,13.0,14.0,44.008
2024-04-02 22:03:38,0.125,-5.9375,135.125,0.0015190268424754335,0.0,0.0,-1.0,0.0,0.0,0.0,0.0,0.0,0.0,0.0,0.0,0.0,0.0,0.0,0.0,11.0,12.0,13.0,14.0,44.008
2024-04-02 22:03:39,0.125,-5.9375,135.125,0.0015190268424754335,0.0,0.0,-1.0,0.0,0.0,0.0,0.0,0.0,0.0,0.0,0.0,0.0,0.0,0.0,0.0,11.0,12.0,13.0,14.0,44.008
2024-04-02 22:03:39,0.125,-5.9375,135.125,0.0017654766626752276,0.0,0.0,106.0,0.0,0.0,0.0,0.0,0.0,0.0,0.0,0.0,0.0,0.0,0.0,0.0,11.0,12.0,13.0,14.0,44.008
2024-04-02 22:03:39,0.125,-5.9375,135.125,0.0017654766626752276,0.0,0.0,-1.0,0.0,0.0,0.0,0.0,0.0,0.0,0.0,0.0,0.0,0.0,0.0,0.0,11.0,12.0,13.0,14.0,44.008
2024-04-02 22:03:39,0.125,-5.9375,135.125,0.0017654766626752276,0.0,0.0,-1.0,0.0,0.0,0.0,0.0,0.0,0.0,0.0,0.0,0.0,0.0,0.0,0.0,11.0,12.0,13.0,14.0,44.008
2024-04-02 22:03:39,0.125,-5.9375,135.125,0.0017654766626752276,0.0,0.0,0.0,0.0,0.0,0.0,0.0,0.0,0.0,0.0,0.0,0.0,0.0,0.0,0.0,11.0,12.0,13.0,14.0,43.47
2024-04-02 22:03:39,0.125,-5.9375,135.125,0.0017654766626752276,0.0,0.0,-1.0,0.0,0.0,0.0,0.0,0.0,0.0,0.0,0.0,0.0,0.0,0.0,0.0,11.0,12.0,13.0,14.0,44.008
2024-04-02 22:03:39,0.125,-5.9375,135.125,0.0017654766626752276,0.0,0.0,-1.0,0.0,0.0,0.0,0.0,0.0,0.0,0.0,0.0,0.0,0.0,0.0,0.0,11.0,12.0,13.0,14.0,44.008
2024-04-02 22:03:39,0.125,-5.9375,135.125,0.0017654766626752276,0.0,0.0,0.0,0.0,0.0,0.0,0.0,0.0,0.0,0.0,0.0,0.0,0.0,0.0,0.0,11.0,12.0,13.0,14.0,44.008
2024-04-02 22:03:39,0.125,-5.9375,135.125,0.0017654766626752276,0.0,0.0,-1.0,0.0,0.0,0.0,0.0,0.0,0.0,0.0,0.0,0.0,0.0,0.0,0.0,11.0,12.0,13.0,14.0,44.008
2024-04-02 22:03:39,0.125,-5.9375,-4.4375,0.0017654766626752276,0.0,0.0,-1.0,0.0,0.0,0.0,0.0,0.0,0.0,0.0,0.0,0.0,0.0,0.0,0.0,11.0,12.0,13.0,14.0,44.008
2024-04-02 22:03:39,0.125,-5.9375,135.125,0.0017654766626752276,0.0,0.0,110.0,0.0,0.0,0.0,0.0,0.0,0.0,0.0,0.0,0.0,0.0,0.0,0.0,11.0,12.0,13.0,14.0,44.008
2024-04-02 22:03:39,0.125,-5.9375,135.125,0.0017654766626752276,0.0,0.0,-1.0,0.0,0.0,0.0,0.0,0.0,0.0,0.0,0.0,0.0,0.0,0.0,0.0,11.0,12.0,13.0,14.0,44.008
2024-04-02 22:03:39,0.125,-5.9375,135.125,0.0017654766626752276,0.0,0.0,-1.0,0.0,0.0,0.0,0.0,0.0,0.0,0.0,0.0,0.0,0.0,0.0,0.0,11.0,12.0,13.0,14.0,44.008
2024-04-02 22:03:39,0.125,-5.9375,135.125,0.0017654766626752276,0.0,0.0,109.0,0.0,0.0,0.0,0.0,0.0,0.0,0.0,0.0,0.0,0.0,0.0,0.0,11.0,12.0,13.0,14.0,44.008
2024-04-02 22:03:39,0.125,-5.9375,135.125,0.0017654766626752276,0.0,0.0,-1.0,0.0,0.0,0.0,0.0,0.0,0.0,0.0,0.0,0.0,0.0,0.0,0.0,11.0,12.0,13.0,14.0,44.008
2024-04-02 22:03:40,0.125,-5.9375,135.125,0.0017654766626752276,0.0,0.0,-1.0,0.0,0.0,0.0,0.0,0.0,0.0,0.0,0.0,0.0,0.0,0.0,0.0,11.0,12.0,13.0,14.0,43.47
2024-04-02 22:03:40,0.125,-5.9375,135.125,0.002463731061103757,0.0,0.0,107.0,0.0,0.0,0.0,0.0,0.0,0.0,0.0,0.0,0.0,0.0,0.0,0.0,11.0,12.0,13.0,14.0,44.008
2024-04-02 22:03:40,0.125,-5.9375,135.125,0.002463731061103757,0.0,0.0,-1.0,0.0,0.0,0.0,0.0,0.0,0.0,0.0,0.0,0.0,0.0,0.0,0.0,11.0,12.0,13.0,14.0,44.008
2024-04-02 22:03:40,0.125,-5.9375,135.125,0.002463731061103757,0.0,0.0,-1.0,0.0,0.0,0.0,0.0,0.0,0.0,0.0,0.0,0.0,0.0,0.0,0.0,11.0,12.0,13.0,14.0,44.008
2024-04-02 22:03:40,0.125,-5.9375,135.125,0.002463731061103757,0.0,0.0,0.0,0.0,0.0,0.0,0.0,0.0,0.0,0.0,0.0,0.0,0.0,0.0,0.0,11.0,12.0,13.0,14.0,43.47
2024-04-02 22:03:40,0.125,-5.9375,135.125,0.002463731061103757,0.0,0.0,-1.0,0.0,0.0,0.0,0.0,0.0,0.0,0.0,0.0,0.0,0.0,0.0,0.0,11.0,12.0,13.0,14.0,44.546
2024-04-02 22:03:40,0.125,-5.9375,135.125,0.002463731061103757,0.0,0.0,-1.0,0.0,0.0,0.0,0.0,0.0,0.0,0.0,0.0,0.0,0.0,0.0,0.0,11.0,12.0,13.0,14.0,44.546
2024-04-02 22:03:40,0.125,-5.9375,135.125,0.002463731061103757,0.0,0.0,107.0,0.0,0.0,0.0,0.0,0.0,0.0,0.0,0.0,0.0,0.0,0.0,0.0,11.0,12.0,13.0,14.0,44.008
2024-04-02 22:03:40,0.125,-5.9375,135.125,0.002463731061103757,0.0,0.0,-1.0,0.0,0.0,0.0,0.0,0.0,0.0,0.0,0.0,0.0,0.0,0.0,0.0,11.0,12.0,13.0,14.0,44.008
2024-04-02 22:03:40,0.125,-5.9375,135.125,0.002463731061103757,0.0,0.0,-1.0,0.0,0.0,0.0,0.0,0.0,0.0,0.0,0.0,0.0,0.0,0.0,0.0,11.0,12.0,13.0,14.0,44.008
2024-04-02 22:03:40,0.125,-5.9375,135.125,0.002463731061103757,0.0,0.0,108.0,0.0,0.0,0.0,0.0,0.0,0.0,0.0,0.0,0.0,0.0,0.0,0.0,11.0,12.0,13.0,14.0,44.008
2024-04-02 22:03:40,0.125,-5.9375,135.125,0.002463731061103757,0.0,0.0,-1.0,0.0,0.0,0.0,0.0,0.0,0.0,0.0,0.0,1.0,1.0,1.0,1.0,11.0,12.0,13.0,14.0,44.008
2024-04-02 22:03:40,0.125,-5.9375,135.125,0.002463731061103757,0.0,0.0,-1.0,0.0,0.0,0.0,0.0,0.0,0.0,0.0,0.0,1.0,1.0,1.0,1.0,11.0,12.0,13.0,14.0,44.546
2024-04-02 22:03:40,0.125,-5.9375,135.125,0.002463731061103757,0.0,0.0,-1.0,0.0,0.0,0.0,0.0,0.0,0.0,0.0,0.0,1.0,1.0,1.0,1.0,11.0,12.0,13.0,14.0,44.546
2024-04-02 22:03:40,0.125,-5.9375,135.125,0.002463731061103757,0.0,0.0,-1.0,0.0,0.0,0.0,0.0,0.0,0.0,0.0,0.0,1.0,1.0,1.0,1.0,11.0,12.0,13.0,14.0,44.008
2024-04-02 22:03:41,0.125,-5.9375,135.125,0.002463731061103757,0.0,0.0,-1.0,0.0,0.0,0.0,0.0,0.0,0.0,0.0,0.0,1.0,1.0,1.0,1.0,11.0,12.0,13.0,14.0,44.546
2024-04-02 22:03:41,0.125,-5.9375,135.125,0.0007370272442571822,0.0,0.0,80.0,0.0,0.0,0.0,0.0,0.0,0.0,0.0,0.0,1.0,1.0,1.0,1.0,11.0,12.0,13.0,14.0,44.008
2024-04-02 22:03:41,0.125,-5.9375,135.125,0.0007370272442571822,0.0,0.0,-1.0,0.0,0.0,0.0,0.0,0.0,0.0,0.0,0.0,1.0,1.0,1.0,1.0,11.0,12.0,13.0,14.0,44.008
2024-04-02 22:03:41,0.125,-5.9375,135.125,0.0007370272442571822,0.0,0.0,-1.0,0.0,0.0,0.0,0.0,0.0,0.0,0.0,0.0,1.0,1.0,1.0,1.0,11.0,12.0,13.0,14.0,44.546
2024-04-02 22:03:41,0.125,-5.9375,135.125,0.0007370272442571822,0.0,0.0,-1.0,0.0,0.0,0.0,0.0,0.0,0.0,0.0,0.0,1.0,1.0,1.0,1.0,11.0,12.0,13.0,14.0,45.084
2024-04-02 22:03:41,0.125,-5.9375,135.125,0.0007370272442571822,0.0,0.0,-1.0,0.0,0.0,0.0,0.0,0.0,0.0,0.0,0.0,1.0,1.0,1.0,1.0,11.0,12.0,13.0,14.0,44.008
2024-04-02 22:03:41,0.125,-5.9375,135.125,0.0007370272442571822,0.0,0.0,-1.0,0.0,0.0,0.0,0.0,0.0,0.0,0.0,0.0,1.0,1.0,1.0,1.0,11.0,12.0,13.0,14.0,44.008
2024-04-02 22:03:41,0.125,-5.9375,135.125,0.0007370272442571822,0.0,0.0,-1.0,0.0,0.0,0.0,0.0,0.0,0.0,0.0,0.0,1.0,1.0,1.0,1.0,11.0,12.0,13.0,14.0,45.084
2024-04-02 22:03:41,0.125,-5.9375,135.125,0.0007370272442571822,0.0,0.0,-1.0,0.0,0.0,0.0,0.0,0.0,0.0,0.0,0.0,1.0,1.0,1.0,1.0,11.0,12.0,13.0,14.0,44.546
2024-04-02 22:03:41,0.125,-5.9375,135.125,0.0007370272442571822,0.0,0.0,71.0,0.0,0.0,0.0,0.0,0.0,0.0,0.0,0.0,1.0,1.0,1.0,1.0,11.0,12.0,13.0,14.0,44.008
2024-04-02 22:03:41,0.125,-5.9375,135.125,0.0007370272442571822,0.0,0.0,-1.0,0.0,0.0,0.0,0.0,0.0,0.0,0.0,0.0,1.0,1.0,1.0,1.0,11.0,12.0,13.0,14.0,44.008
2024-04-02 22:03:41,0.125,-5.9375,135.125,0.0007370272442571822,0.0,0.0,75.0,0.0,0.0,0.0,0.0,0.0,0.0,0.0,0.0,1.0,1.0,1.0,1.0,11.0,12.0,13.0,14.0,44.008
2024-04-02 22:03:41,0.125,-5.9375,135.125,0.0007370272442571822,0.0,0.0,-1.0,0.0,0.0,0.0,0.0,0.0,0.0,0.0,0.0,1.0,1.0,1.0,1.0,11.0,12.0,13.0,14.0,44.008
2024-04-02 22:03:42,0.125,-5.9375,135.125,0.0007370272442571822,0.0,0.0,-1.0,0.0,0.0,0.0,0.0,0.0,0.0,0.0,0.0,1.0,1.0,1.0,1.0,11.0,12.0,13.0,14.0,44.008
2024-04-02 22:03:42,0.125,-5.9375,135.125,0.00303577177073407,0.0,0.0,-1.0,0.0,0.0,0.0,0.0,0.0,0.0,0.0,0.0,1.0,1.0,1.0,1.0,11.0,12.0,13.0,14.0,44.546
2024-04-02 22:03:42,0.125,-5.9375,135.125,0.00303577177073407,0.0,0.0,-1.0,0.0,0.0,0.0,0.0,0.0,0.0,0.0,0.0,1.0,1.0,1.0,1.0,11.0,12.0,13.0,14.0,44.008
2024-04-02 22:03:42,0.125,-5.9375,135.125,0.00303577177073407,0.0,0.0,77.0,0.0,0.0,0.0,0.0,0.0,0.0,0.0,0.0,1.0,1.0,1.0,1.0,11.0,12.0,13.0,14.0,44.008
2024-04-02 22:03:42,0.125,-5.9375,135.125,0.00303577177073407,0.0,0.0,-1.0,0.0,0.0,0.0,0.0,0.0,0.0,0.0,0.0,1.0,1.0,1.0,1.0,11.0,12.0,13.0,14.0,44.546
2024-04-02 22:03:42,0.125,-5.9375,135.125,0.00303577177073407,0.0,0.0,-1.0,0.0,0.0,0.0,0.0,0.0,0.0,0.0,0.0,1.0,1.0,1.0,1.0,11.0,12.0,13.0,14.0,44.008
2024-04-02 22:03:42,0.125,-5.9375,135.125,0.00303577177073407,0.0,0.0,72.0,0.0,0.0,0.0,0.0,0.0,0.0,0.0,0.0,1.0,1.0,1.0,1.0,11.0,12.0,13.0,14.0,44.008
2024-04-02 22:03:42,0.125,-5.9375,135.125,0.00303577177073407,0.0,0.0,-1.0,0.0,0.0,0.0,0.0,0.0,0.0,0.0,0.0,1.0,1.0,1.0,1.0,11.0,12.0,13.0,14.0,44.546
2024-04-02 22:03:42,0.125,-5.9375,135.125,0.00303577177073407,0.0,0.0,-1.0,0.0,0.0,0.0,0.0,0.0,0.0,0.0,0.0,1.0,1.0,1.0,1.0,11.0,12.0,13.0,14.0,44.008
2024-04-02 22:03:42,0.125,-5.9375,135.125,0.00303577177073407,0.0,0.0,73.0,0.0,0.0,0.0,0.0,0.0,0.0,0.0,0.0,1.0,1.0,1.0,1.0,11.0,12.0,13.0,14.0,44.546
2024-04-02 22:03:42,0.125,-5.9375,135.125,0.00303577177073407,0.0,0.0,-1.0,0.0,0.0,0.0,0.0,0.0,0.0,0.0,0.0,1.0,1.0,1.0,1.0,11.0,12.0,13.0,14.0,44.546
2024-04-02 22:03:42,0.125,-5.9375,135.125,0.00303577177073407,0.0,0.0,-1.0,0.0,0.0,0.0,0.0,0.0,0.0,0.0,0.0,1.0,1.0,1.0,1.0,11.0,12.0,13.0,14.0,44.546
2024-04-02 22:03:42,0.125,-5.9375,135.125,0.00303577177073407,0.0,0.0,72.0,0.0,0.0,0.0,0.0,0.0,0.0,0.0,0.0,1.0,1.0,1.0,1.0,11.0,12.0,13.0,14.0,44.546
2024-04-02 22:03:42,0.125,-5.9375,135.125,0.00303577177073407,0.0,0.0,-1.0,0.0,0.0,0.0,0.0,0.0,0.0,0.0,0.0,1.0,1.0,1.0,1.0,11.0,12.0,13.0,14.0,44.008
2024-04-02 22:03:43,0.125,-5.9375,135.125,0.00303577177073407,0.0,0.0,-1.0,0.0,0.0,0.0,0.0,0.0,0.0,0.0,0.0,1.0,1.0,1.0,1.0,11.0,12.0,13.0,14.0,45.084
2024-04-02 22:03:43,0.125,-5.9375,135.125,0.00303577177073407,0.0,0.0,73.0,0.0,0.0,0.0,0.0,0.0,0.0,0.0,0.0,1.0,1.0,1.0,1.0,11.0,12.0,13.0,14.0,45.084
2024-04-02 22:03:43,0.125,-5.9375,135.125,0.003852813523244669,0.0,0.0,-1.0,0.0,0.0,0.0,0.0,0.0,0.0,0.0,0.0,1.0,1.0,1.0,1.0,11.0,12.0,13.0,14.0,45.084
2024-04-02 22:03:43,0.125,-5.9375,135.125,0.003852813523244669,0.0,0.0,73.0,0.0,0.0,0.0,0.0,0.0,0.0,0.0,0.0,1.0,1.0,1.0,1.0,11.0,12.0,13.0,14.0,45.084
2024-04-02 22:03:43,0.125,-5.9375,135.125,0.003852813523244669,0.0,0.0,-1.0,0.0,0.0,0.0,0.0,0.0,0.0,0.0,0.0,1.0,1.0,1.0,1.0,11.0,12.0,13.0,14.0,44.546
2024-04-02 22:03:43,0.125,-5.9375,135.125,0.003852813523244669,0.0,0.0,-1.0,0.0,0.0,0.0,0.0,0.0,0.0,0.0,0.0,1.0,1.0,1.0,1.0,11.0,12.0,13.0,14.0,44.546
2024-04-02 22:03:43,0.125,-5.9375,135.125,0.003852813523244669,0.0,0.0,73.0,0.0,0.0,0.0,0.0,0.0,0.0,0.0,0.0,1.0,1.0,1.0,1.0,11.0,12.0,13.0,14.0,45.084
2024-04-02 22:03:43,0.125,-5.9375,135.125,0.003852813523244669,0.0,0.0,-1.0,0.0,0.0,0.0,0.0,0.0,0.0,0.0,0.0,1.0,1.0,1.0,1.0,11.0,12.0,13.0,14.0,45.084
2024-04-02 22:03:43,0.125,-5.9375,135.125,0.003852813523244669,0.0,0.0,-1.0,0.0,0.0,0.0,0.0,0.0,0.0,0.0,0.0,1.0,1.0,1.0,1.0,11.0,12.0,13.0,14.0,44.546
2024-04-02 22:03:43,0.125,-5.9375,135.125,0.003852813523244669,0.0,0.0,72.0,0.0,0.0,0.0,0.0,0.0,0.0,0.0,0.0,1.0,1.0,1.0,1.0,11.0,12.0,13.0,14.0,45.084
2024-04-02 22:03:43,0.125,-5.9375,135.125,0.003852813523244669,0.0,0.0,-1.0,0.0,0.0,0.0,0.0,0.0,0.0,0.0,0.0,1.0,1.0,1.0,1.0,11.0,12.0,13.0,14.0,45.084
2024-04-02 22:03:43,0.125,-5.9375,135.125,0.003852813523244669,0.0,0.0,73.0,0.0,0.0,0.0,0.0,0.0,0.0,0.0,0.0,1.0,1.0,1.0,1.0,11.0,12.0,13.0,14.0,44.546
2024-04-02 22:03:43,0.125,-5.9375,135.125,0.003852813523244669,0.0,0.0,-1.0,0.0,0.0,0.0,0.0,0.0,0.0,0.0,0.0,1.0,1.0,1.0,1.0,11.0,12.0,13.0,14.0,45.084
2024-04-02 22:03:44,0.125,-5.9375,135.125,0.003852813523244669,0.0,0.0,-1.0,0.0,0.0,0.0,0.0,0.0,0.0,0.0,0.0,1.0,1.0,1.0,1.0,11.0,12.0,13.0,14.0,45.084
2024-04-02 22:03:44,0.125,-5.9375,135.125,0.003852813523244669,0.0,0.0,73.0,0.0,0.0,0.0,0.0,0.0,0.0,0.0,0.0,1.0,1.0,1.0,1.0,11.0,12.0,13.0,14.0,45.084
2024-04-02 22:03:44,0.125,-5.9375,135.125,0.0028539721817851093,0.0,0.0,-1.0,0.0,0.0,0.0,0.0,0.0,0.0,0.0,0.0,1.0,1.0,1.0,1.0,11.0,12.0,13.0,14.0,45.084
2024-04-02 22:03:44,0.125,-5.9375,135.125,0.0028539721817851093,0.0,0.0,-1.0,0.0,0.0,0.0,0.0,0.0,0.0,0.0,0.0,1.0,1.0,1.0,1.0,11.0,12.0,13.0,14.0,45.084
2024-04-02 22:03:44,0.125,-5.9375,135.125,0.0028539721817851093,0.0,0.0,-1.0,0.0,0.0,0.0,0.0,0.0,0.0,0.0,0.0,1.0,1.0,1.0,1.0,11.0,12.0,13.0,14.0,45.084
2024-04-02 22:03:44,0.125,-5.9375,135.125,0.0028539721817851093,0.0,0.0,-1.0,0.0,0.0,0.0,0.0,0.0,0.0,0.0,0.0,1.0,1.0,1.0,1.0,11.0,12.0,13.0,14.0,45.084
2024-04-02 22:03:44,0.125,-5.9375,135.125,0.0028539721817851093,0.0,0.0,-1.0,0.0,0.0,0.0,0.0,0.0,0.0,0.0,0.0,1.0,1.0,1.0,1.0,11.0,12.0,13.0,14.0,45.084
2024-04-02 22:03:44,0.125,-5.9375,135.125,0.0028539721817851093,0.0,0.0,-1.0,0.0,0.0,0.0,0.0,0.0,0.0,0.0,0.0,1.0,1.0,1.0,1.0,11.0,12.0,13.0,14.0,45.084
2024-04-02 22:03:44,0.125,-5.9375,135.125,0.0028539721817851093,0.0,0.0,-1.0,0.0,0.0,0.0,0.0,0.0,0.0,0.0,0.0,1.0,1.0,1.0,1.0,11.0,12.0,13.0,14.0,45.084
2024-04-02 22:03:44,0.125,-5.9375,135.125,0.0028539721817851093,0.0,0.0,-1.0,0.0,0.0,0.0,0.0,0.0,0.0,0.0,0.0,1.0,1.0,1.0,1.0,11.0,12.0,13.0,14.0,45.084
2024-04-02 22:03:44,0.125,-5.9375,135.125,0.0028539721817851093,0.0,0.0,-1.0,0.0,0.0,0.0,0.0,0.0,0.0,0.0,0.0,1.0,1.0,1.0,1.0,11.0,12.0,13.0,14.0,45.084
2024-04-02 22:03:44,0.125,-5.9375,135.125,0.0028539721817851093,0.0,0.0,-1.0,0.0,0.0,0.0,0.0,0.0,0.0,0.0,0.0,1.0,1.0,1.0,1.0,11.0,12.0,13.0,14.0,45.084
2024-04-02 22:03:44,0.125,-5.9375,135.125,0.0028539721817851093,0.0,0.0,-1.0,0.0,0.0,0.0,0.0,0.0,0.0,0.0,0.0,1.0,1.0,1.0,1.0,11.0,12.0,13.0,14.0,45.084
2024-04-02 22:03:44,0.125,-5.9375,135.125,0.0028539721817851093,0.0,0.0,-1.0,0.0,0.0,0.0,0.0,0.0,0.0,0.0,0.0,1.0,1.0,1.0,1.0,11.0,12.0,13.0,14.0,45.084
2024-04-02 22:03:45,0.125,-5.9375,135.125,0.0028539721817851093,0.0,0.0,-1.0,0.0,0.0,0.0,0.0,0.0,0.0,0.0,0.0,1.0,1.0,1.0,1.0,11.0,12.0,13.0,14.0,45.084
2024-04-02 22:03:45,0.125,-5.9375,135.125,0.0028539721817851093,0.0,0.0,-1.0,0.0,0.0,0.0,0.0,0.0,0.0,0.0,0.0,1.0,1.0,1.0,1.0,11.0,12.0,13.0,14.0,45.084
2024-04-02 22:03:45,0.125,-5.9375,135.125,0.0028539721817851093,0.0,0.0,-1.0,0.0,0.0,0.0,0.0,0.0,0.0,0.0,0.0,1.0,1.0,1.0,1.0,11.0,12.0,13.0,14.0,45.084
2024-04-02 22:03:45,0.125,-5.9375,135.125,0.0032646668433734026,0.0,0.0,74.0,0.0,0.0,0.0,0.0,0.0,0.0,0.0,0.0,1.0,1.0,1.0,1.0,11.0,12.0,13.0,14.0,45.084
2024-04-02 22:03:45,0.125,-5.9375,135.125,0.0032646668433734026,0.0,0.0,-1.0,0.0,0.0,0.0,0.0,0.0,0.0,0.0,0.0,1.0,1.0,1.0,1.0,11.0,12.0,13.0,14.0,45.084
2024-04-02 22:03:45,0.125,-5.9375,135.125,0.0032646668433734026,0.0,0.0,-1.0,0.0,0.0,0.0,0.0,0.0,0.0,0.0,0.0,1.0,1.0,1.0,1.0,11.0,12.0,13.0,14.0,45.084
2024-04-02 22:03:45,0.125,-5.9375,135.125,0.0032646668433734026,0.0,0.0,71.0,0.0,0.0,0.0,0.0,0.0,0.0,0.0,0.0,1.0,1.0,1.0,1.0,11.0,12.0,13.0,14.0,45.084
2024-04-02 22:03:45,0.125,-5.9375,135.125,0.0032646668433734026,0.0,0.0,-1.0,0.0,0.0,0.0,0.0,0.0,0.0,0.0,0.0,1.0,1.0,1.0,1.0,11.0,12.0,13.0,14.0,45.084
2024-04-02 22:03:45,0.125,-5.9375,135.125,0.0032646668433734026,0.0,0.0,74.0,0.0,0.0,0.0,0.0,0.0,0.0,0.0,0.0,1.0,1.0,1.0,1.0,11.0,12.0,13.0,14.0,45.084
2024-04-02 22:03:45,0.125,-5.9375,135.125,0.0032646668433734026,0.0,0.0,-1.0,0.0,0.0,0.0,0.0,0.0,0.0,0.0,0.0,1.0,1.0,1.0,1.0,11.0,12.0,13.0,14.0,45.084
2024-04-02 22:03:45,0.125,-5.9375,135.125,0.0032646668433734026,0.0,0.0,-1.0,0.0,0.0,0.0,0.0,0.0,0.0,0.0,0.0,1.0,1.0,1.0,1.0,11.0,12.0,13.0,14.0,45.084
2024-04-02 22:03:45,0.125,-5.9375,135.125,0.0032646668433734026,0.0,0.0,71.0,0.0,0.0,0.0,0.0,0.0,0.0,0.0,0.0,1.0,1.0,1.0,1.0,11.0,12.0,13.0,14.0,45.084
2024-04-02 22:03:45,0.125,-5.9375,135.125,0.0032646668433734026,0.0,0.0,-1.0,0.0,0.0,0.0,0.0,0.0,0.0,0.0,0.0,1.0,1.0,1.0,1.0,11.0,12.0,13.0,14.0,45.084
2024-04-02 22:03:46,0.125,-5.9375,135.125,0.0032646668433734026,0.0,0.0,-1.0,0.0,0.0,0.0,0.0,0.0,0.0,0.0,0.0,1.0,1.0,1.0,1.0,11.0,12.0,13.0,14.0,45.084
2024-04-02 22:03:46,0.125,-5.9375,135.125,0.0032646668433734026,0.0,0.0,-1.0,0.0,0.0,0.0,0.0,0.0,0.0,0.0,0.0,1.0,1.0,1.0,1.0,11.0,12.0,13.0,14.0,45.084
2024-04-02 22:03:46,0.125,-5.9375,135.125,0.0032646668433734026,0.0,0.0,-1.0,0.0,0.0,0.0,0.0,0.0,0.0,0.0,0.0,1.0,1.0,1.0,1.0,11.0,12.0,13.0,14.0,45.622
2024-04-02 22:03:46,0.125,-13.9375,135.125,0.0027578659914265346,0.0,0.0,70.0,0.0,0.0,0.0,0.0,0.0,0.0,0.0,0.0,1.0,1.0,1.0,1.0,11.0,12.0,13.0,14.0,45.084
2024-04-02 22:03:46,0.125,-5.9375,135.125,0.0027578659914265346,0.0,0.0,-1.0,0.0,0.0,0.0,0.0,0.0,0.0,0.0,0.0,1.0,1.0,1.0,1.0,11.0,12.0,13.0,14.0,45.084
2024-04-02 22:03:46,0.125,-5.9375,135.125,0.0027578659914265346,0.0,0.0,-1.0,0.0,0.0,0.0,0.0,0.0,0.0,0.0,0.0,1.0,1.0,1.0,1.0,11.0,12.0,13.0,14.0,45.084
2024-04-02 22:03:46,0.125,-5.9375,135.125,0.0027578659914265346,0.0,0.0,0.0,0.0,0.0,0.0,0.0,0.0,0.0,0.0,0.0,1.0,1.0,1.0,1.0,11.0,12.0,13.0,14.0,45.084
2024-04-02 22:03:46,0.125,-5.9375,135.125,0.0027578659914265346,0.0,0.0,-1.0,0.0,0.0,0.0,0.0,0.0,0.0,0.0,0.0,1.0,1.0,1.0,1.0,11.0,12.0,13.0,14.0,45.084
2024-04-02 22:03:46,0.125,-5.9375,135.125,0.0027578659914265346,0.0,0.0,76.0,0.0,0.0,0.0,0.0,0.0,0.0,0.0,0.0,1.0,1.0,1.0,1.0,11.0,12.0,13.0,14.0,45.084
2024-04-02 22:03:46,0.125,-5.9375,135.125,0.0027578659914265346,0.0,0.0,-1.0,0.0,0.0,0.0,0.0,0.0,0.0,0.0,0.0,1.0,1.0,1.0,1.0,11.0,12.0,13.0,14.0,45.622
2024-04-02 22:03:46,0.125,-5.9375,135.125,0.0027578659914265346,0.0,0.0,76.0,0.0,0.0,0.0,0.0,0.0,0.0,0.0,0.0,1.0,1.0,1.0,1.0,11.0,12.0,13.0,14.0,44.546
2024-04-02 22:03:47,0.125,-5.9375,135.125,0.0027578659914265346,0.0,0.0,-1.0,0.0,0.0,0.0,0.0,0.0,0.0,0.0,0.0,1.0,1.0,1.0,1.0,11.0,12.0,13.0,14.0,45.084
2024-04-02 22:03:47,0.125,-5.9375,135.125,0.0027578659914265346,0.0,0.0,72.0,0.0,0.0,0.0,0.0,0.0,0.0,0.0,0.0,1.0,1.0,1.0,1.0,11.0,12.0,13.0,14.0,45.084
2024-04-02 22:03:47,0.125,-5.9375,135.125,0.0027578659914265346,0.0,0.0,-1.0,0.0,0.0,0.0,0.0,0.0,0.0,0.0,0.0,1.0,1.0,1.0,1.0,11.0,12.0,13.0,14.0,45.084
2024-04-02 22:03:47,0.125,-5.9375,135.125,0.0027578659914265346,0.0,0.0,73.0,0.0,0.0,0.0,0.0,0.0,0.0,0.0,0.0,1.0,1.0,1.0,1.0,11.0,12.0,13.0,14.0,45.084
2024-04-02 22:03:47,0.125,-5.9375,135.125,0.0027578659914265346,0.0,0.0,-1.0,0.0,0.0,0.0,0.0,0.0,0.0,0.0,0.0,1.0,1.0,1.0,1.0,11.0,12.0,13.0,14.0,45.084
2024-04-02 22:03:47,0.125,-5.9375,135.125,0.0023327011777397708,0.0,0.0,-1.0,0.0,0.0,0.0,0.0,0.0,0.0,0.0,0.0,1.0,1.0,1.0,1.0,11.0,12.0,13.0,14.0,45.622
2024-04-02 22:03:47,0.125,-5.9375,135.125,0.0023327011777397708,0.0,0.0,-1.0,0.0,0.0,0.0,0.0,0.0,0.0,0.0,0.0,1.0,1.0,1.0,1.0,11.0,12.0,13.0,14.0,45.084
2024-04-02 22:03:47,0.125,-5.9375,135.125,0.0023327011777397708,0.0,0.0,-1.0,0.0,0.0,0.0,0.0,0.0,0.0,0.0,0.0,1.0,1.0,1.0,1.0,11.0,12.0,13.0,14.0,45.622
2024-04-02 22:03:47,0.125,-5.9375,135.125,0.0023327011777397708,0.0,0.0,73.0,0.0,0.0,0.0,0.0,0.0,0.0,0.0,0.0,1.0,1.0,1.0,1.0,11.0,12.0,13.0,14.0,45.622
2024-04-02 22:03:47,0.125,-5.9375,135.125,0.0023327011777397708,0.0,0.0,-1.0,0.0,0.0,0.0,0.0,0.0,0.0,0.0,0.0,1.0,1.0,1.0,1.0,11.0,12.0,13.0,14.0,45.622
2024-04-02 22:03:47,0.125,-5.9375,135.125,0.0023327011777397708,0.0,0.0,0.0,0.0,0.0,0.0,0.0,0.0,0.0,0.0,0.0,1.0,1.0,1.0,1.0,11.0,12.0,13.0,14.0,45.622
2024-04-02 22:03:47,0.125,-5.9375,135.125,0.0023327011777397708,0.0,0.0,-1.0,0.0,0.0,0.0,0.0,0.0,0.0,0.0,0.0,1.0,1.0,1.0,1.0,11.0,12.0,13.0,14.0,45.084
2024-04-02 22:03:48,0.125,-5.9375,135.125,0.0023327011777397708,0.0,0.0,-1.0,0.0,0.0,0.0,0.0,0.0,0.0,0.0,0.0,1.0,1.0,1.0,1.0,11.0,12.0,13.0,14.0,45.084
2024-04-02 22:03:48,0.125,-5.9375,135.125,0.0023327011777397708,0.0,0.0,73.0,0.0,0.0,0.0,0.0,0.0,0.0,0.0,0.0,1.0,1.0,1.0,1.0,11.0,12.0,13.0,14.0,45.622
2024-04-02 22:03:48,0.125,-5.9375,135.125,0.0023327011777397708,0.0,0.0,-1.0,0.0,0.0,0.0,0.0,0.0,0.0,0.0,0.0,1.0,1.0,1.0,1.0,11.0,12.0,13.0,14.0,45.622
2024-04-02 22:03:48,0.125,-5.9375,135.125,0.0023327011777397708,0.0,0.0,-1.0,0.0,0.0,0.0,0.0,0.0,0.0,0.0,0.0,1.0,1.0,1.0,1.0,11.0,12.0,13.0,14.0,45.084
2024-04-02 22:03:48,0.125,-5.9375,135.125,0.0023327011777397708,0.0,0.0,0.0,0.0,0.0,0.0,0.0,0.0,0.0,0.0,0.0,1.0,1.0,1.0,1.0,11.0,12.0,13.0,14.0,46.16
2024-04-02 22:03:48,0.125,-5.9375,135.125,0.0023327011777397708,0.0,0.0,-1.0,0.0,0.0,0.0,0.0,0.0,0.0,0.0,0.0,1.0,1.0,1.0,1.0,11.0,12.0,13.0,14.0,45.622
2024-04-02 22:03:48,0.125,-5.9375,135.125,0.0023327011777397708,0.0,0.0,-1.0,0.0,0.0,0.0,0.0,0.0,0.0,0.0,0.0,1.0,1.0,1.0,1.0,11.0,12.0,13.0,14.0,46.16
2024-04-02 22:03:48,0.125,-5.9375,135.1875,0.0023327011777397708,0.0,0.0,74.0,0.0,0.0,0.0,0.0,0.0,0.0,0.0,0.0,1.0,1.0,1.0,1.0,11.0,12.0,13.0,14.0,45.622
2024-04-02 22:03:48,0.125,-5.9375,135.125,0.0033368772012899737,0.0,0.0,-1.0,0.0,0.0,0.0,0.0,0.0,0.0,0.0,0.0,1.0,1.0,1.0,1.0,11.0,12.0,13.0,14.0,46.16
2024-04-02 22:03:48,0.125,-5.9375,135.1875,0.0033368772012899737,0.0,0.0,69.0,0.0,0.0,0.0,0.0,0.0,0.0,0.0,0.0,1.0,1.0,1.0,1.0,11.0,12.0,13.0,14.0,46.16
2024-04-02 22:03:48,0.125,-5.9375,135.125,0.0033368772012899737,0.0,0.0,-1.0,0.0,0.0,0.0,0.0,0.0,0.0,0.0,0.0,1.0,1.0,1.0,1.0,11.0,12.0,13.0,14.0,46.16
2024-04-02 22:03:48,0.125,-5.9375,135.1875,0.0033368772012899737,0.0,0.0,71.0,0.0,0.0,0.0,0.0,0.0,0.0,0.0,0.0,1.0,1.0,1.0,1.0,11.0,12.0,13.0,14.0,46.16
2024-04-02 22:03:49,0.125,-5.9375,135.1875,0.0033368772012899737,0.0,0.0,-1.0,0.0,0.0,0.0,0.0,0.0,0.0,0.0,0.0,1.0,1.0,1.0,1.0,11.0,12.0,13.0,14.0,46.16
2024-04-02 22:03:49,0.125,-5.9375,135.1875,0.0033368772012899737,0.0,0.0,70.0,0.0,0.0,0.0,0.0,0.0,0.0,0.0,0.0,1.0,1.0,1.0,1.0,11.0,12.0,13.0,14.0,45.622
2024-04-02 22:03:49,0.125,-5.9375,135.25,0.0033368772012899737,0.0,0.0,-1.0,0.0,0.0,0.0,0.0,0.0,0.0,0.0,0.0,1.0,1.0,1.0,1.0,11.0,12.0,13.0,14.0,46.16
2024-04-02 22:03:49,0.125,-5.9375,135.25,0.0033368772012899737,0.0,0.0,69.0,0.0,0.0,0.0,0.0,0.0,0.0,0.0,0.0,1.0,1.0,1.0,1.0,11.0,12.0,13.0,14.0,46.16
2024-04-02 22:03:49,0.0625,-5.9375,135.25,0.0033368772012899737,0.0,0.0,-1.0,0.0,0.0,0.0,0.0,0.0,0.0,0.0,0.0,1.0,1.0,1.0,1.0,11.0,12.0,13.0,14.0,46.16
2024-04-02 22:03:49,196.9375,-5.875,135.5,0.0033368772012899737,0.0,0.0,0.0,0.0,0.0,0.0,0.0,0.0,0.0,0.0,0.0,1.0,1.0,1.0,1.0,11.0,12.0,13.0,14.0,46.698
2024-04-02 22:03:49,196.875,-5.875,135.5,0.0033368772012899737,0.0,0.0,-1.0,0.0,0.0,0.0,0.0,0.0,0.0,0.0,0.0,1.0,1.0,1.0,1.0,11.0,12.0,13.0,14.0,46.16
2024-04-02 22:03:49,196.875,-5.8125,135.5,0.0033368772012899737,0.0,0.0,73.0,0.0,0.0,0.0,0.0,0.0,0.0,0.0,0.0,1.0,1.0,1.0,1.0,11.0,12.0,13.0,14.0,46.16
2024-04-02 22:03:49,359.9375,-6.0625,134.875,0.003260194411604449,0.0,0.0,-1.0,0.0,0.0,0.0,0.0,0.0,0.0,0.0,0.0,1.0,1.0,1.0,1.0,11.0,12.0,13.0,14.0,46.16
2024-04-02 22:03:49,0.0,-5.9375,135.25,0.003260194411604449,0.0,0.0,-1.0,0.0,0.0,0.0,0.0,0.0,0.0,0.0,0.0,1.0,1.0,1.0,1.0,11.0,12.0,13.0,14.0,46.16
2024-04-02 22:03:49,0.0625,-5.9375,135.25,0.003260194411604449,0.0,0.0,73.0,0.0,0.0,0.0,0.0,0.0,0.0,0.0,0.0,1.0,1.0,1.0,1.0,11.0,12.0,13.0,14.0,46.698
2024-04-02 22:03:50,0.0625,-5.9375,135.0625,0.003260194411604449,0.0,0.0,-1.0,0.0,0.0,0.0,0.0,0.0,0.0,0.0,0.0,1.0,1.0,1.0,1.0,11.0,12.0,13.0,14.0,46.16
2024-04-02 22:03:50,359.9375,-6.0,135.0,0.003260194411604449,0.0,0.0,71.0,0.0,0.0,0.0,0.0,0.0,0.0,0.0,0.0,1.0,1.0,1.0,1.0,11.0,12.0,13.0,14.0,46.16
2024-04-02 22:03:50,196.875,-5.875,-1912.5,0.003260194411604449,0.0,0.0,-1.0,0.0,0.0,0.0,0.0,0.0,0.0,0.0,0.0,1.0,1.0,1.0,1.0,11.0,12.0,13.0,14.0,46.16
2024-04-02 22:03:50,0.125,-5.9375,135.1875,0.003260194411604449,0.0,0.0,-1.0,0.0,0.0,0.0,0.0,0.0,0.0,0.0,0.0,1.0,1.0,1.0,1.0,11.0,12.0,13.0,14.0,46.698
2024-04-02 22:03:50,0.0625,-6.0625,134.75,0.003260194411604449,0.0,0.0,-1.0,0.0,0.0,0.0,0.0,0.0,0.0,0.0,0.0,1.0,1.0,1.0,1.0,11.0,12.0,13.0,14.0,46.698
2024-04-02 22:03:50,0.125,-5.9375,135.0625,0.003260194411604449,0.0,0.0,-1.0,0.0,0.0,0.0,0.0,0.0,0.0,0.0,0.0,1.0,1.0,1.0,1.0,11.0,12.0,13.0,14.0,47.236
2024-04-02 22:03:50,0.125,-6.0,134.9375,0.003260194411604449,0.0,0.0,-1.0,0.0,0.0,0.0,0.0,0.0,0.0,0.0,0.0,1.0,1.0,1.0,1.0,11.0,12.0,13.0,14.0,46.16
2024-04-02 22:03:50,0.0625,-6.0,135.0,0.003260194411604449,0.0,0.0,-1.0,0.0,0.0,0.0,0.0,0.0,0.0,0.0,0.0,1.0,1.0,1.0,1.0,11.0,12.0,13.0,14.0,46.16
2024-04-02 22:03:50,0.3125,-5.9375,134.9375,0.003260194411604449,0.0,0.0,-1.0,0.0,0.0,0.0,0.0,0.0,0.0,0.0,0.0,1.0,1.0,1.0,1.0,11.0,12.0,13.0,14.0,46.16
2024-04-02 22:03:50,0.4375,-5.9375,134.6875,0.003260194411604449,0.0,0.0,-1.0,0.0,0.0,0.0,0.0,0.0,0.0,0.0,0.0,1.0,1.0,1.0,1.0,11.0,12.0,13.0,14.0,46.16
2024-04-02 22:03:50,0.375,-5.9375,134.75,0.003260194411604449,0.0,0.0,-1.0,0.0,0.0,0.0,0.0,0.0,0.0,0.0,0.0,1.0,1.0,1.0,1.0,11.0,12.0,13.0,14.0,46.698
2024-04-02 22:03:50,0.3125,-6.0,134.8125,0.003260194411604449,0.0,0.0,-1.0,0.0,0.0,0.0,0.0,0.0,0.0,0.0,0.0,1.0,1.0,1.0,1.0,11.0,12.0,13.0,14.0,46.16
2024-04-02 22:03:50,0.4375,-5.9375,134.8125,0.003469853485718379,0.0,0.0,74.0,0.0,0.0,0.0,0.0,0.0,0.0,0.0,0.0,1.0,1.0,1.0,1.0,11.0,12.0,13.0,14.0,46.16
2024-04-02 22:03:50,0.4375,-5.9375,134.8125,0.003469853485718379,0.0,0.0,-1.0,0.0,0.0,0.0,0.0,0.0,0.0,0.0,0.0,1.0,1.0,1.0,1.0,11.0,12.0,13.0,14.0,47.236
2024-04-02 22:03:51,0.375,-5.9375,134.8125,0.003469853485718379,0.0,0.0,-1.0,0.0,0.0,0.0,0.0,0.0,0.0,0.0,0.0,1.0,1.0,1.0,1.0,11.0,12.0,13.0,14.0,47.236
2024-04-02 22:03:51,0.4375,-5.9375,134.875,0.003469853485718379,0.0,0.0,72.0,0.0,0.0,0.0,0.0,0.0,0.0,0.0,0.0,1.0,1.0,1.0,1.0,11.0,12.0,13.0,14.0,47.236
2024-04-02 22:03:51,0.375,-5.9375,134.9375,0.003469853485718379,0.0,0.0,-1.0,0.0,0.0,0.0,0.0,0.0,0.0,0.0,0.0,1.0,1.0,1.0,1.0,11.0,12.0,13.0,14.0,46.698
2024-04-02 22:03:51,0.3125,-5.9375,135.0625,0.003469853485718379,0.0,0.0,73.0,0.0,0.0,0.0,0.0,0.0,0.0,0.0,0.0,1.0,1.0,1.0,1.0,11.0,12.0,13.0,14.0,47.236
2024-04-02 22:03:51,0.375,-5.9375,135.0625,0.003469853485718379,0.0,0.0,-1.0,0.0,0.0,0.0,0.0,0.0,0.0,0.0,0.0,1.0,1.0,1.0,1.0,11.0,12.0,13.0,14.0,47.236
2024-04-02 22:03:51,0.375,-5.9375,135.0,0.003469853485718379,0.0,0.0,0.0,0.0,0.0,0.0,0.0,0.0,0.0,0.0,0.0,1.0,1.0,1.0,1.0,11.0,12.0,13.0,14.0,47.236
2024-04-02 22:03:51,0.375,-5.875,135.1875,0.003469853485718379,0.0,0.0,-1.0,0.0,0.0,0.0,0.0,0.0,0.0,0.0,0.0,1.0,1.0,1.0,1.0,11.0,12.0,13.0,14.0,47.236
2024-04-02 22:03:51,0.375,-5.875,135.125,0.003469853485718379,0.0,0.0,72.0,0.0,0.0,0.0,0.0,0.0,0.0,0.0,0.0,1.0,1.0,1.0,1.0,11.0,12.0,13.0,14.0,47.236
2024-04-02 22:03:51,0.375,-5.9375,135.125,0.003469853485718379,0.0,0.0,-1.0,0.0,0.0,0.0,0.0,0.0,0.0,0.0,0.0,1.0,1.0,1.0,1.0,11.0,12.0,13.0,14.0,47.236
2024-04-02 22:03:51,0.3125,-5.9375,135.1875,0.003469853485718379,0.0,0.0,72.0,0.0,0.0,0.0,0.0,0.0,0.0,0.0,0.0,1.0,1.0,1.0,1.0,11.0,12.0,13.0,14.0,47.236
2024-04-02 22:03:52,0.3125,-5.9375,135.1875,0.003469853485718379,0.0,0.0,-1.0,0.0,0.0,0.0,0.0,0.0,0.0,0.0,0.0,1.0,1.0,1.0,1.0,11.0,12.0,13.0,14.0,46.16
2024-04-02 22:03:52,197.125,-5.875,135.3125,0.0032088809281895416,0.0,0.0,70.0,0.0,0.0,0.0,0.0,0.0,0.0,0.0,0.0,1.0,1.0,1.0,1.0,11.0,12.0,13.0,14.0,47.236
2024-04-02 22:03:52,197.125,-5.875,135.3125,0.0032088809281895416,0.0,0.0,-1.0,0.0,0.0,0.0,0.0,0.0,0.0,0.0,0.0,1.0,1.0,1.0,1.0,11.0,12.0,13.0,14.0,47.236
2024-04-02 22:03:52,197.125,-5.875,135.3125,0.0032088809281895416,0.0,0.0,-1.0,0.0,0.0,0.0,0.0,0.0,0.0,0.0,0.0,1.0,1.0,1.0,1.0,11.0,12.0,13.0,14.0,46.698
2024-04-02 22:03:52,197.125,-5.875,135.3125,0.0032088809281895416,0.0,0.0,73.0,0.0,0.0,0.0,0.0,0.0,0.0,0.0,0.0,1.0,1.0,1.0,1.0,11.0,12.0,13.0,14.0,47.236
2024-04-02 22:03:52,197.125,-5.875,135.3125,0.0032088809281895416,0.0,0.0,-1.0,0.0,0.0,0.0,0.0,0.0,0.0,0.0,0.0,1.0,1.0,1.0,1.0,11.0,12.0,13.0,14.0,47.236
2024-04-02 22:03:52,197.125,-5.875,135.3125,0.0032088809281895416,0.0,0.0,0.0,0.0,0.0,0.0,0.0,0.0,0.0,0.0,0.0,1.0,1.0,1.0,1.0,11.0,12.0,13.0,14.0,47.236
2024-04-02 22:03:52,197.125,-5.875,135.3125,0.0032088809281895416,0.0,0.0,-1.0,0.0,0.0,0.0,0.0,0.0,0.0,0.0,0.0,1.0,1.0,1.0,1.0,11.0,12.0,13.0,14.0,47.774
2024-04-02 22:03:52,197.125,-5.875,135.3125,0.0032088809281895416,0.0,0.0,72.0,0.0,0.0,0.0,0.0,0.0,0.0,0.0,0.0,1.0,1.0,1.0,1.0,11.0,12.0,13.0,14.0,47.774
2024-04-02 22:03:52,197.125,-5.875,135.3125,0.0032088809281895416,0.0,0.0,-1.0,0.0,0.0,0.0,0.0,0.0,0.0,0.0,0.0,1.0,1.0,1.0,1.0,11.0,12.0,13.0,14.0,47.236
2024-04-02 22:03:52,197.125,-5.875,135.3125,0.0032088809281895416,0.0,0.0,72.0,0.0,0.0,0.0,0.0,0.0,0.0,0.0,0.0,1.0,1.0,1.0,1.0,11.0,12.0,13.0,14.0,47.236
2024-04-02 22:03:53,197.125,-5.875,135.3125,0.0032088809281895416,0.0,0.0,-1.0,0.0,0.0,0.0,0.0,0.0,0.0,0.0,0.0,1.0,1.0,1.0,1.0,11.0,12.0,13.0,14.0,47.236
2024-04-02 22:03:53,197.125,-5.875,135.3125,0.0032088809281895416,0.0,0.0,71.0,0.0,0.0,0.0,0.0,0.0,0.0,0.0,0.0,1.0,1.0,1.0,1.0,11.0,12.0,13.0,14.0,47.236
2024-04-02 22:03:53,197.125,-5.875,135.3125,0.0032088809281895416,0.0,0.0,-1.0,0.0,0.0,0.0,0.0,0.0,0.0,0.0,0.0,1.0,1.0,1.0,1.0,11.0,12.0,13.0,14.0,47.236
2024-04-02 22:03:53,197.125,-5.875,135.3125,0.0032088809281895416,0.0,0.0,0.0,0.0,0.0,0.0,0.0,0.0,0.0,0.0,0.0,1.0,1.0,1.0,1.0,11.0,12.0,13.0,14.0,47.774
2024-04-02 22:03:53,197.125,-5.875,135.3125,0.004680283161437296,0.0,0.0,-1.0,0.0,0.0,0.0,0.0,0.0,0.0,0.0,0.0,1.0,1.0,1.0,1.0,11.0,12.0,13.0,14.0,47.236
2024-04-02 22:03:53,197.125,-5.875,135.3125,0.004680283161437296,0.0,0.0,0.0,0.0,0.0,0.0,0.0,0.0,0.0,0.0,0.0,1.0,1.0,1.0,1.0,11.0,12.0,13.0,14.0,47.236
2024-04-02 22:03:53,197.125,-5.875,135.3125,0.004680283161437296,0.0,0.0,-1.0,0.0,0.0,0.0,0.0,0.0,0.0,0.0,0.0,1.0,1.0,1.0,1.0,11.0,12.0,13.0,14.0,47.236
2024-04-02 22:03:53,197.125,-5.875,135.3125,0.004680283161437296,0.0,0.0,71.0,0.0,0.0,0.0,0.0,0.0,0.0,0.0,0.0,1.0,1.0,1.0,1.0,11.0,12.0,13.0,14.0,47.774
2024-04-02 22:03:53,197.125,-5.875,135.3125,0.004680283161437296,0.0,0.0,-1.0,0.0,0.0,0.0,0.0,0.0,0.0,0.0,0.0,1.0,1.0,1.0,1.0,11.0,12.0,13.0,14.0,47.774
2024-04-02 22:03:53,197.125,-5.875,135.3125,0.004680283161437296,0.0,0.0,-1.0,0.0,0.0,0.0,0.0,0.0,0.0,0.0,0.0,1.0,1.0,1.0,1.0,11.0,12.0,13.0,14.0,47.774
2024-04-02 22:03:53,197.125,-5.875,135.3125,0.004680283161437296,0.0,0.0,72.0,0.0,0.0,0.0,0.0,0.0,0.0,0.0,0.0,1.0,1.0,1.0,1.0,11.0,12.0,13.0,14.0,47.236
2024-04-02 22:03:54,197.125,-5.875,135.3125,0.004680283161437296,0.0,0.0,-1.0,0.0,0.0,0.0,0.0,0.0,0.0,0.0,0.0,1.0,1.0,1.0,1.0,11.0,12.0,13.0,14.0,47.236
2024-04-02 22:03:54,197.125,-5.875,135.375,0.004680283161437296,0.0,0.0,0.0,0.0,0.0,0.0,0.0,0.0,0.0,0.0,0.0,1.0,1.0,1.0,1.0,11.0,12.0,13.0,14.0,47.236
2024-04-02 22:03:54,197.125,-5.875,135.375,0.004680283161437296,0.0,0.0,-1.0,0.0,0.0,0.0,0.0,0.0,0.0,0.0,0.0,1.0,1.0,1.0,1.0,11.0,12.0,13.0,14.0,47.774
2024-04-02 22:03:54,197.125,-5.875,135.375,0.004680283161437296,0.0,0.0,70.0,0.0,0.0,0.0,0.0,0.0,0.0,0.0,0.0,1.0,1.0,1.0,1.0,11.0,12.0,13.0,14.0,47.774
2024-04-02 22:03:54,197.125,-5.875,135.375,0.004680283161437296,0.0,0.0,-1.0,0.0,0.0,0.0,0.0,0.0,0.0,0.0,0.0,1.0,1.0,1.0,1.0,11.0,12.0,13.0,14.0,47.774
2024-04-02 22:03:54,197.125,-5.875,135.375,0.004680283161437296,0.0,0.0,-1.0,0.0,0.0,0.0,0.0,0.0,0.0,0.0,0.0,1.0,1.0,1.0,1.0,11.0,12.0,13.0,14.0,47.774
2024-04-02 22:03:54,197.125,-5.875,135.375,0.004680283161437296,0.0,0.0,-1.0,0.0,0.0,0.0,0.0,0.0,0.0,0.0,0.0,1.0,1.0,1.0,1.0,11.0,12.0,13.0,14.0,47.774
2024-04-02 22:03:54,197.125,-5.875,135.375,0.004491375659851546,0.0,0.0,-1.0,0.0,0.0,0.0,0.0,0.0,0.0,0.0,0.0,1.0,1.0,1.0,1.0,11.0,12.0,13.0,14.0,47.236
2024-04-02 22:03:54,197.125,-5.875,135.375,0.004491375659851546,0.0,0.0,-1.0,0.0,0.0,0.0,0.0,0.0,0.0,0.0,0.0,1.0,1.0,1.0,1.0,11.0,12.0,13.0,14.0,47.774
2024-04-02 22:03:54,197.125,-5.875,135.375,0.004491375659851546,0.0,0.0,-1.0,0.0,0.0,0.0,0.0,0.0,0.0,0.0,0.0,1.0,1.0,1.0,1.0,11.0,12.0,13.0,14.0,47.236
2024-04-02 22:03:54,197.125,-5.875,135.375,0.004491375659851546,0.0,0.0,-1.0,0.0,0.0,0.0,0.0,0.0,0.0,0.0,0.0,1.0,1.0,1.0,1.0,11.0,12.0,13.0,14.0,47.774
2024-04-02 22:03:54,197.125,-5.875,135.375,0.004491375659851546,0.0,0.0,70.0,0.0,0.0,0.0,0.0,0.0,0.0,0.0,0.0,1.0,1.0,1.0,1.0,11.0,12.0,13.0,14.0,47.774
2024-04-02 22:03:55,197.125,-5.875,135.375,0.004491375659851546,0.0,0.0,-1.0,0.0,0.0,0.0,0.0,0.0,0.0,0.0,0.0,1.0,1.0,1.0,1.0,11.0,12.0,13.0,14.0,47.774
2024-04-02 22:03:55,197.125,-5.875,135.375,0.004491375659851546,0.0,0.0,69.0,0.0,0.0,0.0,0.0,0.0,0.0,0.0,0.0,1.0,1.0,1.0,1.0,11.0,12.0,13.0,14.0,47.236
2024-04-02 22:03:55,197.125,-5.875,135.375,0.004491375659851546,0.0,0.0,-1.0,0.0,0.0,0.0,0.0,0.0,0.0,0.0,0.0,1.0,1.0,1.0,1.0,11.0,12.0,13.0,14.0,47.236
2024-04-02 22:03:55,197.125,-5.875,135.375,0.004491375659851546,0.0,0.0,70.0,0.0,0.0,0.0,0.0,0.0,0.0,0.0,0.0,1.0,1.0,1.0,1.0,11.0,12.0,13.0,14.0,47.236
2024-04-02 22:03:55,197.125,-5.875,135.375,0.004491375659851546,0.0,0.0,-1.0,0.0,0.0,0.0,0.0,0.0,0.0,0.0,0.0,1.0,1.0,1.0,1.0,11.0,12.0,13.0,14.0,47.774
2024-04-02 22:03:55,197.125,-5.875,135.375,0.004491375659851546,0.0,0.0,70.0,0.0,0.0,0.0,0.0,0.0,0.0,0.0,0.0,1.0,1.0,1.0,1.0,11.0,12.0,13.0,14.0,47.774
2024-04-02 22:03:55,197.125,-5.875,135.375,0.004491375659851546,0.0,0.0,-1.0,0.0,0.0,0.0,0.0,0.0,0.0,0.0,0.0,1.0,1.0,1.0,1.0,11.0,12.0,13.0,14.0,48.312
2024-04-02 22:03:55,197.125,-5.875,135.375,0.004491375659851546,0.0,0.0,-1.0,0.0,0.0,0.0,0.0,0.0,0.0,0.0,0.0,1.0,1.0,1.0,1.0,11.0,12.0,13.0,14.0,47.774
2024-04-02 22:03:55,197.125,-5.875,135.375,0.004491375659851546,0.0,0.0,72.0,0.0,0.0,0.0,0.0,0.0,0.0,0.0,0.0,1.0,1.0,1.0,1.0,11.0,12.0,13.0,14.0,47.236
2024-04-02 22:03:55,197.125,-5.875,135.375,0.004932751715690234,0.0,0.0,-1.0,0.0,0.0,0.0,0.0,0.0,0.0,0.0,0.0,1.0,1.0,1.0,1.0,11.0,12.0,13.0,14.0,47.236
2024-04-02 22:03:55,197.125,-5.875,135.375,0.004932751715690234,0.0,0.0,75.0,0.0,0.0,0.0,0.0,0.0,0.0,0.0,0.0,1.0,1.0,1.0,1.0,11.0,12.0,13.0,14.0,47.236
2024-04-02 22:03:55,197.125,-5.875,135.375,0.004932751715690234,0.0,0.0,-1.0,0.0,0.0,0.0,0.0,0.0,0.0,0.0,0.0,1.0,1.0,1.0,1.0,11.0,12.0,13.0,14.0,47.774
2024-04-02 22:03:56,197.125,-5.875,135.375,0.004932751715690234,0.0,0.0,-1.0,0.0,0.0,0.0,0.0,0.0,0.0,0.0,0.0,1.0,1.0,1.0,1.0,11.0,12.0,13.0,14.0,48.312
2024-04-02 22:03:56,197.125,-5.875,135.375,0.004932751715690234,0.0,0.0,72.0,0.0,0.0,0.0,0.0,0.0,0.0,0.0,0.0,1.0,1.0,1.0,1.0,11.0,12.0,13.0,14.0,47.236
2024-04-02 22:03:56,197.125,-5.875,135.375,0.004932751715690234,0.0,0.0,-1.0,0.0,0.0,0.0,0.0,0.0,0.0,0.0,0.0,1.0,1.0,1.0,1.0,11.0,12.0,13.0,14.0,47.774
2024-04-02 22:03:56,197.125,-5.875,135.375,0.004932751715690234,0.0,0.0,-1.0,0.0,0.0,0.0,0.0,0.0,0.0,0.0,0.0,1.0,1.0,1.0,1.0,11.0,12.0,13.0,14.0,48.312
2024-04-02 22:03:56,197.125,-5.875,135.375,0.004932751715690234,0.0,0.0,-1.0,0.0,0.0,0.0,0.0,0.0,0.0,0.0,0.0,1.0,1.0,1.0,1.0,11.0,12.0,13.0,14.0,47.236
2024-04-02 22:03:56,197.125,-5.875,135.375,0.004932751715690234,0.0,0.0,-1.0,0.0,0.0,0.0,0.0,0.0,0.0,0.0,0.0,1.0,1.0,1.0,1.0,11.0,12.0,13.0,14.0,48.312
2024-04-02 22:03:56,197.125,-5.875,135.375,0.004932751715690234,0.0,0.0,74.0,0.0,0.0,0.0,0.0,0.0,0.0,0.0,0.0,1.0,1.0,1.0,1.0,11.0,12.0,13.0,14.0,47.774
2024-04-02 22:03:56,197.125,-5.875,135.375,0.004932751715690234,0.0,0.0,-1.0,0.0,0.0,0.0,0.0,0.0,0.0,0.0,0.0,1.0,1.0,1.0,1.0,11.0,12.0,13.0,14.0,47.236
2024-04-02 22:03:56,197.125,-5.875,135.375,0.004932751715690234,0.0,0.0,72.0,0.0,0.0,0.0,0.0,0.0,0.0,0.0,0.0,1.0,1.0,1.0,1.0,11.0,12.0,13.0,14.0,47.774
2024-04-02 22:03:56,197.125,-5.875,135.375,0.004932751715690234,0.0,0.0,-1.0,0.0,0.0,0.0,0.0,0.0,0.0,0.0,0.0,1.0,1.0,1.0,1.0,11.0,12.0,13.0,14.0,47.774
2024-04-02 22:03:56,197.125,-5.875,135.375,0.004932751715690234,0.0,0.0,0.0,0.0,0.0,0.0,0.0,0.0,0.0,0.0,0.0,1.0,1.0,1.0,1.0,11.0,12.0,13.0,14.0,47.774
2024-04-02 22:03:57,197.125,-5.875,135.375,0.0019645267506266132,0.0,0.0,-1.0,0.0,0.0,0.0,0.0,0.0,0.0,0.0,0.0,1.0,1.0,1.0,1.0,11.0,12.0,13.0,14.0,47.774
2024-04-02 22:03:57,197.125,-5.875,135.375,0.0019645267506266132,0.0,0.0,71.0,0.0,0.0,0.0,0.0,0.0,0.0,0.0,0.0,1.0,1.0,1.0,1.0,11.0,12.0,13.0,14.0,48.312
2024-04-02 22:03:57,197.125,-5.875,135.375,0.0019645267506266132,0.0,0.0,-1.0,0.0,0.0,0.0,0.0,0.0,0.0,0.0,0.0,1.0,1.0,1.0,1.0,11.0,12.0,13.0,14.0,48.312
2024-04-02 22:03:57,197.125,-5.875,135.375,0.0019645267506266132,0.0,0.0,72.0,0.0,0.0,0.0,0.0,0.0,0.0,0.0,0.0,1.0,1.0,1.0,1.0,11.0,12.0,13.0,14.0,48.312
2024-04-02 22:03:57,197.125,-5.875,135.375,0.0019645267506266132,0.0,0.0,-1.0,0.0,0.0,0.0,0.0,0.0,0.0,0.0,0.0,1.0,1.0,1.0,1.0,11.0,12.0,13.0,14.0,48.312
2024-04-02 22:03:57,197.125,-5.875,135.375,0.0019645267506266132,0.0,0.0,-1.0,0.0,0.0,0.0,0.0,0.0,0.0,0.0,0.0,1.0,1.0,1.0,1.0,11.0,12.0,13.0,14.0,48.312
2024-04-02 22:03:57,197.125,-5.875,135.375,0.0019645267506266132,0.0,0.0,70.0,0.0,0.0,0.0,0.0,0.0,0.0,0.0,0.0,1.0,1.0,1.0,1.0,11.0,12.0,13.0,14.0,48.312
2024-04-02 22:03:57,197.125,-5.875,135.375,0.0019645267506266132,0.0,0.0,-1.0,0.0,0.0,0.0,0.0,0.0,0.0,0.0,0.0,1.0,1.0,1.0,1.0,11.0,12.0,13.0,14.0,48.312
2024-04-02 22:03:57,197.125,-5.875,135.375,0.0019645267506266132,0.0,0.0,73.0,0.0,0.0,0.0,0.0,0.0,0.0,0.0,0.0,1.0,1.0,1.0,1.0,11.0,12.0,13.0,14.0,47.236
2024-04-02 22:03:57,197.125,-5.875,135.375,0.0019645267506266132,0.0,0.0,-1.0,0.0,0.0,0.0,0.0,0.0,0.0,0.0,0.0,1.0,1.0,1.0,1.0,11.0,12.0,13.0,14.0,48.312
2024-04-02 22:03:57,197.125,-5.875,135.375,0.0019645267506266132,0.0,0.0,72.0,0.0,0.0,0.0,0.0,0.0,0.0,0.0,0.0,1.0,1.0,1.0,1.0,11.0,12.0,13.0,14.0,48.312
2024-04-02 22:03:57,197.125,-5.875,135.375,0.0019645267506266132,0.0,0.0,-1.0,0.0,0.0,0.0,0.0,0.0,0.0,0.0,0.0,1.0,1.0,1.0,1.0,11.0,12.0,13.0,14.0,48.312
2024-04-02 22:03:58,197.125,-5.875,135.375,0.0019645267506266132,0.0,0.0,-1.0,0.0,0.0,0.0,0.0,0.0,0.0,0.0,0.0,1.0,1.0,1.0,1.0,11.0,12.0,13.0,14.0,48.312
2024-04-02 22:03:58,197.125,-5.875,135.375,0.0019645267506266132,0.0,0.0,0.0,0.0,0.0,0.0,0.0,0.0,0.0,0.0,0.0,1.0,1.0,1.0,1.0,11.0,12.0,13.0,14.0,47.774
2024-04-02 22:03:58,197.125,-5.875,135.375,0.0018267692261175368,0.0,0.0,-1.0,0.0,0.0,0.0,0.0,0.0,0.0,0.0,0.0,1.0,1.0,1.0,1.0,11.0,12.0,13.0,14.0,48.312
2024-04-02 22:03:58,197.125,-5.875,135.375,0.0018267692261175368,0.0,0.0,-1.0,0.0,0.0,0.0,0.0,0.0,0.0,0.0,0.0,1.0,1.0,1.0,1.0,11.0,12.0,13.0,14.0,47.774
2024-04-02 22:03:58,197.125,-5.875,135.375,0.0018267692261175368,0.0,0.0,-1.0,0.0,0.0,0.0,0.0,0.0,0.0,0.0,0.0,1.0,1.0,1.0,1.0,11.0,12.0,13.0,14.0,47.774
2024-04-02 22:03:58,197.125,-5.875,135.375,0.0018267692261175368,0.0,0.0,71.0,0.0,0.0,0.0,0.0,0.0,0.0,0.0,0.0,1.0,1.0,1.0,1.0,11.0,12.0,13.0,14.0,47.774
2024-04-02 22:03:58,197.125,-5.875,135.375,0.0018267692261175368,0.0,0.0,-1.0,0.0,0.0,0.0,0.0,0.0,0.0,0.0,0.0,1.0,1.0,1.0,1.0,11.0,12.0,13.0,14.0,48.312
2024-04-02 22:03:58,197.125,-5.875,135.375,0.0018267692261175368,0.0,0.0,74.0,0.0,0.0,0.0,0.0,0.0,0.0,0.0,0.0,1.0,1.0,1.0,1.0,11.0,12.0,13.0,14.0,48.312
2024-04-02 22:03:58,197.125,-5.875,135.375,0.0018267692261175368,0.0,0.0,-1.0,0.0,0.0,0.0,0.0,0.0,0.0,0.0,0.0,1.0,1.0,1.0,1.0,11.0,12.0,13.0,14.0,48.312
2024-04-02 22:03:58,197.125,-5.875,135.375,0.0018267692261175368,0.0,0.0,0.0,0.0,0.0,0.0,0.0,0.0,0.0,0.0,0.0,1.0,1.0,1.0,1.0,11.0,12.0,13.0,14.0,48.312
2024-04-02 22:03:59,197.125,-5.875,135.375,0.0018267692261175368,0.0,0.0,-1.0,0.0,0.0,0.0,0.0,0.0,0.0,0.0,0.0,1.0,1.0,1.0,1.0,11.0,12.0,13.0,14.0,48.312
2024-04-02 22:03:59,197.125,-5.875,135.375,0.0018267692261175368,0.0,0.0,70.0,0.0,0.0,0.0,0.0,0.0,0.0,0.0,0.0,1.0,1.0,1.0,1.0,11.0,12.0,13.0,14.0,47.774
2024-04-02 22:03:59,197.125,-5.875,135.375,0.0018267692261175368,0.0,0.0,-1.0,0.0,0.0,0.0,0.0,0.0,0.0,0.0,0.0,1.0,1.0,1.0,1.0,11.0,12.0,13.0,14.0,48.312
2024-04-02 22:03:59,197.125,-5.875,135.375,0.0018267692261175368,0.0,0.0,-1.0,0.0,0.0,0.0,0.0,0.0,0.0,0.0,0.0,1.0,1.0,1.0,1.0,11.0,12.0,13.0,14.0,48.312
2024-04-02 22:03:59,197.125,-5.875,135.375,0.0018267692261175368,0.0,0.0,73.0,0.0,0.0,0.0,0.0,0.0,0.0,0.0,0.0,1.0,1.0,1.0,1.0,11.0,12.0,13.0,14.0,47.774
2024-04-02 22:03:59,197.125,-5.875,135.375,0.0018267692261175368,0.0,0.0,-1.0,0.0,0.0,0.0,0.0,0.0,0.0,0.0,0.0,1.0,1.0,1.0,1.0,11.0,12.0,13.0,14.0,48.312
2024-04-02 22:03:59,197.125,-13.875,135.375,0.0030427371645876276,0.0,0.0,0.0,0.0,0.0,0.0,0.0,0.0,0.0,0.0,0.0,1.0,1.0,1.0,1.0,11.0,12.0,13.0,14.0,48.312
2024-04-02 22:03:59,197.125,-5.875,135.375,0.0030427371645876276,0.0,0.0,-1.0,0.0,0.0,0.0,0.0,0.0,0.0,0.0,0.0,1.0,1.0,1.0,1.0,11.0,12.0,13.0,14.0,47.774
2024-04-02 22:03:59,197.125,-5.875,135.375,0.0030427371645876276,0.0,0.0,-1.0,0.0,0.0,0.0,0.0,0.0,0.0,0.0,0.0,1.0,1.0,1.0,1.0,11.0,12.0,13.0,14.0,48.312
2024-04-02 22:03:59,197.125,-5.875,135.375,0.0030427371645876276,0.0,0.0,74.0,0.0,0.0,0.0,0.0,0.0,0.0,0.0,0.0,1.0,1.0,1.0,1.0,11.0,12.0,13.0,14.0,48.312
2024-04-02 22:03:59,197.125,-5.875,135.375,0.0030427371645876276,0.0,0.0,-1.0,0.0,0.0,0.0,0.0,0.0,0.0,0.0,0.0,1.0,1.0,1.0,1.0,11.0,12.0,13.0,14.0,47.774
2024-04-02 22:03:59,197.125,-5.875,135.375,0.0030427371645876276,0.0,0.0,74.0,0.0,0.0,0.0,0.0,0.0,0.0,0.0,0.0,1.0,1.0,1.0,1.0,11.0,12.0,13.0,14.0,48.312
2024-04-02 22:03:59,197.125,-5.875,135.375,0.0030427371645876276,0.0,0.0,-1.0,0.0,0.0,0.0,0.0,0.0,0.0,0.0,0.0,1.0,1.0,1.0,1.0,11.0,12.0,13.0,14.0,48.312
2024-04-02 22:04:00,197.125,-5.875,135.375,0.0030427371645876276,0.0,0.0,-1.0,0.0,0.0,0.0,0.0,0.0,0.0,0.0,0.0,1.0,1.0,1.0,1.0,11.0,12.0,13.0,14.0,48.312
2024-04-02 22:04:00,197.125,-5.875,135.375,0.0030427371645876276,0.0,0.0,75.0,0.0,0.0,0.0,0.0,0.0,0.0,0.0,0.0,1.0,1.0,1.0,1.0,11.0,12.0,13.0,14.0,48.312
2024-04-02 22:04:00,197.125,-5.875,135.375,0.0030427371645876276,0.0,0.0,-1.0,0.0,0.0,0.0,0.0,0.0,0.0,0.0,0.0,1.0,1.0,1.0,1.0,11.0,12.0,13.0,14.0,48.312
2024-04-02 22:04:00,197.125,-5.875,135.375,0.0030427371645876276,0.0,0.0,-1.0,0.0,0.0,0.0,0.0,0.0,0.0,0.0,0.0,1.0,1.0,1.0,1.0,11.0,12.0,13.0,14.0,48.312
2024-04-02 22:04:00,197.125,-5.875,135.375,0.0030427371645876276,0.0,0.0,0.0,0.0,0.0,0.0,0.0,0.0,0.0,0.0,0.0,1.0,1.0,1.0,1.0,11.0,12.0,13.0,14.0,48.85
2024-04-02 22:04:00,197.125,-5.875,135.375,0.0030427371645876276,0.0,0.0,-1.0,0.0,0.0,0.0,0.0,0.0,0.0,0.0,0.0,1.0,1.0,1.0,1.0,11.0,12.0,13.0,14.0,48.312
2024-04-02 22:04:00,197.125,-5.875,135.375,0.0030427371645876276,0.0,0.0,75.0,0.0,0.0,0.0,0.0,0.0,0.0,0.0,0.0,1.0,1.0,1.0,1.0,11.0,12.0,13.0,14.0,48.312
2024-04-02 22:04:00,197.125,-5.875,135.375,0.0016631620712689863,0.0,0.0,-1.0,0.0,0.0,0.0,0.0,0.0,0.0,0.0,0.0,1.0,1.0,1.0,1.0,11.0,12.0,13.0,14.0,48.312
2024-04-02 22:04:00,197.125,-5.875,135.375,0.0016631620712689863,0.0,0.0,-1.0,0.0,0.0,0.0,0.0,0.0,0.0,0.0,0.0,1.0,1.0,1.0,1.0,11.0,12.0,13.0,14.0,48.312
2024-04-02 22:04:00,197.125,-5.875,135.375,0.0016631620712689863,0.0,0.0,-1.0,0.0,0.0,0.0,0.0,0.0,0.0,0.0,0.0,1.0,1.0,1.0,1.0,11.0,12.0,13.0,14.0,47.774
2024-04-02 22:04:00,197.125,-5.875,135.375,0.0016631620712689863,0.0,0.0,0.0,0.0,0.0,0.0,0.0,0.0,0.0,0.0,0.0,1.0,1.0,1.0,1.0,11.0,12.0,13.0,14.0,48.312
2024-04-02 22:04:01,197.125,-5.875,135.375,0.0016631620712689863,0.0,0.0,-1.0,0.0,0.0,0.0,0.0,0.0,0.0,0.0,0.0,1.0,1.0,1.0,1.0,11.0,12.0,13.0,14.0,48.312
2024-04-02 22:04:01,197.125,-5.875,135.375,0.0016631620712689863,0.0,0.0,69.0,0.0,0.0,0.0,0.0,0.0,0.0,0.0,0.0,1.0,1.0,1.0,1.0,11.0,12.0,13.0,14.0,48.312
2024-04-02 22:04:01,197.125,-5.875,135.375,0.0016631620712689863,0.0,0.0,-1.0,0.0,0.0,0.0,0.0,0.0,0.0,0.0,0.0,1.0,1.0,1.0,1.0,11.0,12.0,13.0,14.0,48.312
2024-04-02 22:04:01,197.125,-5.875,135.375,0.0016631620712689863,0.0,0.0,70.0,0.0,0.0,0.0,0.0,0.0,0.0,0.0,0.0,1.0,1.0,1.0,1.0,11.0,12.0,13.0,14.0,48.312
2024-04-02 22:04:01,197.125,-5.875,135.375,0.0016631620712689863,0.0,0.0,-1.0,0.0,0.0,0.0,0.0,0.0,0.0,0.0,0.0,1.0,1.0,1.0,1.0,11.0,12.0,13.0,14.0,48.85
2024-04-02 22:04:01,197.125,-5.875,135.375,0.0016631620712689863,0.0,0.0,74.0,0.0,0.0,0.0,0.0,0.0,0.0,0.0,0.0,1.0,1.0,1.0,1.0,11.0,12.0,13.0,14.0,48.312
2024-04-02 22:04:01,197.125,-5.875,135.375,0.0016631620712689863,0.0,0.0,-1.0,0.0,0.0,0.0,0.0,0.0,0.0,0.0,0.0,1.0,1.0,1.0,1.0,11.0,12.0,13.0,14.0,48.312
2024-04-02 22:04:01,197.125,-5.875,135.375,0.0016631620712689863,0.0,0.0,-1.0,0.0,0.0,0.0,0.0,0.0,0.0,0.0,0.0,1.0,1.0,1.0,1.0,11.0,12.0,13.0,14.0,48.312
2024-04-02 22:04:01,197.125,-5.875,135.375,0.0016631620712689863,0.0,0.0,70.0,0.0,0.0,0.0,0.0,0.0,0.0,0.0,0.0,1.0,1.0,1.0,1.0,11.0,12.0,13.0,14.0,48.312
2024-04-02 22:04:01,197.125,-5.875,135.375,0.0016631620712689863,0.0,0.0,-1.0,0.0,0.0,0.0,0.0,0.0,0.0,0.0,0.0,1.0,1.0,1.0,1.0,11.0,12.0,13.0,14.0,48.85
2024-04-02 22:04:01,197.125,-5.875,135.375,0.00031741371042426624,0.0,0.0,71.0,0.0,0.0,0.0,0.0,0.0,0.0,0.0,0.0,1.0,1.0,1.0,1.0,11.0,12.0,13.0,14.0,48.312
2024-04-02 22:04:01,197.125,-5.875,135.375,0.00031741371042426624,0.0,0.0,-1.0,0.0,0.0,0.0,0.0,0.0,0.0,0.0,0.0,1.0,1.0,1.0,1.0,11.0,12.0,13.0,14.0,48.312
2024-04-02 22:04:02,197.125,-5.875,135.375,0.00031741371042426624,0.0,0.0,-1.0,0.0,0.0,0.0,0.0,0.0,0.0,0.0,0.0,1.0,1.0,1.0,1.0,11.0,12.0,13.0,14.0,48.312
2024-04-02 22:04:02,197.125,-5.875,135.375,0.00031741371042426624,0.0,0.0,0.0,0.0,0.0,0.0,0.0,0.0,0.0,0.0,0.0,1.0,1.0,1.0,1.0,11.0,12.0,13.0,14.0,48.312
2024-04-02 22:04:02,197.125,2042.125,135.375,0.00031741371042426624,0.0,0.0,-1.0,0.0,0.0,0.0,0.0,0.0,0.0,0.0,0.0,1.0,1.0,1.0,1.0,11.0,12.0,13.0,14.0,48.312
2024-04-02 22:04:02,197.125,-5.875,135.375,0.00031741371042426624,0.0,0.0,72.0,0.0,0.0,0.0,0.0,0.0,0.0,0.0,0.0,1.0,1.0,1.0,1.0,11.0,12.0,13.0,14.0,48.312
2024-04-02 22:04:02,197.125,-5.875,135.375,0.00031741371042426624,0.0,0.0,-1.0,0.0,0.0,0.0,0.0,0.0,0.0,0.0,0.0,1.0,1.0,1.0,1.0,11.0,12.0,13.0,14.0,48.312
2024-04-02 22:04:02,197.125,-5.875,135.375,0.00031741371042426624,0.0,0.0,-1.0,0.0,0.0,0.0,0.0,0.0,0.0,0.0,0.0,1.0,1.0,1.0,1.0,11.0,12.0,13.0,14.0,48.312
2024-04-02 22:04:02,197.125,-5.875,135.375,0.00031741371042426624,0.0,0.0,70.0,0.0,0.0,0.0,0.0,0.0,0.0,0.0,0.0,1.0,1.0,1.0,1.0,11.0,12.0,13.0,14.0,48.312
2024-04-02 22:04:02,197.125,-5.875,135.375,0.00031741371042426624,0.0,0.0,-1.0,0.0,0.0,0.0,0.0,0.0,0.0,0.0,0.0,1.0,1.0,1.0,1.0,11.0,12.0,13.0,14.0,48.312
2024-04-02 22:04:02,197.125,-5.875,135.375,0.00031741371042426624,0.0,0.0,-1.0,0.0,0.0,0.0,0.0,0.0,0.0,0.0,0.0,1.0,1.0,1.0,1.0,11.0,12.0,13.0,14.0,48.312
2024-04-02 22:04:02,197.125,-5.875,135.375,0.00031741371042426624,0.0,0.0,0.0,0.0,0.0,0.0,0.0,0.0,0.0,0.0,0.0,1.0,1.0,1.0,1.0,11.0,12.0,13.0,14.0,48.312
