Timestamp,Yaw,Pitch,Roll,Depth,Depth Set,Depth Control,Water,Roll Control,Pitch Control,Thruster1,Thruster2,Thruster3,Thruster4,Thruster5,Thruster6,BCD1,BCD2,BCD3,BCD4,BCD1 Volt,BCD2 Volt,BCD3 Volt,BCD4 Volt,CPU
2024-04-03 17:19:19,359.9375,-6.875,14.875,0.08268418726346707,0.0,0.0,105.0,0.0,0.0,0.0,0.0,0.0,0.0,-0.0,0.0,0.0,0.0,0.0,0.0,11.0,12.0,13.0,14.0,44.008
2024-04-03 17:19:19,359.9375,-6.875,14.875,0.08268418726346707,0.0,0.0,-1.0,0.0,0.0,0.0,0.0,0.0,0.0,-0.0,0.0,0.0,0.0,0.0,0.0,11.0,12.0,13.0,14.0,44.008
2024-04-03 17:19:19,359.9375,-6.875,14.875,0.08268418726346707,0.0,0.0,-1.0,0.0,0.0,0.0,0.0,0.0,0.0,-0.0,0.0,0.0,0.0,0.0,0.0,11.0,12.0,13.0,14.0,43.47
2024-04-03 17:19:19,359.9375,-6.875,14.875,0.08436864393751208,0.0,0.0,107.0,0.0,0.0,0.0,0.0,0.0,0.0,-0.0,0.0,0.0,0.0,0.0,0.0,11.0,12.0,13.0,14.0,44.008
2024-04-03 17:19:19,359.9375,-6.875,14.875,0.08436864393751208,0.0,0.0,-1.0,0.0,0.0,0.0,0.0,0.0,0.0,-0.0,0.0,0.0,0.0,0.0,0.0,11.0,12.0,13.0,14.0,44.008
2024-04-03 17:19:19,359.9375,-6.875,14.875,0.08436864393751208,0.0,0.0,-1.0,0.0,0.0,0.0,0.0,0.0,0.0,-0.0,0.0,0.0,0.0,0.0,0.0,11.0,12.0,13.0,14.0,43.47
2024-04-03 17:19:19,359.9375,-6.875,14.875,0.08436864393751208,0.0,0.0,106.0,0.0,0.0,0.0,0.0,0.0,0.0,-0.0,0.0,0.0,0.0,0.0,0.0,11.0,12.0,13.0,14.0,44.008
2024-04-03 17:19:19,359.9375,-6.875,14.875,0.08436864393751208,0.0,0.0,-1.0,0.0,0.0,0.0,0.0,0.0,0.0,-0.0,0.0,0.0,0.0,0.0,0.0,11.0,12.0,13.0,14.0,44.008
2024-04-03 17:19:19,359.9375,-6.875,14.875,0.08436864393751208,0.0,0.0,-1.0,0.0,0.0,0.0,0.0,0.0,0.0,-0.0,0.0,0.0,0.0,0.0,0.0,11.0,12.0,13.0,14.0,43.47
2024-04-03 17:19:19,359.9375,-6.875,14.875,0.08436864393751208,0.0,0.0,108.0,0.0,0.0,0.0,0.0,0.0,0.0,-0.0,0.0,0.0,0.0,0.0,0.0,11.0,12.0,13.0,14.0,43.47
2024-04-03 17:19:19,359.9375,-6.875,14.875,0.08436864393751208,0.0,0.0,-1.0,0.0,0.0,0.0,0.0,0.0,0.0,-0.0,0.0,0.0,0.0,0.0,0.0,11.0,12.0,13.0,14.0,43.47
2024-04-03 17:19:19,359.9375,-6.875,14.875,0.08436864393751208,0.0,0.0,-1.0,0.0,0.0,0.0,0.0,0.0,0.0,-0.0,0.0,0.0,0.0,0.0,0.0,11.0,12.0,13.0,14.0,44.008
2024-04-03 17:19:20,359.9375,-6.875,14.875,0.08436864393751208,0.0,0.0,108.0,0.0,0.0,0.0,0.0,0.0,0.0,-0.0,0.0,0.0,0.0,0.0,0.0,11.0,12.0,13.0,14.0,44.008
2024-04-03 17:19:20,359.9375,-6.875,14.875,0.08436864393751208,0.0,0.0,-1.0,0.0,0.0,0.0,0.0,0.0,0.0,-0.0,0.0,0.0,0.0,0.0,0.0,11.0,12.0,13.0,14.0,44.008
2024-04-03 17:19:20,359.9375,-6.875,14.875,0.08436864393751208,0.0,0.0,-1.0,0.0,0.0,0.0,0.0,0.0,0.0,-0.0,0.0,0.0,0.0,0.0,0.0,11.0,12.0,13.0,14.0,44.008
2024-04-03 17:19:20,359.9375,-6.875,14.875,0.08436864393751208,0.0,0.0,-1.0,0.0,0.0,0.0,0.0,0.0,0.0,-0.0,0.0,0.0,0.0,0.0,0.0,11.0,12.0,13.0,14.0,43.47
2024-04-03 17:19:20,359.9375,-6.875,14.875,0.08323768615208271,0.0,0.0,-1.0,0.0,0.0,0.0,0.0,0.0,0.0,-0.0,0.0,0.0,0.0,0.0,0.0,11.0,12.0,13.0,14.0,44.008
2024-04-03 17:19:20,359.9375,-6.875,14.875,0.08323768615208271,0.0,0.0,-1.0,0.0,0.0,0.0,0.0,0.0,0.0,-0.0,0.0,0.0,0.0,0.0,0.0,11.0,12.0,13.0,14.0,43.47
2024-04-03 17:19:20,359.9375,-6.875,14.875,0.08323768615208271,0.0,0.0,-1.0,0.0,0.0,0.0,0.0,0.0,0.0,-0.0,0.0,0.0,0.0,0.0,0.0,11.0,12.0,13.0,14.0,44.008
2024-04-03 17:19:20,359.9375,-6.875,14.875,0.08323768615208271,0.0,0.0,-1.0,0.0,0.0,0.0,0.0,0.0,0.0,-0.0,0.0,0.0,0.0,0.0,0.0,11.0,12.0,13.0,14.0,44.008
2024-04-03 17:19:20,359.9375,-6.875,14.875,0.08323768615208271,0.0,0.0,108.0,0.0,0.0,0.0,0.0,0.0,0.0,-0.0,0.0,0.0,0.0,0.0,0.0,11.0,12.0,13.0,14.0,43.47
2024-04-03 17:19:20,359.9375,-6.875,14.875,0.08323768615208271,0.0,0.0,-1.0,0.0,0.0,0.0,0.0,0.0,0.0,-0.0,0.0,0.0,0.0,0.0,0.0,11.0,12.0,13.0,14.0,43.47
2024-04-03 17:19:20,359.9375,-6.875,14.875,0.08323768615208271,0.0,0.0,-1.0,0.0,0.0,0.0,0.0,0.0,0.0,-0.0,0.0,0.0,0.0,0.0,0.0,11.0,12.0,13.0,14.0,43.47
2024-04-03 17:19:20,359.9375,-6.875,14.875,0.08323768615208271,0.0,0.0,108.0,0.0,0.0,0.0,0.0,0.0,0.0,-0.0,0.0,0.0,0.0,0.0,0.0,11.0,12.0,13.0,14.0,43.47
2024-04-03 17:19:20,359.9375,-6.875,14.875,0.08323768615208271,0.0,0.0,-1.0,0.0,0.0,0.0,0.0,0.0,0.0,-0.0,0.0,0.0,0.0,0.0,0.0,11.0,12.0,13.0,14.0,43.47
2024-04-03 17:19:20,359.9375,-6.875,14.875,0.08323768615208271,0.0,0.0,-1.0,0.0,0.0,0.0,0.0,0.0,0.0,-0.0,0.0,0.0,0.0,0.0,0.0,11.0,12.0,13.0,14.0,44.008
2024-04-03 17:19:21,359.9375,-6.875,14.875,0.08323768615208271,0.0,0.0,-1.0,0.0,0.0,0.0,0.0,0.0,0.0,-0.0,0.0,0.0,0.0,0.0,0.0,11.0,12.0,13.0,14.0,44.008
2024-04-03 17:19:21,359.9375,-6.875,14.875,0.08323768615208271,0.0,0.0,-1.0,0.0,0.0,0.0,0.0,0.0,0.0,-0.0,0.0,0.0,0.0,0.0,0.0,11.0,12.0,13.0,14.0,44.008
2024-04-03 17:19:21,359.9375,-6.875,14.875,0.08493419272747281,0.0,0.0,108.0,0.0,0.0,0.0,0.0,0.0,0.0,-0.0,0.0,0.0,0.0,0.0,0.0,11.0,12.0,13.0,14.0,43.47
2024-04-03 17:19:21,359.9375,-6.875,14.875,0.08493419272747281,0.0,0.0,-1.0,0.0,0.0,0.0,0.0,0.0,0.0,-0.0,0.0,0.0,0.0,0.0,0.0,11.0,12.0,13.0,14.0,43.47
2024-04-03 17:19:21,359.9375,-6.875,14.875,0.08493419272747281,0.0,0.0,-1.0,0.0,0.0,0.0,0.0,0.0,0.0,-0.0,0.0,0.0,0.0,0.0,0.0,11.0,12.0,13.0,14.0,44.008
2024-04-03 17:19:21,359.9375,-6.875,14.875,0.08493419272747281,0.0,0.0,-1.0,0.0,0.0,0.0,0.0,0.0,0.0,-0.0,0.0,0.0,0.0,0.0,0.0,11.0,12.0,13.0,14.0,43.47
2024-04-03 17:19:21,359.9375,-6.875,14.875,0.08493419272747281,0.0,0.0,-1.0,0.0,0.0,0.0,0.0,0.0,0.0,-0.0,0.0,0.0,0.0,0.0,0.0,11.0,12.0,13.0,14.0,44.008
2024-04-03 17:19:21,359.9375,-6.875,14.875,0.08493419272747281,0.0,0.0,-1.0,0.0,0.0,0.0,0.0,0.0,0.0,-0.0,0.0,0.0,0.0,0.0,0.0,11.0,12.0,13.0,14.0,44.008
2024-04-03 17:19:21,359.9375,-6.875,14.875,0.08493419272747281,0.0,0.0,108.0,0.0,0.0,0.0,0.0,0.0,0.0,-0.0,0.0,0.0,0.0,0.0,0.0,11.0,12.0,13.0,14.0,43.47
2024-04-03 17:19:21,359.9375,-6.875,14.875,0.08493419272747281,0.0,0.0,-1.0,0.0,0.0,0.0,0.0,0.0,0.0,-0.0,0.0,0.0,0.0,0.0,0.0,11.0,12.0,13.0,14.0,43.47
2024-04-03 17:19:22,359.9375,-6.875,14.875,0.08493419272747281,0.0,0.0,0.0,0.0,0.0,0.0,0.0,0.0,0.0,-0.0,0.0,0.0,0.0,0.0,0.0,11.0,12.0,13.0,14.0,44.008
2024-04-03 17:19:22,359.9375,-6.875,14.875,0.08493419272747281,0.0,0.0,-1.0,0.0,0.0,0.0,0.0,0.0,0.0,-0.0,0.0,0.0,0.0,0.0,0.0,11.0,12.0,13.0,14.0,43.47
2024-04-03 17:19:22,359.9375,-6.875,14.875,0.08493419272747281,0.0,0.0,-1.0,0.0,0.0,0.0,0.0,0.0,0.0,-0.0,0.0,0.0,0.0,0.0,0.0,11.0,12.0,13.0,14.0,44.008
2024-04-03 17:19:22,359.9375,-6.875,14.875,0.08339166745659654,0.0,0.0,-1.0,0.0,0.0,0.0,0.0,0.0,0.0,-0.0,0.0,0.0,0.0,0.0,0.0,11.0,12.0,13.0,14.0,43.47
2024-04-03 17:19:22,359.9375,-6.875,14.875,0.08339166745659654,0.0,0.0,-1.0,0.0,0.0,0.0,0.0,0.0,0.0,-0.0,0.0,0.0,0.0,0.0,0.0,11.0,12.0,13.0,14.0,44.008
2024-04-03 17:19:22,359.9375,-6.875,14.875,0.08339166745659654,0.0,0.0,107.0,0.0,0.0,0.0,0.0,0.0,0.0,-0.0,0.0,0.0,0.0,0.0,0.0,11.0,12.0,13.0,14.0,44.008
2024-04-03 17:19:22,359.9375,-6.875,14.875,0.08339166745659654,0.0,0.0,-1.0,0.0,0.0,0.0,0.0,0.0,0.0,-0.0,0.0,0.0,0.0,0.0,0.0,11.0,12.0,13.0,14.0,42.932
2024-04-03 17:19:22,359.9375,-6.875,14.875,0.08339166745659654,0.0,0.0,-1.0,0.0,0.0,0.0,0.0,0.0,0.0,-0.0,0.0,0.0,0.0,0.0,0.0,11.0,12.0,13.0,14.0,43.47
2024-04-03 17:19:22,359.9375,-6.875,14.875,0.08339166745659654,0.0,0.0,108.0,0.0,0.0,0.0,0.0,0.0,0.0,-0.0,0.0,0.0,0.0,0.0,0.0,11.0,12.0,13.0,14.0,44.008
2024-04-03 17:19:22,359.9375,-6.875,14.875,0.08339166745659654,0.0,0.0,-1.0,0.0,0.0,0.0,0.0,0.0,0.0,-0.0,0.0,0.0,0.0,0.0,0.0,11.0,12.0,13.0,14.0,44.008
2024-04-03 17:19:22,359.9375,-6.875,14.875,0.08339166745659654,0.0,0.0,-1.0,0.0,0.0,0.0,0.0,0.0,0.0,-0.0,0.0,0.0,0.0,0.0,0.0,11.0,12.0,13.0,14.0,43.47
2024-04-03 17:19:22,359.9375,-6.875,14.875,0.08339166745659654,0.0,0.0,108.0,0.0,0.0,0.0,0.0,0.0,0.0,-0.0,0.0,0.0,0.0,0.0,0.0,11.0,12.0,13.0,14.0,44.008
2024-04-03 17:19:22,359.9375,-6.875,14.875,0.08339166745659654,0.0,0.0,-1.0,0.0,0.0,0.0,0.0,0.0,0.0,-0.0,0.0,0.0,0.0,0.0,0.0,11.0,12.0,13.0,14.0,44.008
2024-04-03 17:19:22,359.9375,-6.875,14.875,0.08339166745659654,0.0,0.0,-1.0,0.0,0.0,0.0,0.0,0.0,0.0,-0.0,0.0,0.0,0.0,0.0,0.0,11.0,12.0,13.0,14.0,44.008
2024-04-03 17:19:23,359.9375,-6.875,14.875,0.08339166745659654,0.0,0.0,109.0,0.0,0.0,0.0,0.0,0.0,0.0,-0.0,0.0,0.0,0.0,0.0,0.0,11.0,12.0,13.0,14.0,42.932
2024-04-03 17:19:23,359.9375,-6.875,14.875,0.08339166745659654,0.0,0.0,-1.0,0.0,0.0,0.0,0.0,0.0,0.0,-0.0,0.0,0.0,0.0,0.0,0.0,11.0,12.0,13.0,14.0,43.47
2024-04-03 17:19:23,359.9375,-6.875,14.875,0.0846577112248633,0.0,0.0,108.0,0.0,0.0,0.0,0.0,0.0,0.0,-0.0,0.0,0.0,0.0,0.0,0.0,11.0,12.0,13.0,14.0,44.008
2024-04-03 17:19:23,359.9375,-6.875,14.875,0.0846577112248633,0.0,0.0,-1.0,0.0,0.0,0.0,0.0,0.0,0.0,-0.0,0.0,0.0,0.0,0.0,0.0,11.0,12.0,13.0,14.0,44.008
2024-04-03 17:19:23,359.9375,-6.875,14.875,0.0846577112248633,0.0,0.0,-1.0,0.0,0.0,0.0,0.0,0.0,0.0,-0.0,0.0,0.0,0.0,0.0,0.0,11.0,12.0,13.0,14.0,44.008
2024-04-03 17:19:23,359.9375,-6.875,14.875,0.0846577112248633,0.0,0.0,107.0,0.0,0.0,0.0,0.0,0.0,0.0,-0.0,0.0,0.0,0.0,0.0,0.0,11.0,12.0,13.0,14.0,43.47
2024-04-03 17:19:23,359.9375,-6.875,14.875,0.0846577112248633,0.0,0.0,-1.0,0.0,0.0,0.0,0.0,0.0,0.0,-0.0,0.0,0.0,0.0,0.0,0.0,11.0,12.0,13.0,14.0,44.008
2024-04-03 17:19:23,359.9375,-6.875,14.875,0.0846577112248633,0.0,0.0,-1.0,0.0,0.0,0.0,0.0,0.0,0.0,-0.0,0.0,0.0,0.0,0.0,0.0,11.0,12.0,13.0,14.0,44.008
2024-04-03 17:19:23,359.9375,-6.875,14.875,0.0846577112248633,0.0,0.0,-1.0,0.0,0.0,0.0,0.0,0.0,0.0,-0.0,0.0,0.0,0.0,0.0,0.0,11.0,12.0,13.0,14.0,44.008
2024-04-03 17:19:23,359.9375,-6.875,14.875,0.0846577112248633,0.0,0.0,-1.0,0.0,0.0,0.0,0.0,0.0,0.0,-0.0,0.0,0.0,0.0,0.0,0.0,11.0,12.0,13.0,14.0,43.47
2024-04-03 17:19:23,359.9375,-6.875,14.875,0.0846577112248633,0.0,0.0,-1.0,0.0,0.0,0.0,0.0,0.0,0.0,-0.0,0.0,0.0,0.0,0.0,0.0,11.0,12.0,13.0,14.0,44.008
2024-04-03 17:19:23,359.9375,-6.875,14.875,0.0846577112248633,0.0,0.0,-1.0,0.0,0.0,0.0,0.0,0.0,0.0,-0.0,0.0,0.0,0.0,0.0,0.0,11.0,12.0,13.0,14.0,44.008
2024-04-03 17:19:23,359.9375,-6.875,14.875,0.0846577112248633,0.0,0.0,-1.0,0.0,0.0,0.0,0.0,0.0,0.0,-0.0,0.0,0.0,0.0,0.0,0.0,11.0,12.0,13.0,14.0,43.47
2024-04-03 17:19:23,359.9375,-6.875,14.875,0.0846577112248633,0.0,0.0,108.0,0.0,0.0,0.0,0.0,0.0,0.0,-0.0,0.0,0.0,0.0,0.0,0.0,11.0,12.0,13.0,14.0,44.008
2024-04-03 17:19:23,359.9375,-6.875,14.875,0.0846577112248633,0.0,0.0,-1.0,0.0,0.0,0.0,0.0,0.0,0.0,-0.0,0.0,0.0,0.0,0.0,0.0,11.0,12.0,13.0,14.0,43.47
2024-04-03 17:19:24,359.9375,-6.875,14.875,0.0846577112248633,0.0,0.0,-1.0,0.0,0.0,0.0,0.0,0.0,0.0,-0.0,0.0,0.0,0.0,0.0,0.0,11.0,12.0,13.0,14.0,44.008
2024-04-03 17:19:24,359.9375,-6.875,14.875,0.08110267551866235,0.0,0.0,-1.0,0.0,0.0,0.0,0.0,0.0,0.0,-0.0,0.0,0.0,0.0,0.0,0.0,11.0,12.0,13.0,14.0,43.47
2024-04-03 17:19:24,359.9375,-6.875,14.875,0.08110267551866235,0.0,0.0,-1.0,0.0,0.0,0.0,0.0,0.0,0.0,-0.0,0.0,0.0,0.0,0.0,0.0,11.0,12.0,13.0,14.0,43.47
2024-04-03 17:19:24,359.9375,-6.875,14.875,0.08110267551866235,0.0,0.0,-1.0,0.0,0.0,0.0,0.0,0.0,0.0,-0.0,0.0,0.0,0.0,0.0,0.0,11.0,12.0,13.0,14.0,43.47
2024-04-03 17:19:24,359.9375,-6.875,14.875,0.08110267551866235,0.0,0.0,108.0,0.0,0.0,0.0,0.0,0.0,0.0,-0.0,0.0,0.0,0.0,0.0,0.0,11.0,12.0,13.0,14.0,44.008
2024-04-03 17:19:24,359.9375,-6.875,14.875,0.08110267551866235,0.0,0.0,-1.0,0.0,0.0,0.0,0.0,0.0,0.0,-0.0,0.0,0.0,0.0,0.0,0.0,11.0,12.0,13.0,14.0,44.008
2024-04-03 17:19:24,359.9375,-6.875,14.875,0.08110267551866235,0.0,0.0,-1.0,0.0,0.0,0.0,0.0,0.0,0.0,-0.0,0.0,0.0,0.0,0.0,0.0,11.0,12.0,13.0,14.0,43.47
2024-04-03 17:19:24,359.9375,-6.875,14.875,0.08110267551866235,0.0,0.0,0.0,0.0,0.0,0.0,0.0,0.0,0.0,-0.0,0.0,0.0,0.0,0.0,0.0,11.0,12.0,13.0,14.0,43.47
2024-04-03 17:19:24,359.9375,-6.875,14.875,0.08110267551866235,0.0,0.0,-1.0,0.0,0.0,0.0,0.0,0.0,0.0,-0.0,0.0,0.0,0.0,0.0,0.0,11.0,12.0,13.0,14.0,43.47
2024-04-03 17:19:24,359.9375,-6.875,14.875,0.08110267551866235,0.0,0.0,-1.0,0.0,0.0,0.0,0.0,0.0,0.0,-0.0,0.0,0.0,0.0,0.0,0.0,11.0,12.0,13.0,14.0,43.47
2024-04-03 17:19:24,359.9375,-6.875,14.875,0.08110267551866235,0.0,0.0,108.0,0.0,0.0,0.0,0.0,0.0,0.0,-0.0,0.0,0.0,0.0,0.0,0.0,11.0,12.0,13.0,14.0,44.008
2024-04-03 17:19:24,359.9375,-6.875,14.875,0.08110267551866235,0.0,0.0,-1.0,0.0,0.0,0.0,0.0,0.0,0.0,-0.0,0.0,0.0,0.0,0.0,0.0,11.0,12.0,13.0,14.0,43.47
2024-04-03 17:19:24,359.9375,-6.875,14.875,0.08110267551866235,0.0,0.0,-1.0,0.0,0.0,0.0,0.0,0.0,0.0,-0.0,0.0,0.0,0.0,0.0,0.0,11.0,12.0,13.0,14.0,43.47
2024-04-03 17:19:24,359.9375,-6.875,14.875,0.08110267551866235,0.0,0.0,108.0,0.0,0.0,0.0,0.0,0.0,0.0,-0.0,0.0,0.0,0.0,0.0,0.0,11.0,12.0,13.0,14.0,44.008
2024-04-03 17:19:25,359.9375,-6.875,14.875,0.08256518196572207,0.0,0.0,-1.0,0.0,0.0,0.0,0.0,0.0,0.0,-0.0,0.0,0.0,0.0,0.0,0.0,11.0,12.0,13.0,14.0,44.008
2024-04-03 17:19:25,359.9375,-6.875,14.875,0.08256518196572207,0.0,0.0,-1.0,0.0,0.0,0.0,0.0,0.0,0.0,-0.0,0.0,0.0,0.0,0.0,0.0,11.0,12.0,13.0,14.0,44.008
2024-04-03 17:19:25,359.9375,-6.875,14.875,0.08256518196572207,0.0,0.0,-1.0,0.0,0.0,0.0,0.0,0.0,0.0,-0.0,0.0,0.0,0.0,0.0,0.0,11.0,12.0,13.0,14.0,44.008
2024-04-03 17:19:25,359.9375,-6.875,14.875,0.08256518196572207,0.0,0.0,-1.0,0.0,0.0,0.0,0.0,0.0,0.0,-0.0,0.0,0.0,0.0,0.0,0.0,11.0,12.0,13.0,14.0,43.47
2024-04-03 17:19:25,359.9375,-6.875,14.875,0.08256518196572207,0.0,0.0,107.0,0.0,0.0,0.0,0.0,0.0,0.0,-0.0,0.0,0.0,0.0,0.0,0.0,11.0,12.0,13.0,14.0,43.47
2024-04-03 17:19:25,359.9375,-6.875,14.875,0.08256518196572207,0.0,0.0,-1.0,0.0,0.0,0.0,0.0,0.0,0.0,-0.0,0.0,0.0,0.0,0.0,0.0,11.0,12.0,13.0,14.0,44.008
2024-04-03 17:19:25,359.9375,-6.875,14.875,0.08256518196572207,0.0,0.0,-1.0,0.0,0.0,0.0,0.0,0.0,0.0,-0.0,0.0,0.0,0.0,0.0,0.0,11.0,12.0,13.0,14.0,44.008
2024-04-03 17:19:25,359.9375,-6.875,14.875,0.08256518196572207,0.0,0.0,107.0,0.0,0.0,0.0,0.0,0.0,0.0,-0.0,0.0,0.0,0.0,0.0,0.0,11.0,12.0,13.0,14.0,43.47
2024-04-03 17:19:25,359.9375,-6.875,14.875,0.08256518196572207,0.0,0.0,-1.0,0.0,0.0,0.0,0.0,0.0,0.0,-0.0,0.0,0.0,0.0,0.0,0.0,11.0,12.0,13.0,14.0,44.008
