Timestamp,Yaw,Pitch,Roll,Depth,Depth Set,Depth Control,Water,Roll Control,Pitch Control,Thruster1,Thruster2,Thruster3,Thruster4,Thruster5,Thruster6,BCD1,BCD2,BCD3,BCD4,BCD1 Volt,BCD2 Volt,BCD3 Volt,BCD4 Volt,CPU
2024-04-03 18:17:53,357.75,0.0,-2.75,0.08891865734987872,0.0,0.0,-1.0,0.0,0.0,0.0,0.0,0.0,0.0,0.0,0.0,0.0,0.0,0.0,0.0,-1.0,-1.0,-1.0,-1.0,50.464
2024-04-03 18:17:53,357.75,0.0,-2.6875,0.08891865734987872,0.0,0.0,-1.0,0.0,0.0,0.0,0.0,0.0,0.0,0.0,0.0,0.0,0.0,0.0,0.0,-1.0,-1.0,-1.0,-1.0,50.464
2024-04-03 18:17:53,357.75,0.0,-2.375,0.08891865734987872,0.0,0.0,114.0,0.0,0.0,0.0,0.0,0.0,0.0,0.0,0.0,0.0,0.0,0.0,0.0,-1.0,-1.0,-1.0,-1.0,51.002
2024-04-03 18:17:54,357.75,0.0,-2.25,0.08891865734987872,0.0,0.0,-1.0,0.0,0.0,0.0,0.0,0.0,0.0,0.0,0.0,0.0,0.0,0.0,0.0,-1.0,-1.0,-1.0,-1.0,50.464
2024-04-03 18:17:54,357.75,0.0,-2.3125,0.08891865734987872,0.0,0.0,-1.0,0.0,0.0,0.0,0.0,0.0,0.0,0.0,0.0,0.0,0.0,0.0,0.0,-1.0,-1.0,-1.0,-1.0,50.464
2024-04-03 18:17:54,357.75,0.0,-2.375,0.08891865734987872,0.0,0.0,115.0,0.0,0.0,0.0,0.0,0.0,0.0,0.0,0.0,0.0,0.0,0.0,0.0,-1.0,-1.0,-1.0,-1.0,51.54
2024-04-03 18:17:54,357.75,0.0,-2.375,0.08891865734987872,0.0,0.0,-1.0,0.0,0.0,0.0,0.0,0.0,0.0,0.0,0.0,0.0,0.0,0.0,0.0,-1.0,-1.0,-1.0,-1.0,51.002
2024-04-03 18:17:54,357.75,0.0,-2.375,0.08891865734987872,0.0,0.0,-1.0,0.0,0.0,0.0,0.0,0.0,0.0,0.0,0.0,0.0,0.0,0.0,0.0,-1.0,-1.0,-1.0,-1.0,51.002
2024-04-03 18:17:54,357.75,0.0,-2.3125,0.08891865734987872,0.0,0.0,-1.0,0.0,0.0,0.0,0.0,0.0,0.0,0.0,0.0,0.0,0.0,0.0,0.0,-1.0,-1.0,-1.0,-1.0,51.002
2024-04-03 18:17:54,357.75,0.0,-2.3125,0.08733529925520973,0.0,0.0,-1.0,0.0,0.0,0.0,0.0,0.0,0.0,0.0,0.0,0.0,0.0,0.0,0.0,-1.0,-1.0,-1.0,-1.0,50.464
2024-04-03 18:17:54,357.75,0.0,-2.3125,0.08733529925520973,0.0,0.0,-1.0,0.0,0.0,0.0,0.0,0.0,0.0,0.0,0.0,0.0,0.0,0.0,0.0,-1.0,-1.0,-1.0,-1.0,50.464
2024-04-03 18:17:54,357.75,0.0,-2.3125,0.08733529925520973,0.0,0.0,-1.0,0.0,0.0,0.0,0.0,0.0,0.0,0.0,0.0,0.0,0.0,0.0,0.0,-1.0,-1.0,-1.0,-1.0,51.002
2024-04-03 18:17:54,357.75,0.0,-2.3125,0.08733529925520973,0.0,0.0,-1.0,0.0,0.0,0.0,0.0,0.0,0.0,0.0,0.0,0.0,0.0,0.0,0.0,-1.0,-1.0,-1.0,-1.0,51.54
2024-04-03 18:17:54,357.75,0.0,-2.3125,0.08733529925520973,0.0,0.0,-1.0,0.0,0.0,0.0,0.0,0.0,0.0,0.0,0.0,0.0,0.0,0.0,0.0,-1.0,-1.0,-1.0,-1.0,51.002
2024-04-03 18:17:54,357.75,0.0,-2.3125,0.08733529925520973,0.0,0.0,-1.0,0.0,0.0,0.0,0.0,0.0,0.0,0.0,0.0,0.0,0.0,0.0,0.0,-1.0,-1.0,-1.0,-1.0,50.464
2024-04-03 18:17:54,357.75,0.0,-2.3125,0.08733529925520973,0.0,0.0,-1.0,0.0,0.0,0.0,0.0,0.0,0.0,0.0,0.0,0.0,0.0,0.0,0.0,-1.0,-1.0,-1.0,-1.0,50.464
2024-04-03 18:17:54,357.75,0.0,-2.3125,0.08733529925520973,0.0,0.0,117.0,0.0,0.0,0.0,0.0,0.0,0.0,0.0,0.0,0.0,0.0,0.0,0.0,-1.0,-1.0,-1.0,-1.0,50.464
2024-04-03 18:17:55,357.75,0.0,-2.3125,0.08733529925520973,0.0,0.0,-1.0,0.0,0.0,0.0,0.0,0.0,0.0,0.0,0.0,0.0,0.0,0.0,0.0,-1.0,-1.0,-1.0,-1.0,51.54
2024-04-03 18:17:55,357.75,0.0,-2.3125,0.08733529925520973,0.0,0.0,-1.0,0.0,0.0,0.0,0.0,0.0,0.0,0.0,0.0,0.0,0.0,0.0,0.0,-1.0,-1.0,-1.0,-1.0,49.926
2024-04-03 18:17:55,357.75,0.0,-2.3125,0.08733529925520973,0.0,0.0,117.0,0.0,0.0,0.0,0.0,0.0,0.0,0.0,0.0,0.0,0.0,0.0,0.0,-1.0,-1.0,-1.0,-1.0,50.464
2024-04-03 18:17:55,357.75,0.0,-2.3125,0.08733529925520973,0.0,0.0,-1.0,0.0,0.0,0.0,0.0,0.0,0.0,0.0,0.0,0.0,0.0,0.0,0.0,-1.0,-1.0,-1.0,-1.0,51.54
2024-04-03 18:17:55,357.75,0.0,-2.3125,0.08733529925520973,0.0,0.0,-1.0,0.0,0.0,0.0,0.0,0.0,0.0,0.0,0.0,0.0,0.0,0.0,0.0,-1.0,-1.0,-1.0,-1.0,50.464
2024-04-03 18:17:55,357.75,0.0,-2.3125,0.08302807573709692,0.0,0.0,117.0,0.0,0.0,0.0,0.0,0.0,0.0,0.0,0.0,0.0,0.0,0.0,0.0,-1.0,-1.0,-1.0,-1.0,50.464
2024-04-03 18:17:55,357.75,0.0,-2.3125,0.08302807573709692,0.0,0.0,-1.0,0.0,0.0,0.0,0.0,0.0,0.0,0.0,0.0,0.0,0.0,0.0,0.0,-1.0,-1.0,-1.0,-1.0,51.54
2024-04-03 18:17:55,357.75,0.0,-2.3125,0.08302807573709692,0.0,0.0,-1.0,0.0,0.0,0.0,0.0,0.0,0.0,0.0,0.0,0.0,0.0,0.0,0.0,-1.0,-1.0,-1.0,-1.0,51.002
2024-04-03 18:17:55,357.75,0.0,-2.3125,0.08302807573709692,0.0,0.0,-1.0,0.0,0.0,0.0,0.0,0.0,0.0,0.0,0.0,0.0,0.0,0.0,0.0,-1.0,-1.0,-1.0,-1.0,50.464
2024-04-03 18:17:55,357.75,0.0,-2.3125,0.08302807573709692,0.0,0.0,-1.0,0.0,0.0,0.0,0.0,0.0,0.0,0.0,0.0,0.0,0.0,0.0,0.0,-1.0,-1.0,-1.0,-1.0,51.54
2024-04-03 18:17:55,357.75,0.0,-2.125,0.08302807573709692,0.0,0.0,-1.0,0.0,0.0,0.0,0.0,0.0,0.0,0.0,0.0,0.0,0.0,0.0,0.0,-1.0,-1.0,-1.0,-1.0,51.002
2024-04-03 18:17:55,357.75,0.0,-2.125,0.08302807573709692,0.0,0.0,-1.0,0.0,0.0,0.0,0.0,0.0,0.0,0.0,0.0,0.0,0.0,0.0,0.0,-1.0,-1.0,-1.0,-1.0,51.54
2024-04-03 18:17:55,357.75,0.0,-2.1875,0.08302807573709692,0.0,0.0,-1.0,0.0,0.0,0.0,0.0,0.0,0.0,0.0,0.0,0.0,0.0,0.0,0.0,-1.0,-1.0,-1.0,-1.0,51.002
2024-04-03 18:17:55,357.75,0.0,-2.1875,0.08302807573709692,0.0,0.0,116.0,0.0,0.0,0.0,0.0,0.0,0.0,0.0,0.0,0.0,0.0,0.0,0.0,-1.0,-1.0,-1.0,-1.0,51.002
2024-04-03 18:17:56,357.75,0.0,-2.25,0.08302807573709692,0.0,0.0,-1.0,0.0,0.0,0.0,0.0,0.0,0.0,0.0,0.0,0.0,0.0,0.0,0.0,-1.0,-1.0,-1.0,-1.0,51.54
2024-04-03 18:17:56,357.75,0.0,-2.25,0.08302807573709692,0.0,0.0,-1.0,0.0,0.0,0.0,0.0,0.0,0.0,0.0,0.0,0.0,0.0,0.0,0.0,-1.0,-1.0,-1.0,-1.0,51.54
2024-04-03 18:17:56,357.75,0.0,-1.75,0.08914856067701245,0.0,0.0,0.0,0.0,0.0,0.0,0.0,0.0,0.0,0.0,0.0,0.0,0.0,0.0,0.0,-1.0,-1.0,-1.0,-1.0,51.54
2024-04-03 18:17:56,357.75,0.0,-1.5625,0.08914856067701245,0.0,0.0,-1.0,0.0,0.0,0.0,0.0,0.0,0.0,0.0,0.0,0.0,0.0,0.0,0.0,-1.0,-1.0,-1.0,-1.0,51.54
2024-04-03 18:17:56,357.75,0.0,-1.625,0.08914856067701245,0.0,0.0,-1.0,0.0,0.0,0.0,0.0,0.0,0.0,0.0,0.0,0.0,0.0,0.0,0.0,-1.0,-1.0,-1.0,-1.0,51.54
2024-04-03 18:17:56,357.8125,0.0,-1.75,0.08914856067701245,0.0,0.0,115.0,0.0,0.0,0.0,0.0,0.0,0.0,0.0,0.0,0.0,0.0,0.0,0.0,-1.0,-1.0,-1.0,-1.0,51.54
2024-04-03 18:17:56,357.6875,0.0625,-1.6875,0.08914856067701245,0.0,0.0,-1.0,0.0,0.0,0.0,0.0,0.0,0.0,0.0,0.0,0.0,0.0,0.0,0.0,-1.0,-1.0,-1.0,-1.0,51.54
2024-04-03 18:17:56,357.9375,0.0625,-1.875,0.08914856067701245,0.0,0.0,-1.0,0.0,0.0,0.0,0.0,0.0,0.0,0.0,0.0,0.0,0.0,0.0,0.0,-1.0,-1.0,-1.0,-1.0,51.54
2024-04-03 18:17:56,358.0,0.0625,-1.8125,0.08914856067701245,0.0,0.0,-1.0,0.0,0.0,0.0,0.0,0.0,0.0,0.0,0.0,0.0,0.0,0.0,0.0,-1.0,-1.0,-1.0,-1.0,51.54
2024-04-03 18:17:56,358.0,0.0,-1.625,0.08914856067701245,0.0,0.0,-1.0,0.0,0.0,0.0,0.0,0.0,0.0,0.0,0.0,0.0,0.0,0.0,0.0,-1.0,-1.0,-1.0,-1.0,51.54
2024-04-03 18:17:56,358.0,0.0,-2.125,0.08914856067701245,0.0,0.0,116.0,0.0,0.0,0.0,0.0,0.0,0.0,0.0,0.0,0.0,0.0,0.0,0.0,-1.0,-1.0,-1.0,-1.0,51.54
2024-04-03 18:17:56,358.0625,0.0,-2.1875,0.08914856067701245,0.0,0.0,-1.0,0.0,0.0,0.0,0.0,0.0,0.0,0.0,0.0,0.0,0.0,0.0,0.0,-1.0,-1.0,-1.0,-1.0,51.002
2024-04-03 18:17:56,358.0625,0.0,-2.0,0.08914856067701245,0.0,0.0,-1.0,0.0,0.0,0.0,0.0,0.0,0.0,0.0,0.0,0.0,0.0,0.0,0.0,-1.0,-1.0,-1.0,-1.0,50.464
2024-04-03 18:17:57,358.0625,0.0,-2.0,0.08914856067701245,0.0,0.0,-1.0,0.0,0.0,0.0,0.0,0.0,0.0,0.0,0.0,0.0,0.0,0.0,0.0,-1.0,-1.0,-1.0,-1.0,51.54
2024-04-03 18:17:57,358.0625,0.0,-2.1875,0.08914856067701245,0.0,0.0,-1.0,0.0,0.0,0.0,0.0,0.0,0.0,0.0,0.0,0.0,0.0,0.0,0.0,-1.0,-1.0,-1.0,-1.0,51.002
2024-04-03 18:17:57,358.0625,0.0,-2.125,0.09061052073004183,0.0,0.0,111.0,0.0,0.0,0.0,0.0,0.0,0.0,0.0,0.0,0.0,0.0,0.0,0.0,-1.0,-1.0,-1.0,-1.0,51.002
2024-04-03 18:17:57,358.0625,0.0,-2.0625,0.09061052073004183,0.0,0.0,-1.0,0.0,0.0,0.0,0.0,0.0,0.0,0.0,0.0,0.0,0.0,0.0,0.0,-1.0,-1.0,-1.0,-1.0,51.002
2024-04-03 18:17:57,358.0,0.0,-2.1875,0.09061052073004183,0.0,0.0,-1.0,0.0,0.0,0.0,0.0,0.0,0.0,0.0,0.0,0.0,0.0,0.0,0.0,-1.0,-1.0,-1.0,-1.0,51.54
2024-04-03 18:17:57,357.8125,0.0,-2.125,0.09061052073004183,0.0,0.0,0.0,0.0,0.0,0.0,0.0,0.0,0.0,0.0,0.0,0.0,0.0,0.0,0.0,-1.0,-1.0,-1.0,-1.0,51.54
2024-04-03 18:17:57,357.75,0.0,-2.3125,0.09061052073004183,0.0,0.0,-1.0,0.0,0.0,0.0,0.0,0.0,0.0,0.0,0.0,0.0,0.0,0.0,0.0,-1.0,-1.0,-1.0,-1.0,51.54
2024-04-03 18:17:57,357.75,0.0,-2.5,0.09061052073004183,0.0,0.0,-1.0,0.0,0.0,0.0,0.0,0.0,0.0,0.0,0.0,0.0,0.0,0.0,0.0,-1.0,-1.0,-1.0,-1.0,51.002
2024-04-03 18:17:57,357.75,0.0,-2.625,0.09061052073004183,0.0,0.0,-1.0,0.0,0.0,0.0,0.0,0.0,0.0,0.0,0.0,0.0,0.0,0.0,0.0,-1.0,-1.0,-1.0,-1.0,50.464
2024-04-03 18:17:57,357.75,0.0,-2.4375,0.09061052073004183,0.0,0.0,-1.0,0.0,0.0,0.0,0.0,0.0,0.0,0.0,0.0,0.0,0.0,0.0,0.0,-1.0,-1.0,-1.0,-1.0,51.54
2024-04-03 18:17:57,357.75,0.0,-2.375,0.09061052073004183,0.0,0.0,118.0,0.0,0.0,0.0,0.0,0.0,0.0,0.0,0.0,0.0,0.0,0.0,0.0,-1.0,-1.0,-1.0,-1.0,50.464
2024-04-03 18:17:57,357.6875,0.0625,-2.5625,0.09061052073004183,0.0,0.0,-1.0,0.0,0.0,0.0,0.0,0.0,0.0,0.0,0.0,0.0,0.0,0.0,0.0,-1.0,-1.0,-1.0,-1.0,50.464
2024-04-03 18:17:57,357.6875,0.0625,-2.8125,0.09061052073004183,0.0,0.0,-1.0,0.0,0.0,0.0,0.0,0.0,0.0,0.0,0.0,0.0,0.0,0.0,0.0,-1.0,-1.0,-1.0,-1.0,51.002
2024-04-03 18:17:57,357.625,0.0625,-3.0,0.09061052073004183,0.0,0.0,118.0,0.0,0.0,0.0,0.0,0.0,0.0,0.0,0.0,0.0,0.0,0.0,0.0,-1.0,-1.0,-1.0,-1.0,51.002
2024-04-03 18:17:58,357.5,0.125,-3.25,0.09061052073004183,0.0,0.0,-1.0,0.0,0.0,0.0,0.0,0.0,0.0,0.0,0.0,0.0,0.0,0.0,0.0,-1.0,-1.0,-1.0,-1.0,50.464
2024-04-03 18:17:58,357.625,0.3125,-3.25,0.08827014240761673,0.0,0.0,118.0,0.0,0.0,0.0,0.0,0.0,0.0,0.0,0.0,0.0,0.0,0.0,0.0,-1.0,-1.0,-1.0,-1.0,51.54
2024-04-03 18:17:58,357.9375,0.25,-3.4375,0.08827014240761673,0.0,0.0,-1.0,0.0,0.0,0.0,0.0,0.0,0.0,0.0,0.0,0.0,0.0,0.0,0.0,-1.0,-1.0,-1.0,-1.0,51.54
2024-04-03 18:17:58,358.25,0.25,-3.8125,0.08827014240761673,0.0,0.0,-1.0,0.0,0.0,0.0,0.0,0.0,0.0,0.0,0.0,0.0,0.0,0.0,0.0,-1.0,-1.0,-1.0,-1.0,51.002
2024-04-03 18:17:58,358.5625,0.25,-4.5,0.08827014240761673,0.0,0.0,118.0,0.0,0.0,0.0,0.0,0.0,0.0,0.0,0.0,0.0,0.0,0.0,0.0,-1.0,-1.0,-1.0,-1.0,50.464
2024-04-03 18:17:58,358.9375,0.0,-5.0,0.08827014240761673,0.0,0.0,-1.0,0.0,0.0,0.0,0.0,0.0,0.0,0.0,0.0,0.0,0.0,0.0,0.0,-1.0,-1.0,-1.0,-1.0,50.464
2024-04-03 18:17:58,359.3125,0.0,-4.875,0.08827014240761673,0.0,0.0,-1.0,0.0,0.0,0.0,0.0,0.0,0.0,0.0,0.0,0.0,0.0,0.0,0.0,-1.0,-1.0,-1.0,-1.0,51.54
2024-04-03 18:17:58,359.625,0.0625,-4.75,0.08827014240761673,0.0,0.0,-1.0,0.0,0.0,0.0,0.0,0.0,0.0,0.0,0.0,0.0,0.0,0.0,0.0,-1.0,-1.0,-1.0,-1.0,51.002
2024-04-03 18:17:58,359.5625,0.1875,-4.625,0.08827014240761673,0.0,0.0,-1.0,0.0,0.0,0.0,0.0,0.0,0.0,0.0,0.0,0.0,0.0,0.0,0.0,-1.0,-1.0,-1.0,-1.0,51.54
2024-04-03 18:17:58,359.5625,0.1875,-4.0,0.08827014240761673,0.0,0.0,0.0,0.0,0.0,0.0,0.0,0.0,0.0,0.0,0.0,0.0,0.0,0.0,0.0,-1.0,-1.0,-1.0,-1.0,51.002
2024-04-03 18:17:58,359.5,0.1875,-2.9375,0.08827014240761673,0.0,0.0,-1.0,0.0,0.0,0.0,0.0,0.0,0.0,0.0,0.0,0.0,0.0,0.0,0.0,-1.0,-1.0,-1.0,-1.0,51.002
2024-04-03 18:17:58,359.5,0.125,-2.125,0.08827014240761673,0.0,0.0,-1.0,0.0,0.0,0.0,0.0,0.0,0.0,0.0,0.0,0.0,0.0,0.0,0.0,-1.0,-1.0,-1.0,-1.0,50.464
2024-04-03 18:17:58,359.5,0.125,-2.0,0.08827014240761673,0.0,0.0,117.0,0.0,0.0,0.0,0.0,0.0,0.0,0.0,0.0,0.0,0.0,0.0,0.0,-1.0,-1.0,-1.0,-1.0,50.464
2024-04-03 18:17:59,359.5,0.125,-0.875,0.09004410348961048,0.0,0.0,-1.0,0.0,0.0,0.0,0.0,0.0,0.0,0.0,0.0,0.0,0.0,0.0,0.0,-1.0,-1.0,-1.0,-1.0,50.464
2024-04-03 18:17:59,359.5,0.125,-0.6875,0.09004410348961048,0.0,0.0,117.0,0.0,0.0,0.0,0.0,0.0,0.0,0.0,0.0,0.0,0.0,0.0,0.0,-1.0,-1.0,-1.0,-1.0,51.54
2024-04-03 18:17:59,359.5,0.125,-1.125,0.09004410348961048,0.0,0.0,-1.0,0.0,0.0,0.0,0.0,0.0,0.0,0.0,0.0,0.0,0.0,0.0,0.0,-1.0,-1.0,-1.0,-1.0,51.002
2024-04-03 18:17:59,359.5,0.125,-1.0625,0.09004410348961048,0.0,0.0,-1.0,0.0,0.0,0.0,0.0,0.0,0.0,0.0,0.0,0.0,0.0,0.0,0.0,-1.0,-1.0,-1.0,-1.0,51.002
2024-04-03 18:17:59,359.5,0.125,-0.9375,0.09004410348961048,0.0,0.0,-1.0,0.0,0.0,0.0,0.0,0.0,0.0,0.0,0.0,0.0,0.0,0.0,0.0,-1.0,-1.0,-1.0,-1.0,51.002
2024-04-03 18:17:59,359.5,0.125,-1.125,0.09004410348961048,0.0,0.0,-1.0,0.0,0.0,0.0,0.0,0.0,0.0,0.0,0.0,0.0,0.0,0.0,0.0,-1.0,-1.0,-1.0,-1.0,50.464
2024-04-03 18:17:59,359.5,0.125,-1.0625,0.09004410348961048,0.0,0.0,-1.0,0.0,0.0,0.0,0.0,0.0,0.0,0.0,0.0,0.0,0.0,0.0,0.0,-1.0,-1.0,-1.0,-1.0,51.002
2024-04-03 18:17:59,359.4375,0.125,-1.0625,0.09004410348961048,0.0,0.0,-1.0,0.0,0.0,0.0,0.0,0.0,0.0,0.0,0.0,0.0,0.0,0.0,0.0,-1.0,-1.0,-1.0,-1.0,51.002
2024-04-03 18:17:59,359.4375,0.125,-1.125,0.09004410348961048,0.0,0.0,-1.0,0.0,0.0,0.0,0.0,0.0,0.0,0.0,0.0,0.0,0.0,0.0,0.0,-1.0,-1.0,-1.0,-1.0,50.464
2024-04-03 18:17:59,359.4375,0.125,-1.25,0.09004410348961048,0.0,0.0,-1.0,0.0,0.0,0.0,0.0,0.0,0.0,0.0,0.0,0.0,0.0,0.0,0.0,-1.0,-1.0,-1.0,-1.0,51.002
2024-04-03 18:17:59,359.4375,0.125,-2.0,0.09004410348961048,0.0,0.0,-1.0,0.0,0.0,0.0,0.0,0.0,0.0,0.0,0.0,0.0,0.0,0.0,0.0,-1.0,-1.0,-1.0,-1.0,50.464
2024-04-03 18:17:59,359.5,0.1875,-2.4375,0.09004410348961048,0.0,0.0,-1.0,0.0,0.0,0.0,0.0,0.0,0.0,0.0,0.0,0.0,0.0,0.0,0.0,-1.0,-1.0,-1.0,-1.0,51.002
2024-04-03 18:17:59,359.5625,0.3125,-2.1875,0.09004410348961048,0.0,0.0,-1.0,0.0,0.0,0.0,0.0,0.0,0.0,0.0,0.0,0.0,0.0,0.0,0.0,-1.0,-1.0,-1.0,-1.0,51.54
2024-04-03 18:18:00,359.625,0.3125,-1.5,0.09004410348961048,0.0,0.0,-1.0,0.0,0.0,0.0,0.0,0.0,0.0,0.0,0.0,0.0,0.0,0.0,0.0,-1.0,-1.0,-1.0,-1.0,50.464
2024-04-03 18:18:00,359.625,0.3125,-0.9375,0.09004410348961048,0.0,0.0,-1.0,0.0,0.0,0.0,0.0,0.0,0.0,0.0,0.0,0.0,0.0,0.0,0.0,-1.0,-1.0,-1.0,-1.0,51.54
2024-04-03 18:18:00,359.625,0.3125,-1.5625,0.0891415798427648,0.0,0.0,118.0,0.0,0.0,0.0,0.0,0.0,0.0,0.0,0.0,0.0,0.0,0.0,0.0,-1.0,-1.0,-1.0,-1.0,51.002
2024-04-03 18:18:00,359.5625,0.3125,-2.5,0.0891415798427648,0.0,0.0,-1.0,0.0,0.0,0.0,0.0,0.0,0.0,0.0,0.0,0.0,0.0,0.0,0.0,-1.0,-1.0,-1.0,-1.0,50.464
2024-04-03 18:18:00,359.5625,0.3125,-2.8125,0.0891415798427648,0.0,0.0,-1.0,0.0,0.0,0.0,0.0,0.0,0.0,0.0,0.0,0.0,0.0,0.0,0.0,-1.0,-1.0,-1.0,-1.0,51.54
2024-04-03 18:18:00,359.5625,0.3125,-2.375,0.0891415798427648,0.0,0.0,116.0,0.0,0.0,0.0,0.0,0.0,0.0,0.0,0.0,0.0,0.0,0.0,0.0,-1.0,-1.0,-1.0,-1.0,50.464
2024-04-03 18:18:00,359.5625,0.3125,-2.1875,0.0891415798427648,0.0,0.0,-1.0,0.0,0.0,0.0,0.0,0.0,0.0,0.0,0.0,0.0,0.0,0.0,0.0,-1.0,-1.0,-1.0,-1.0,51.54
2024-04-03 18:18:00,359.5625,0.3125,-2.3125,0.0891415798427648,0.0,0.0,-1.0,0.0,0.0,0.0,0.0,0.0,0.0,0.0,0.0,0.0,0.0,0.0,0.0,-1.0,-1.0,-1.0,-1.0,50.464
2024-04-03 18:18:00,359.5625,0.3125,-2.375,0.0891415798427648,0.0,0.0,-1.0,0.0,0.0,0.0,0.0,0.0,0.0,0.0,0.0,0.0,0.0,0.0,0.0,-1.0,-1.0,-1.0,-1.0,51.002
2024-04-03 18:18:00,359.5625,0.3125,-2.25,0.0891415798427648,0.0,0.0,-1.0,0.0,0.0,0.0,0.0,0.0,0.0,0.0,0.0,0.0,0.0,0.0,0.0,-1.0,-1.0,-1.0,-1.0,51.54
2024-04-03 18:18:00,359.5625,0.3125,-1.8125,0.0891415798427648,0.0,0.0,-1.0,0.0,0.0,0.0,0.0,0.0,0.0,0.0,0.0,0.0,0.0,0.0,0.0,-1.0,-1.0,-1.0,-1.0,51.002
2024-04-03 18:18:00,359.5625,0.3125,-1.1875,0.0891415798427648,0.0,0.0,-1.0,0.0,0.0,0.0,0.0,0.0,0.0,0.0,0.0,0.0,0.0,0.0,0.0,-1.0,-1.0,-1.0,-1.0,51.002
2024-04-03 18:18:00,359.5625,0.3125,-0.6875,0.0891415798427648,0.0,0.0,-1.0,0.0,0.0,0.0,0.0,0.0,0.0,0.0,0.0,0.0,0.0,0.0,0.0,-1.0,-1.0,-1.0,-1.0,51.002
2024-04-03 18:18:00,359.5625,0.3125,-1.1875,0.0891415798427648,0.0,0.0,-1.0,0.0,0.0,0.0,0.0,0.0,0.0,0.0,0.0,0.0,0.0,0.0,0.0,-1.0,-1.0,-1.0,-1.0,50.464
2024-04-03 18:18:01,359.5625,0.3125,-2.375,0.0891415798427648,0.0,0.0,-1.0,0.0,0.0,0.0,0.0,0.0,0.0,0.0,0.0,0.0,0.0,0.0,0.0,-1.0,-1.0,-1.0,-1.0,50.464
2024-04-03 18:18:01,359.625,0.25,-3.3125,0.0891415798427648,0.0,0.0,-1.0,0.0,0.0,0.0,0.0,0.0,0.0,0.0,0.0,0.0,0.0,0.0,0.0,-1.0,-1.0,-1.0,-1.0,50.464
2024-04-03 18:18:01,359.625,0.25,-3.4375,0.0891415798427648,0.0,0.0,-1.0,0.0,0.0,0.0,0.0,0.0,0.0,0.0,0.0,0.0,0.0,0.0,0.0,-1.0,-1.0,-1.0,-1.0,51.002
2024-04-03 18:18:01,359.625,0.3125,-3.125,0.0891415798427648,0.0,0.0,-1.0,0.0,0.0,0.0,0.0,0.0,0.0,0.0,0.0,0.0,0.0,0.0,0.0,-1.0,-1.0,-1.0,-1.0,50.464
2024-04-03 18:18:01,359.625,0.3125,-3.125,0.08660334965984787,0.0,0.0,-1.0,0.0,0.0,0.0,0.0,0.0,0.0,0.0,0.0,0.0,0.0,0.0,0.0,-1.0,-1.0,-1.0,-1.0,50.464
2024-04-03 18:18:01,359.625,0.3125,-3.125,0.08660334965984787,0.0,0.0,-1.0,0.0,0.0,0.0,0.0,0.0,0.0,0.0,0.0,0.0,0.0,0.0,0.0,-1.0,-1.0,-1.0,-1.0,50.464
2024-04-03 18:18:01,359.625,0.3125,-2.9375,0.08660334965984787,0.0,0.0,116.0,0.0,0.0,0.0,0.0,0.0,0.0,0.0,0.0,0.0,0.0,0.0,0.0,-1.0,-1.0,-1.0,-1.0,51.54
2024-04-03 18:18:01,359.625,0.25,-3.0625,0.08660334965984787,0.0,0.0,-1.0,0.0,0.0,0.0,0.0,0.0,0.0,0.0,0.0,0.0,0.0,0.0,0.0,-1.0,-1.0,-1.0,-1.0,51.002
2024-04-03 18:18:01,359.625,0.25,-3.0,0.08660334965984787,0.0,0.0,-1.0,0.0,0.0,0.0,0.0,0.0,0.0,0.0,0.0,0.0,0.0,0.0,0.0,-1.0,-1.0,-1.0,-1.0,50.464
2024-04-03 18:18:01,359.625,0.1875,-3.25,0.08660334965984787,0.0,0.0,-1.0,0.0,0.0,0.0,0.0,0.0,0.0,0.0,0.0,0.0,0.0,0.0,0.0,-1.0,-1.0,-1.0,-1.0,51.002
2024-04-03 18:18:01,359.5,0.0625,-2.9375,0.08660334965984787,0.0,0.0,-1.0,0.0,0.0,0.0,0.0,0.0,0.0,0.0,0.0,0.0,0.0,0.0,0.0,-1.0,-1.0,-1.0,-1.0,51.002
2024-04-03 18:18:01,359.5,0.0625,-2.375,0.08660334965984787,0.0,0.0,-1.0,0.0,0.0,0.0,0.0,0.0,0.0,0.0,0.0,0.0,0.0,0.0,0.0,-1.0,-1.0,-1.0,-1.0,50.464
2024-04-03 18:18:01,359.5,0.0625,-1.8125,0.08660334965984787,0.0,0.0,-1.0,0.0,0.0,0.0,0.0,0.0,0.0,0.0,0.0,0.0,0.0,0.0,0.0,-1.0,-1.0,-1.0,-1.0,51.002
2024-04-03 18:18:01,359.5,0.125,-2.4375,0.08660334965984787,0.0,0.0,-1.0,0.0,0.0,0.0,0.0,0.0,0.0,0.0,0.0,0.0,0.0,0.0,0.0,-1.0,-1.0,-1.0,-1.0,51.002
2024-04-03 18:18:01,359.5625,0.0,-3.6875,0.08660334965984787,0.0,0.0,114.0,0.0,0.0,0.0,0.0,0.0,0.0,0.0,0.0,0.0,0.0,0.0,0.0,-1.0,-1.0,-1.0,-1.0,50.464
2024-04-03 18:18:02,359.5625,0.0,-3.6875,0.08660334965984787,0.0,0.0,-1.0,0.0,0.0,0.0,0.0,0.0,0.0,0.0,0.0,0.0,0.0,0.0,0.0,-1.0,-1.0,-1.0,-1.0,51.002
2024-04-03 18:18:02,359.5,0.0625,-2.5,0.08660334965984787,0.0,0.0,-1.0,0.0,0.0,0.0,0.0,0.0,0.0,0.0,0.0,0.0,0.0,0.0,0.0,-1.0,-1.0,-1.0,-1.0,50.464
2024-04-03 18:18:02,359.4375,0.0625,-1.625,0.08660334965984787,0.0,0.0,116.0,0.0,0.0,0.0,0.0,0.0,0.0,0.0,0.0,0.0,0.0,0.0,0.0,-1.0,-1.0,-1.0,-1.0,51.002
2024-04-03 18:18:02,359.4375,0.0625,-1.5,0.08660334965984787,0.0,0.0,-1.0,0.0,0.0,0.0,0.0,0.0,0.0,0.0,0.0,0.0,0.0,0.0,0.0,-1.0,-1.0,-1.0,-1.0,51.002
2024-04-03 18:18:02,359.4375,0.125,-2.125,0.0983562398594033,0.0,0.0,-1.0,0.0,0.0,0.0,0.0,0.0,0.0,0.0,0.0,0.0,0.0,0.0,0.0,-1.0,-1.0,-1.0,-1.0,50.464
2024-04-03 18:18:02,359.4375,0.125,-2.125,0.0983562398594033,0.0,0.0,115.0,0.0,0.0,0.0,0.0,0.0,0.0,0.0,0.0,0.0,0.0,0.0,0.0,-1.0,-1.0,-1.0,-1.0,50.464
2024-04-03 18:18:02,359.4375,0.125,-2.0625,0.0983562398594033,0.0,0.0,-1.0,0.0,0.0,0.0,0.0,0.0,0.0,0.0,0.0,0.0,0.0,0.0,0.0,-1.0,-1.0,-1.0,-1.0,50.464
2024-04-03 18:18:02,359.4375,0.125,-1.75,0.0983562398594033,0.0,0.0,-1.0,0.0,0.0,0.0,0.0,0.0,0.0,0.0,0.0,0.0,0.0,0.0,0.0,-1.0,-1.0,-1.0,-1.0,51.54
2024-04-03 18:18:02,359.375,0.125,-0.875,0.0983562398594033,0.0,0.0,-1.0,0.0,0.0,0.0,0.0,0.0,0.0,0.0,0.0,0.0,0.0,0.0,0.0,-1.0,-1.0,-1.0,-1.0,51.54
2024-04-03 18:18:02,359.375,0.125,-0.5,0.0983562398594033,0.0,0.0,-1.0,0.0,0.0,0.0,0.0,0.0,0.0,0.0,0.0,0.0,0.0,0.0,0.0,-1.0,-1.0,-1.0,-1.0,50.464
2024-04-03 18:18:02,359.375,0.125,-0.4375,0.0983562398594033,0.0,0.0,-1.0,0.0,0.0,0.0,0.0,0.0,0.0,0.0,0.0,0.0,0.0,0.0,0.0,-1.0,-1.0,-1.0,-1.0,51.002
2024-04-03 18:18:02,359.375,0.1875,-0.25,0.0983562398594033,0.0,0.0,-1.0,0.0,0.0,0.0,0.0,0.0,0.0,0.0,0.0,0.0,0.0,0.0,0.0,-1.0,-1.0,-1.0,-1.0,51.54
2024-04-03 18:18:02,359.375,0.1875,-0.375,0.0983562398594033,0.0,0.0,-1.0,0.0,0.0,0.0,0.0,0.0,0.0,0.0,0.0,0.0,0.0,0.0,0.0,-1.0,-1.0,-1.0,-1.0,50.464
2024-04-03 18:18:02,359.375,0.1875,-0.25,0.0983562398594033,0.0,0.0,-1.0,0.0,0.0,0.0,0.0,0.0,0.0,0.0,0.0,0.0,0.0,0.0,0.0,-1.0,-1.0,-1.0,-1.0,51.54
2024-04-03 18:18:03,359.375,0.25,0.0,0.0983562398594033,0.0,0.0,-1.0,0.0,0.0,0.0,0.0,0.0,0.0,0.0,0.0,0.0,0.0,0.0,0.0,-1.0,-1.0,-1.0,-1.0,51.002
2024-04-03 18:18:03,359.375,0.25,0.5,0.0983562398594033,0.0,0.0,-1.0,0.0,0.0,0.0,0.0,0.0,0.0,0.0,0.0,0.0,0.0,0.0,0.0,-1.0,-1.0,-1.0,-1.0,51.002
2024-04-03 18:18:03,359.375,0.3125,0.6875,0.0983562398594033,0.0,0.0,-1.0,0.0,0.0,0.0,0.0,0.0,0.0,0.0,0.0,0.0,0.0,0.0,0.0,-1.0,-1.0,-1.0,-1.0,50.464
2024-04-03 18:18:03,359.375,0.3125,0.5625,0.0983562398594033,0.0,0.0,-1.0,0.0,0.0,0.0,0.0,0.0,0.0,0.0,0.0,0.0,0.0,0.0,0.0,-1.0,-1.0,-1.0,-1.0,51.54
2024-04-03 18:18:03,359.3125,0.25,0.1875,0.08751734902488112,0.0,0.0,-1.0,0.0,0.0,0.0,0.0,0.0,0.0,0.0,0.0,0.0,0.0,0.0,0.0,-1.0,-1.0,-1.0,-1.0,50.464
2024-04-03 18:18:03,359.3125,0.25,-0.25,0.08751734902488112,0.0,0.0,116.0,0.0,0.0,0.0,0.0,0.0,0.0,0.0,0.0,0.0,0.0,0.0,0.0,-1.0,-1.0,-1.0,-1.0,50.464
2024-04-03 18:18:03,359.3125,0.25,-0.75,0.08751734902488112,0.0,0.0,-1.0,0.0,0.0,0.0,0.0,0.0,0.0,0.0,0.0,0.0,0.0,0.0,0.0,-1.0,-1.0,-1.0,-1.0,51.002
2024-04-03 18:18:03,359.3125,0.25,-0.6875,0.08751734902488112,0.0,0.0,-1.0,0.0,0.0,0.0,0.0,0.0,0.0,0.0,0.0,0.0,0.0,0.0,0.0,-1.0,-1.0,-1.0,-1.0,51.54
2024-04-03 18:18:03,359.3125,0.25,-0.1875,0.08751734902488112,0.0,0.0,-1.0,0.0,0.0,0.0,0.0,0.0,0.0,0.0,0.0,0.0,0.0,0.0,0.0,-1.0,-1.0,-1.0,-1.0,51.54
2024-04-03 18:18:03,359.3125,0.25,0.125,0.08751734902488112,0.0,0.0,-1.0,0.0,0.0,0.0,0.0,0.0,0.0,0.0,0.0,0.0,0.0,0.0,0.0,-1.0,-1.0,-1.0,-1.0,50.464
2024-04-03 18:18:03,359.3125,0.25,-0.1875,0.08751734902488112,0.0,0.0,-1.0,0.0,0.0,0.0,0.0,0.0,0.0,0.0,0.0,0.0,0.0,0.0,0.0,-1.0,-1.0,-1.0,-1.0,51.002
2024-04-03 18:18:03,359.3125,0.25,-0.75,0.08751734902488112,0.0,0.0,-1.0,0.0,0.0,0.0,0.0,0.0,0.0,0.0,0.0,0.0,0.0,0.0,0.0,-1.0,-1.0,-1.0,-1.0,51.54
2024-04-03 18:18:03,359.3125,0.1875,-0.5,0.08751734902488112,0.0,0.0,-1.0,0.0,0.0,0.0,0.0,0.0,0.0,0.0,0.0,0.0,0.0,0.0,0.0,-1.0,-1.0,-1.0,-1.0,51.54
2024-04-03 18:18:03,359.3125,0.1875,-0.125,0.08751734902488112,0.0,0.0,-1.0,0.0,0.0,0.0,0.0,0.0,0.0,0.0,0.0,0.0,0.0,0.0,0.0,-1.0,-1.0,-1.0,-1.0,51.54
2024-04-03 18:18:03,359.3125,0.1875,-0.125,0.08751734902488112,0.0,0.0,-1.0,0.0,0.0,0.0,0.0,0.0,0.0,0.0,0.0,0.0,0.0,0.0,0.0,-1.0,-1.0,-1.0,-1.0,51.54
2024-04-03 18:18:04,359.3125,0.25,-0.4375,0.08751734902488112,0.0,0.0,-1.0,0.0,0.0,0.0,0.0,0.0,0.0,0.0,0.0,0.0,0.0,0.0,0.0,-1.0,-1.0,-1.0,-1.0,50.464
2024-04-03 18:18:04,359.3125,0.25,-0.5,0.08751734902488112,0.0,0.0,-1.0,0.0,0.0,0.0,0.0,0.0,0.0,0.0,0.0,0.0,0.0,0.0,0.0,-1.0,-1.0,-1.0,-1.0,50.464
2024-04-03 18:18:04,359.3125,0.25,-0.4375,0.08981782610777,0.0,0.0,114.0,0.0,0.0,0.0,0.0,0.0,0.0,0.0,0.0,0.0,0.0,0.0,0.0,-1.0,-1.0,-1.0,-1.0,51.002
2024-04-03 18:18:04,359.3125,0.25,-0.375,0.08981782610777,0.0,0.0,-1.0,0.0,0.0,0.0,0.0,0.0,0.0,0.0,0.0,0.0,0.0,0.0,0.0,-1.0,-1.0,-1.0,-1.0,51.54
2024-04-03 18:18:04,359.3125,0.25,-0.3125,0.08981782610777,0.0,0.0,-1.0,0.0,0.0,0.0,0.0,0.0,0.0,0.0,0.0,0.0,0.0,0.0,0.0,-1.0,-1.0,-1.0,-1.0,51.54
2024-04-03 18:18:04,359.3125,0.25,-0.5625,0.08981782610777,0.0,0.0,-1.0,0.0,0.0,0.0,0.0,0.0,0.0,0.0,0.0,0.0,0.0,0.0,0.0,-1.0,-1.0,-1.0,-1.0,51.54
2024-04-03 18:18:04,359.3125,0.25,-1.0625,0.08981782610777,0.0,0.0,-1.0,0.0,0.0,0.0,0.0,0.0,0.0,0.0,0.0,0.0,0.0,0.0,0.0,-1.0,-1.0,-1.0,-1.0,51.54
2024-04-03 18:18:04,359.3125,0.25,-1.1875,0.08981782610777,0.0,0.0,-1.0,0.0,0.0,0.0,0.0,0.0,0.0,0.0,0.0,0.0,0.0,0.0,0.0,-1.0,-1.0,-1.0,-1.0,51.54
2024-04-03 18:18:04,359.3125,0.25,-0.8125,0.08981782610777,0.0,0.0,-1.0,0.0,0.0,0.0,0.0,0.0,0.0,0.0,0.0,0.0,0.0,0.0,0.0,-1.0,-1.0,-1.0,-1.0,51.002
2024-04-03 18:18:04,359.3125,0.25,-0.5,0.08981782610777,0.0,0.0,-1.0,0.0,0.0,0.0,0.0,0.0,0.0,0.0,0.0,0.0,0.0,0.0,0.0,-1.0,-1.0,-1.0,-1.0,51.54
2024-04-03 18:18:04,359.3125,0.25,-0.6875,0.08981782610777,0.0,0.0,113.0,0.0,0.0,0.0,0.0,0.0,0.0,0.0,0.0,0.0,0.0,0.0,0.0,-1.0,-1.0,-1.0,-1.0,51.54
2024-04-03 18:18:04,359.3125,0.25,-0.625,0.08981782610777,0.0,0.0,-1.0,0.0,0.0,0.0,0.0,0.0,0.0,0.0,0.0,0.0,0.0,0.0,0.0,-1.0,-1.0,-1.0,-1.0,51.54
2024-04-03 18:18:04,359.3125,0.25,-0.5,0.08981782610777,0.0,0.0,-1.0,0.0,0.0,0.0,0.0,0.0,0.0,0.0,0.0,0.0,0.0,0.0,0.0,-1.0,-1.0,-1.0,-1.0,51.54
2024-04-03 18:18:04,359.3125,0.25,-0.5625,0.08981782610777,0.0,0.0,113.0,0.0,0.0,0.0,0.0,0.0,0.0,0.0,0.0,0.0,0.0,0.0,0.0,-1.0,-1.0,-1.0,-1.0,51.54
2024-04-03 18:18:05,359.3125,0.25,-0.6875,0.08981782610777,0.0,0.0,-1.0,0.0,0.0,0.0,0.0,0.0,0.0,0.0,0.0,0.0,0.0,0.0,0.0,-1.0,-1.0,-1.0,-1.0,51.54
2024-04-03 18:18:05,359.3125,0.25,-0.8125,0.08981782610777,0.0,0.0,-1.0,0.0,0.0,0.0,0.0,0.0,0.0,0.0,0.0,0.0,0.0,0.0,0.0,-1.0,-1.0,-1.0,-1.0,50.464
2024-04-03 18:18:05,359.3125,0.25,-1.0625,0.08947646462669415,0.0,0.0,115.0,0.0,0.0,0.0,0.0,0.0,0.0,0.0,0.0,0.0,0.0,0.0,0.0,-1.0,-1.0,-1.0,-1.0,51.54
2024-04-03 18:18:05,359.3125,0.25,-1.125,0.08947646462669415,0.0,0.0,-1.0,0.0,0.0,0.0,0.0,0.0,0.0,0.0,0.0,0.0,0.0,0.0,0.0,-1.0,-1.0,-1.0,-1.0,51.54
2024-04-03 18:18:05,359.3125,0.25,-1.1875,0.08947646462669415,0.0,0.0,-1.0,0.0,0.0,0.0,0.0,0.0,0.0,0.0,0.0,0.0,0.0,0.0,0.0,-1.0,-1.0,-1.0,-1.0,51.54
2024-04-03 18:18:05,359.3125,0.25,-0.9375,0.08947646462669415,0.0,0.0,115.0,0.0,0.0,0.0,0.0,0.0,0.0,0.0,0.0,0.0,0.0,0.0,0.0,-1.0,-1.0,-1.0,-1.0,51.002
2024-04-03 18:18:05,359.3125,0.25,-0.6875,0.08947646462669415,0.0,0.0,-1.0,0.0,0.0,0.0,0.0,0.0,0.0,0.0,0.0,0.0,0.0,0.0,0.0,-1.0,-1.0,-1.0,-1.0,51.54
2024-04-03 18:18:05,359.3125,0.25,-0.5625,0.08947646462669415,0.0,0.0,-1.0,0.0,0.0,0.0,0.0,0.0,0.0,0.0,0.0,0.0,0.0,0.0,0.0,-1.0,-1.0,-1.0,-1.0,51.54
2024-04-03 18:18:05,359.3125,0.25,-0.5625,0.08947646462669415,0.0,0.0,113.0,0.0,0.0,0.0,0.0,0.0,0.0,0.0,0.0,0.0,0.0,0.0,0.0,-1.0,-1.0,-1.0,-1.0,52.078
2024-04-03 18:18:05,359.3125,0.25,-0.6875,0.08947646462669415,0.0,0.0,-1.0,0.0,0.0,0.0,0.0,0.0,0.0,0.0,0.0,0.0,0.0,0.0,0.0,-1.0,-1.0,-1.0,-1.0,51.54
2024-04-03 18:18:05,359.3125,0.25,-0.625,0.08947646462669415,0.0,0.0,-1.0,0.0,0.0,0.0,0.0,0.0,0.0,0.0,0.0,0.0,0.0,0.0,0.0,-1.0,-1.0,-1.0,-1.0,51.54
2024-04-03 18:18:05,359.3125,0.25,-0.5625,0.08947646462669415,0.0,0.0,112.0,0.0,0.0,0.0,0.0,0.0,0.0,0.0,0.0,0.0,0.0,0.0,0.0,-1.0,-1.0,-1.0,-1.0,51.54
2024-04-03 18:18:05,359.3125,0.25,-0.75,0.08947646462669415,0.0,0.0,-1.0,0.0,0.0,0.0,0.0,0.0,0.0,0.0,0.0,0.0,0.0,0.0,0.0,-1.0,-1.0,-1.0,-1.0,51.54
2024-04-03 18:18:05,359.3125,0.25,-0.875,0.08947646462669415,0.0,0.0,-1.0,0.0,0.0,0.0,0.0,0.0,0.0,0.0,0.0,0.0,0.0,0.0,0.0,-1.0,-1.0,-1.0,-1.0,51.54
2024-04-03 18:18:05,359.3125,0.25,-0.75,0.08946653985408333,0.0,0.0,114.0,0.0,0.0,0.0,0.0,0.0,0.0,0.0,0.0,0.0,0.0,0.0,0.0,-1.0,-1.0,-1.0,-1.0,51.54
2024-04-03 18:18:06,359.3125,0.25,-0.625,0.08946653985408333,0.0,0.0,-1.0,0.0,0.0,0.0,0.0,0.0,0.0,0.0,0.0,0.0,0.0,0.0,0.0,-1.0,-1.0,-1.0,-1.0,51.54
2024-04-03 18:18:06,359.3125,0.25,-0.8125,0.08946653985408333,0.0,0.0,-1.0,0.0,0.0,0.0,0.0,0.0,0.0,0.0,0.0,0.0,0.0,0.0,0.0,-1.0,-1.0,-1.0,-1.0,51.54
2024-04-03 18:18:06,359.3125,0.25,-0.75,0.08946653985408333,0.0,0.0,113.0,0.0,0.0,0.0,0.0,0.0,0.0,0.0,0.0,0.0,0.0,0.0,0.0,-1.0,-1.0,-1.0,-1.0,51.54
2024-04-03 18:18:06,359.3125,0.25,-0.6875,0.08946653985408333,0.0,0.0,-1.0,0.0,0.0,0.0,0.0,0.0,0.0,0.0,0.0,0.0,0.0,0.0,0.0,-1.0,-1.0,-1.0,-1.0,51.54
2024-04-03 18:18:06,359.3125,0.25,-0.75,0.08946653985408333,0.0,0.0,-1.0,0.0,0.0,0.0,0.0,0.0,0.0,0.0,0.0,0.0,0.0,0.0,0.0,-1.0,-1.0,-1.0,-1.0,51.54
2024-04-03 18:18:06,359.3125,0.25,-0.75,0.08946653985408333,0.0,0.0,116.0,0.0,0.0,0.0,0.0,0.0,0.0,0.0,0.0,0.0,0.0,0.0,0.0,-1.0,-1.0,-1.0,-1.0,51.54
2024-04-03 18:18:06,359.3125,0.25,-0.75,0.08946653985408333,0.0,0.0,-1.0,0.0,0.0,0.0,0.0,0.0,0.0,0.0,0.0,0.0,0.0,0.0,0.0,-1.0,-1.0,-1.0,-1.0,51.54
2024-04-03 18:18:06,359.3125,0.25,-0.75,0.08946653985408333,0.0,0.0,-1.0,0.0,0.0,0.0,0.0,0.0,0.0,0.0,0.0,0.0,0.0,0.0,0.0,-1.0,-1.0,-1.0,-1.0,51.54
2024-04-03 18:18:06,359.3125,0.25,-0.6875,0.08946653985408333,0.0,0.0,114.0,0.0,0.0,0.0,0.0,0.0,0.0,0.0,0.0,0.0,0.0,0.0,0.0,-1.0,-1.0,-1.0,-1.0,51.002
2024-04-03 18:18:06,359.3125,0.25,-0.6875,0.08946653985408333,0.0,0.0,-1.0,0.0,0.0,0.0,0.0,0.0,0.0,0.0,0.0,0.0,0.0,0.0,0.0,-1.0,-1.0,-1.0,-1.0,51.54
2024-04-03 18:18:06,359.3125,0.25,-0.75,0.08946653985408333,0.0,0.0,-1.0,0.0,0.0,0.0,0.0,0.0,0.0,0.0,0.0,0.0,0.0,0.0,0.0,-1.0,-1.0,-1.0,-1.0,51.54
2024-04-03 18:18:06,2407.3125,0.25,-0.75,0.08950614626051953,0.0,0.0,0.0,0.0,0.0,0.0,0.0,0.0,0.0,0.0,0.0,0.0,0.0,0.0,0.0,-1.0,-1.0,-1.0,-1.0,51.54
2024-04-03 18:18:06,359.3125,0.25,-0.6875,0.08950614626051953,0.0,0.0,-1.0,0.0,0.0,0.0,0.0,0.0,0.0,0.0,0.0,0.0,0.0,0.0,0.0,-1.0,-1.0,-1.0,-1.0,51.54
2024-04-03 18:18:06,359.3125,0.25,-0.75,0.08950614626051953,0.0,0.0,-1.0,0.0,0.0,0.0,0.0,0.0,0.0,0.0,0.0,0.0,0.0,0.0,0.0,-1.0,-1.0,-1.0,-1.0,51.54
2024-04-03 18:18:06,359.3125,0.25,-0.6875,0.08950614626051953,0.0,0.0,-1.0,0.0,0.0,0.0,0.0,0.0,0.0,0.0,0.0,0.0,0.0,0.0,0.0,-1.0,-1.0,-1.0,-1.0,52.078
2024-04-03 18:18:07,359.3125,0.25,-0.75,0.08950614626051953,0.0,0.0,-1.0,0.0,0.0,0.0,0.0,0.0,0.0,0.0,0.0,0.0,0.0,0.0,0.0,-1.0,-1.0,-1.0,-1.0,51.54
2024-04-03 18:18:07,359.3125,0.25,-0.75,0.08950614626051953,0.0,0.0,-1.0,0.0,0.0,0.0,0.0,0.0,0.0,0.0,0.0,0.0,0.0,0.0,0.0,-1.0,-1.0,-1.0,-1.0,51.54
2024-04-03 18:18:07,359.3125,0.25,-0.6875,0.08950614626051953,0.0,0.0,-1.0,0.0,0.0,0.0,0.0,0.0,0.0,0.0,0.0,0.0,0.0,0.0,0.0,-1.0,-1.0,-1.0,-1.0,51.54
2024-04-03 18:18:07,359.3125,0.25,-0.6875,0.08950614626051953,0.0,0.0,-1.0,0.0,0.0,0.0,0.0,0.0,0.0,0.0,0.0,0.0,0.0,0.0,0.0,-1.0,-1.0,-1.0,-1.0,51.54
2024-04-03 18:18:07,359.3125,0.25,-0.75,0.08950614626051953,0.0,0.0,-1.0,0.0,0.0,0.0,0.0,0.0,0.0,0.0,0.0,0.0,0.0,0.0,0.0,-1.0,-1.0,-1.0,-1.0,51.54
2024-04-03 18:18:07,359.3125,0.25,-0.6875,0.08950614626051953,0.0,0.0,-1.0,0.0,0.0,0.0,0.0,0.0,0.0,0.0,0.0,0.0,0.0,0.0,0.0,-1.0,-1.0,-1.0,-1.0,52.078
2024-04-03 18:18:07,359.3125,0.25,-0.6875,0.08950614626051953,0.0,0.0,-1.0,0.0,0.0,0.0,0.0,0.0,0.0,0.0,0.0,0.0,0.0,0.0,0.0,-1.0,-1.0,-1.0,-1.0,52.078
2024-04-03 18:18:07,359.3125,0.25,-0.75,0.08813086484511717,0.0,0.0,-1.0,0.0,0.0,0.0,0.0,0.0,0.0,0.0,0.0,0.0,0.0,0.0,0.0,-1.0,-1.0,-1.0,-1.0,51.54
2024-04-03 18:18:07,359.3125,0.25,-0.75,0.08813086484511717,0.0,0.0,-1.0,0.0,0.0,0.0,0.0,0.0,0.0,0.0,0.0,0.0,0.0,0.0,0.0,-1.0,-1.0,-1.0,-1.0,51.54
2024-04-03 18:18:07,359.3125,0.25,-0.75,0.08813086484511717,0.0,0.0,-1.0,0.0,0.0,0.0,0.0,0.0,0.0,0.0,0.0,0.0,0.0,0.0,0.0,-1.0,-1.0,-1.0,-1.0,51.54
2024-04-03 18:18:07,359.3125,0.25,-0.75,0.08813086484511717,0.0,0.0,-1.0,0.0,0.0,0.0,0.0,0.0,0.0,0.0,0.0,0.0,0.0,0.0,0.0,-1.0,-1.0,-1.0,-1.0,51.54
2024-04-03 18:18:07,359.3125,0.25,-0.75,0.08813086484511717,0.0,0.0,115.0,0.0,0.0,0.0,0.0,0.0,0.0,0.0,0.0,0.0,0.0,0.0,0.0,-1.0,-1.0,-1.0,-1.0,51.54
2024-04-03 18:18:07,359.3125,0.25,-0.75,0.08813086484511717,0.0,0.0,-1.0,0.0,0.0,0.0,0.0,0.0,0.0,0.0,0.0,0.0,0.0,0.0,0.0,-1.0,-1.0,-1.0,-1.0,51.54
2024-04-03 18:18:08,359.3125,0.25,-0.75,0.08813086484511717,0.0,0.0,0.0,0.0,0.0,0.0,0.0,0.0,0.0,0.0,0.0,0.0,0.0,0.0,0.0,-1.0,-1.0,-1.0,-1.0,51.54
2024-04-03 18:18:08,359.3125,0.25,-0.75,0.08813086484511717,0.0,0.0,-1.0,0.0,0.0,0.0,0.0,0.0,0.0,0.0,0.0,0.0,0.0,0.0,0.0,-1.0,-1.0,-1.0,-1.0,51.54
2024-04-03 18:18:08,359.3125,0.25,-0.75,0.08813086484511717,0.0,0.0,-1.0,0.0,0.0,0.0,0.0,0.0,0.0,0.0,0.0,0.0,0.0,0.0,0.0,-1.0,-1.0,-1.0,-1.0,52.078
2024-04-03 18:18:08,359.3125,0.25,-0.75,0.08813086484511717,0.0,0.0,116.0,0.0,0.0,0.0,0.0,0.0,0.0,0.0,0.0,0.0,0.0,0.0,0.0,-1.0,-1.0,-1.0,-1.0,51.54
2024-04-03 18:18:08,359.3125,0.25,-0.75,0.08813086484511717,0.0,0.0,-1.0,0.0,0.0,0.0,0.0,0.0,0.0,0.0,0.0,0.0,0.0,0.0,0.0,-1.0,-1.0,-1.0,-1.0,51.54
2024-04-03 18:18:08,359.3125,0.25,-0.75,0.08813086484511717,0.0,0.0,-1.0,0.0,0.0,0.0,0.0,0.0,0.0,0.0,0.0,0.0,0.0,0.0,0.0,-1.0,-1.0,-1.0,-1.0,51.54
2024-04-03 18:18:08,359.3125,0.25,-0.75,0.08813086484511717,0.0,0.0,0.0,0.0,0.0,0.0,0.0,0.0,0.0,0.0,0.0,0.0,0.0,0.0,0.0,-1.0,-1.0,-1.0,-1.0,51.54
2024-04-03 18:18:08,359.3125,0.25,-0.75,0.09034615600207542,0.0,0.0,-1.0,0.0,0.0,0.0,0.0,0.0,0.0,0.0,0.0,0.0,0.0,0.0,0.0,-1.0,-1.0,-1.0,-1.0,52.078
2024-04-03 18:18:08,359.3125,0.25,-0.75,0.09034615600207542,0.0,0.0,-1.0,0.0,0.0,0.0,0.0,0.0,0.0,0.0,0.0,0.0,0.0,0.0,0.0,-1.0,-1.0,-1.0,-1.0,51.54
2024-04-03 18:18:08,359.3125,0.25,-0.75,0.09034615600207542,0.0,0.0,115.0,0.0,0.0,0.0,0.0,0.0,0.0,0.0,0.0,0.0,0.0,0.0,0.0,-1.0,-1.0,-1.0,-1.0,52.078
2024-04-03 18:18:08,359.3125,0.25,-0.75,0.09034615600207542,0.0,0.0,-1.0,0.0,0.0,0.0,0.0,0.0,0.0,0.0,0.0,0.0,0.0,0.0,0.0,-1.0,-1.0,-1.0,-1.0,52.078
2024-04-03 18:18:08,359.3125,0.25,-0.75,0.09034615600207542,0.0,0.0,-1.0,0.0,0.0,0.0,0.0,0.0,0.0,0.0,0.0,0.0,0.0,0.0,0.0,-1.0,-1.0,-1.0,-1.0,51.54
2024-04-03 18:18:08,359.3125,0.25,-0.75,0.09034615600207542,0.0,0.0,114.0,0.0,0.0,0.0,0.0,0.0,0.0,0.0,0.0,0.0,0.0,0.0,0.0,-1.0,-1.0,-1.0,-1.0,51.54
2024-04-03 18:18:08,2407.3125,0.25,-0.75,0.09034615600207542,0.0,0.0,-1.0,0.0,0.0,0.0,0.0,0.0,0.0,0.0,0.0,0.0,0.0,0.0,0.0,-1.0,-1.0,-1.0,-1.0,51.54
2024-04-03 18:18:09,359.3125,0.25,-0.75,0.09034615600207542,0.0,0.0,-1.0,0.0,0.0,0.0,0.0,0.0,0.0,0.0,0.0,0.0,0.0,0.0,0.0,-1.0,-1.0,-1.0,-1.0,52.078
2024-04-03 18:18:09,359.3125,0.25,-0.75,0.09034615600207542,0.0,0.0,-1.0,0.0,0.0,0.0,0.0,0.0,0.0,0.0,0.0,0.0,0.0,0.0,0.0,-1.0,-1.0,-1.0,-1.0,51.54
2024-04-03 18:18:09,359.3125,0.25,-0.75,0.09034615600207542,0.0,0.0,-1.0,0.0,0.0,0.0,0.0,0.0,0.0,0.0,0.0,0.0,0.0,0.0,0.0,-1.0,-1.0,-1.0,-1.0,52.078
2024-04-03 18:18:09,359.3125,0.25,-0.75,0.09034615600207542,0.0,0.0,-1.0,0.0,0.0,0.0,0.0,0.0,0.0,0.0,0.0,0.0,0.0,0.0,0.0,-1.0,-1.0,-1.0,-1.0,51.54
2024-04-03 18:18:09,359.3125,0.25,-0.75,0.09034615600207542,0.0,0.0,-1.0,0.0,0.0,0.0,0.0,0.0,0.0,0.0,0.0,0.0,0.0,0.0,0.0,-1.0,-1.0,-1.0,-1.0,51.54
2024-04-03 18:18:09,359.3125,0.25,-0.75,0.09056454290419066,0.0,0.0,-1.0,0.0,0.0,0.0,0.0,0.0,0.0,0.0,0.0,0.0,0.0,0.0,0.0,-1.0,-1.0,-1.0,-1.0,51.54
2024-04-03 18:18:09,359.3125,0.25,-0.75,0.09056454290419066,0.0,0.0,-1.0,0.0,0.0,0.0,0.0,0.0,0.0,0.0,0.0,0.0,0.0,0.0,0.0,-1.0,-1.0,-1.0,-1.0,51.54
2024-04-03 18:18:09,359.3125,0.25,-0.75,0.09056454290419066,0.0,0.0,-1.0,0.0,0.0,0.0,0.0,0.0,0.0,0.0,0.0,0.0,0.0,0.0,0.0,-1.0,-1.0,-1.0,-1.0,51.54
2024-04-03 18:18:09,359.3125,0.25,-0.75,0.09056454290419066,0.0,0.0,-1.0,0.0,0.0,0.0,0.0,0.0,0.0,0.0,0.0,0.0,0.0,0.0,0.0,-1.0,-1.0,-1.0,-1.0,52.078
2024-04-03 18:18:09,359.3125,0.25,-0.75,0.09056454290419066,0.0,0.0,0.0,0.0,0.0,0.0,0.0,0.0,0.0,0.0,0.0,0.0,0.0,0.0,0.0,-1.0,-1.0,-1.0,-1.0,51.54
2024-04-03 18:18:09,359.3125,0.25,-0.75,0.09056454290419066,0.0,0.0,-1.0,0.0,0.0,0.0,0.0,0.0,0.0,0.0,0.0,0.0,0.0,0.0,0.0,-1.0,-1.0,-1.0,-1.0,51.54
2024-04-03 18:18:09,359.3125,0.25,-0.75,0.09056454290419066,0.0,0.0,116.0,0.0,0.0,0.0,0.0,0.0,0.0,0.0,0.0,0.0,0.0,0.0,0.0,-1.0,-1.0,-1.0,-1.0,51.54
2024-04-03 18:18:09,359.3125,0.25,-0.75,0.09056454290419066,0.0,0.0,-1.0,0.0,0.0,0.0,0.0,0.0,0.0,0.0,0.0,0.0,0.0,0.0,0.0,-1.0,-1.0,-1.0,-1.0,51.54
2024-04-03 18:18:10,359.3125,0.25,-0.75,0.09056454290419066,0.0,0.0,116.0,0.0,0.0,0.0,0.0,0.0,0.0,0.0,0.0,0.0,0.0,0.0,0.0,-1.0,-1.0,-1.0,-1.0,51.002
2024-04-03 18:18:10,359.3125,0.25,-0.75,0.09056454290419066,0.0,0.0,-1.0,0.0,0.0,0.0,0.0,0.0,0.0,0.0,0.0,0.0,0.0,0.0,0.0,-1.0,-1.0,-1.0,-1.0,52.078
2024-04-03 18:18:10,359.3125,0.25,-0.75,0.09056454290419066,0.0,0.0,-1.0,0.0,0.0,0.0,0.0,0.0,0.0,0.0,0.0,0.0,0.0,0.0,0.0,-1.0,-1.0,-1.0,-1.0,51.54
2024-04-03 18:18:10,359.3125,0.25,-0.8125,0.09196350716603409,0.0,0.0,116.0,0.0,0.0,0.0,0.0,0.0,0.0,0.0,0.0,0.0,0.0,0.0,0.0,-1.0,-1.0,-1.0,-1.0,51.54
2024-04-03 18:18:10,359.3125,0.25,-0.6875,0.09196350716603409,0.0,0.0,-1.0,0.0,0.0,0.0,0.0,0.0,0.0,0.0,0.0,0.0,0.0,0.0,0.0,-1.0,-1.0,-1.0,-1.0,51.54
2024-04-03 18:18:10,359.3125,0.25,-0.5,0.09196350716603409,0.0,0.0,-1.0,0.0,0.0,0.0,0.0,0.0,0.0,0.0,0.0,0.0,0.0,0.0,0.0,-1.0,-1.0,-1.0,-1.0,51.54
2024-04-03 18:18:10,359.3125,0.25,-0.3125,0.09196350716603409,0.0,0.0,-1.0,0.0,0.0,0.0,0.0,0.0,0.0,0.0,0.0,0.0,0.0,0.0,0.0,-1.0,-1.0,-1.0,-1.0,51.54
2024-04-03 18:18:10,359.3125,0.25,-0.1875,0.09196350716603409,0.0,0.0,-1.0,0.0,0.0,0.0,0.0,0.0,0.0,0.0,0.0,0.0,0.0,0.0,0.0,-1.0,-1.0,-1.0,-1.0,51.54
2024-04-03 18:18:10,359.3125,0.25,-0.5,0.09196350716603409,0.0,0.0,-1.0,0.0,0.0,0.0,0.0,0.0,0.0,0.0,0.0,0.0,0.0,0.0,0.0,-1.0,-1.0,-1.0,-1.0,51.54
2024-04-03 18:18:10,359.3125,0.25,-0.6875,0.09196350716603409,0.0,0.0,-1.0,0.0,0.0,0.0,0.0,0.0,0.0,0.0,0.0,0.0,0.0,0.0,0.0,-1.0,-1.0,-1.0,-1.0,51.54
2024-04-03 18:18:10,359.3125,0.25,-0.4375,0.09196350716603409,0.0,0.0,-1.0,0.0,0.0,0.0,0.0,0.0,0.0,0.0,0.0,0.0,0.0,0.0,0.0,-1.0,-1.0,-1.0,-1.0,51.54
2024-04-03 18:18:10,359.3125,0.25,-0.125,0.09196350716603409,0.0,0.0,113.0,0.0,0.0,0.0,0.0,0.0,0.0,0.0,0.0,0.0,0.0,0.0,0.0,-1.0,-1.0,-1.0,-1.0,51.002
2024-04-03 18:18:10,359.3125,0.25,0.0625,0.09196350716603409,0.0,0.0,-1.0,0.0,0.0,0.0,0.0,0.0,0.0,0.0,0.0,0.0,0.0,0.0,0.0,-1.0,-1.0,-1.0,-1.0,51.54
2024-04-03 18:18:11,359.3125,0.25,-0.3125,0.09196350716603409,0.0,0.0,-1.0,0.0,0.0,0.0,0.0,0.0,0.0,0.0,0.0,0.0,0.0,0.0,0.0,-1.0,-1.0,-1.0,-1.0,51.54
2024-04-03 18:18:11,359.3125,0.25,-1.125,0.09196350716603409,0.0,0.0,113.0,0.0,0.0,0.0,0.0,0.0,0.0,0.0,0.0,0.0,0.0,0.0,0.0,-1.0,-1.0,-1.0,-1.0,51.54
2024-04-03 18:18:11,359.3125,0.25,-1.1875,0.09196350716603409,0.0,0.0,-1.0,0.0,0.0,0.0,0.0,0.0,0.0,0.0,0.0,0.0,0.0,0.0,0.0,-1.0,-1.0,-1.0,-1.0,51.54
2024-04-03 18:18:11,359.3125,0.25,-0.6875,0.09196350716603409,0.0,0.0,-1.0,0.0,0.0,0.0,0.0,0.0,0.0,0.0,0.0,0.0,0.0,0.0,0.0,-1.0,-1.0,-1.0,-1.0,51.54
2024-04-03 18:18:11,359.3125,0.25,-0.125,0.09453440299534466,0.0,0.0,-1.0,0.0,0.0,0.0,0.0,0.0,0.0,0.0,0.0,0.0,0.0,0.0,0.0,-1.0,-1.0,-1.0,-1.0,51.54
2024-04-03 18:18:11,359.3125,0.25,-0.125,0.09453440299534466,0.0,0.0,-1.0,0.0,0.0,0.0,0.0,0.0,0.0,0.0,0.0,0.0,0.0,0.0,0.0,-1.0,-1.0,-1.0,-1.0,51.54
2024-04-03 18:18:11,359.3125,0.25,-0.5625,0.09453440299534466,0.0,0.0,-1.0,0.0,0.0,0.0,0.0,0.0,0.0,0.0,0.0,0.0,0.0,0.0,0.0,-1.0,-1.0,-1.0,-1.0,51.54
2024-04-03 18:18:11,359.3125,0.25,-0.875,0.09453440299534466,0.0,0.0,109.0,0.0,0.0,0.0,0.0,0.0,0.0,0.0,0.0,0.0,0.0,0.0,0.0,-1.0,-1.0,-1.0,-1.0,51.54
2024-04-03 18:18:11,359.3125,0.25,-0.6875,0.09453440299534466,0.0,0.0,-1.0,0.0,0.0,0.0,0.0,0.0,0.0,0.0,0.0,0.0,0.0,0.0,0.0,-1.0,-1.0,-1.0,-1.0,50.464
2024-04-03 18:18:11,359.3125,0.25,-0.25,0.09453440299534466,0.0,0.0,-1.0,0.0,0.0,0.0,0.0,0.0,0.0,0.0,0.0,0.0,0.0,0.0,0.0,-1.0,-1.0,-1.0,-1.0,51.54
2024-04-03 18:18:11,359.3125,0.25,0.3125,0.09453440299534466,0.0,0.0,114.0,0.0,0.0,0.0,0.0,0.0,0.0,0.0,0.0,0.0,0.0,0.0,0.0,-1.0,-1.0,-1.0,-1.0,51.54
2024-04-03 18:18:11,359.375,0.25,-0.3125,0.09453440299534466,0.0,0.0,-1.0,0.0,0.0,0.0,0.0,0.0,0.0,0.0,0.0,0.0,0.0,0.0,0.0,-1.0,-1.0,-1.0,-1.0,51.54
2024-04-03 18:18:11,359.5,0.375,-2.125,0.09453440299534466,0.0,0.0,-1.0,0.0,0.0,0.0,0.0,0.0,0.0,0.0,0.0,0.0,0.0,0.0,0.0,-1.0,-1.0,-1.0,-1.0,51.54
2024-04-03 18:18:11,359.5,0.625,-3.5,0.09453440299534466,0.0,0.0,117.0,0.0,0.0,0.0,0.0,0.0,0.0,0.0,0.0,0.0,0.0,0.0,0.0,-1.0,-1.0,-1.0,-1.0,51.54
2024-04-03 18:18:11,359.375,0.6875,-3.4375,0.09453440299534466,0.0,0.0,-1.0,0.0,0.0,0.0,0.0,0.0,0.0,0.0,0.0,0.0,0.0,0.0,0.0,-1.0,-1.0,-1.0,-1.0,51.54
2024-04-03 18:18:12,359.0625,0.4375,-2.8125,0.09453440299534466,0.0,0.0,-1.0,0.0,0.0,0.0,0.0,0.0,0.0,0.0,0.0,0.0,0.0,0.0,0.0,-1.0,-1.0,-1.0,-1.0,51.54
2024-04-03 18:18:12,358.8125,0.375,-2.4375,0.09453440299534466,0.0,0.0,117.0,0.0,0.0,0.0,0.0,0.0,0.0,0.0,0.0,0.0,0.0,0.0,0.0,-1.0,-1.0,-1.0,-1.0,51.54
2024-04-03 18:18:12,358.5625,0.3125,-2.375,0.08909374894000197,0.0,0.0,-1.0,0.0,0.0,0.0,0.0,0.0,0.0,0.0,0.0,0.0,0.0,0.0,0.0,-1.0,-1.0,-1.0,-1.0,51.54
2024-04-03 18:18:12,358.5,0.3125,-2.0,0.08909374894000197,0.0,0.0,-1.0,0.0,0.0,0.0,0.0,0.0,0.0,0.0,0.0,0.0,0.0,0.0,0.0,-1.0,-1.0,-1.0,-1.0,51.54
2024-04-03 18:18:12,358.5,0.3125,-1.375,0.08909374894000197,0.0,0.0,0.0,0.0,0.0,0.0,0.0,0.0,0.0,0.0,0.0,0.0,0.0,0.0,0.0,-1.0,-1.0,-1.0,-1.0,51.54
2024-04-03 18:18:12,358.5625,0.4375,-2.9375,0.08909374894000197,0.0,0.0,-1.0,0.0,0.0,0.0,0.0,0.0,0.0,0.0,0.0,0.0,0.0,0.0,0.0,-1.0,-1.0,-1.0,-1.0,51.002
2024-04-03 18:18:12,358.8125,0.5625,-3.8125,0.08909374894000197,0.0,0.0,117.0,0.0,0.0,0.0,0.0,0.0,0.0,0.0,0.0,0.0,0.0,0.0,0.0,-1.0,-1.0,-1.0,-1.0,51.54
2024-04-03 18:18:12,358.5,0.5,-3.5,0.08909374894000197,0.0,0.0,-1.0,0.0,0.0,0.0,0.0,0.0,0.0,0.0,0.0,0.0,0.0,0.0,0.0,-1.0,-1.0,-1.0,-1.0,51.54
2024-04-03 18:18:12,358.0,0.4375,-3.25,0.08909374894000197,0.0,0.0,-1.0,0.0,0.0,0.0,0.0,0.0,0.0,0.0,0.0,0.0,0.0,0.0,0.0,-1.0,-1.0,-1.0,-1.0,50.464
2024-04-03 18:18:12,357.5625,0.3125,-2.9375,0.08909374894000197,0.0,0.0,-1.0,0.0,0.0,0.0,0.0,0.0,0.0,0.0,0.0,0.0,0.0,0.0,0.0,-1.0,-1.0,-1.0,-1.0,51.002
2024-04-03 18:18:12,357.5625,0.3125,-2.1875,0.08909374894000197,0.0,0.0,-1.0,0.0,0.0,0.0,0.0,0.0,0.0,0.0,0.0,0.0,0.0,0.0,0.0,-1.0,-1.0,-1.0,-1.0,51.54
2024-04-03 18:18:12,357.5625,0.3125,-1.6875,0.08909374894000197,0.0,0.0,-1.0,0.0,0.0,0.0,0.0,0.0,0.0,0.0,0.0,0.0,0.0,0.0,0.0,-1.0,-1.0,-1.0,-1.0,51.54
2024-04-03 18:18:12,357.5625,0.3125,-1.625,0.08909374894000197,0.0,0.0,-1.0,0.0,0.0,0.0,0.0,0.0,0.0,0.0,0.0,0.0,0.0,0.0,0.0,-1.0,-1.0,-1.0,-1.0,51.54
2024-04-03 18:18:12,357.5625,0.3125,-1.875,0.08909374894000197,0.0,0.0,-1.0,0.0,0.0,0.0,0.0,0.0,0.0,0.0,0.0,0.0,0.0,0.0,0.0,-1.0,-1.0,-1.0,-1.0,51.54
2024-04-03 18:18:13,357.5625,0.3125,-1.9375,0.08969524537315114,0.0,0.0,115.0,0.0,0.0,0.0,0.0,0.0,0.0,0.0,0.0,0.0,0.0,0.0,0.0,-1.0,-1.0,-1.0,-1.0,51.54
2024-04-03 18:18:13,357.5625,0.3125,-1.8125,0.08969524537315114,0.0,0.0,-1.0,0.0,0.0,0.0,0.0,0.0,0.0,0.0,0.0,0.0,0.0,0.0,0.0,-1.0,-1.0,-1.0,-1.0,51.54
2024-04-03 18:18:13,357.5625,0.3125,-2.0,0.08969524537315114,0.0,0.0,-1.0,0.0,0.0,0.0,0.0,0.0,0.0,0.0,0.0,0.0,0.0,0.0,0.0,-1.0,-1.0,-1.0,-1.0,51.54
2024-04-03 18:18:13,357.5,0.3125,-1.9375,0.08969524537315114,0.0,0.0,116.0,0.0,0.0,0.0,0.0,0.0,0.0,0.0,0.0,0.0,0.0,0.0,0.0,-1.0,-1.0,-1.0,-1.0,50.464
2024-04-03 18:18:13,357.375,0.4375,-3.625,0.08969524537315114,0.0,0.0,-1.0,0.0,0.0,0.0,0.0,0.0,0.0,0.0,0.0,0.0,0.0,0.0,0.0,-1.0,-1.0,-1.0,-1.0,51.54
2024-04-03 18:18:13,357.125,0.5,-3.75,0.08969524537315114,0.0,0.0,116.0,0.0,0.0,0.0,0.0,0.0,0.0,0.0,0.0,0.0,0.0,0.0,0.0,-1.0,-1.0,-1.0,-1.0,51.54
2024-04-03 18:18:13,357.0625,0.375,-3.0625,0.08969524537315114,0.0,0.0,-1.0,0.0,0.0,0.0,0.0,0.0,0.0,0.0,0.0,0.0,0.0,0.0,0.0,-1.0,-1.0,-1.0,-1.0,50.464
2024-04-03 18:18:13,357.0,0.375,-2.0625,0.08969524537315114,0.0,0.0,-1.0,0.0,0.0,0.0,0.0,0.0,0.0,0.0,0.0,0.0,0.0,0.0,0.0,-1.0,-1.0,-1.0,-1.0,50.464
2024-04-03 18:18:13,357.0,0.4375,-0.5,0.08969524537315114,0.0,0.0,115.0,0.0,0.0,0.0,0.0,0.0,0.0,0.0,0.0,0.0,0.0,0.0,0.0,-1.0,-1.0,-1.0,-1.0,51.54
2024-04-03 18:18:13,356.9375,0.4375,0.1875,0.08969524537315114,0.0,0.0,-1.0,0.0,0.0,0.0,0.0,0.0,0.0,0.0,0.0,0.0,0.0,0.0,0.0,-1.0,-1.0,-1.0,-1.0,51.54
2024-04-03 18:18:13,356.9375,0.4375,0.625,0.08969524537315114,0.0,0.0,-1.0,0.0,0.0,0.0,0.0,0.0,0.0,0.0,0.0,0.0,0.0,0.0,0.0,-1.0,-1.0,-1.0,-1.0,51.54
2024-04-03 18:18:13,356.9375,0.4375,0.5625,0.08969524537315114,0.0,0.0,117.0,0.0,0.0,0.0,0.0,0.0,0.0,0.0,0.0,0.0,0.0,0.0,0.0,-1.0,-1.0,-1.0,-1.0,51.002
2024-04-03 18:18:14,2404.9375,0.4375,0.0625,0.09455800241742897,0.0,0.0,-1.0,0.0,0.0,0.0,0.0,0.0,0.0,0.0,0.0,0.0,0.0,0.0,0.0,-1.0,-1.0,-1.0,-1.0,51.54
2024-04-03 18:18:14,356.9375,0.4375,0.0625,0.09455800241742897,0.0,0.0,117.0,0.0,0.0,0.0,0.0,0.0,0.0,0.0,0.0,0.0,0.0,0.0,0.0,-1.0,-1.0,-1.0,-1.0,51.54
2024-04-03 18:18:14,356.9375,0.4375,0.3125,0.09455800241742897,0.0,0.0,-1.0,0.0,0.0,0.0,0.0,0.0,0.0,0.0,0.0,0.0,0.0,0.0,0.0,-1.0,-1.0,-1.0,-1.0,51.54
2024-04-03 18:18:14,356.9375,0.4375,0.4375,0.09455800241742897,0.0,0.0,-1.0,0.0,0.0,0.0,0.0,0.0,0.0,0.0,0.0,0.0,0.0,0.0,0.0,-1.0,-1.0,-1.0,-1.0,51.54
2024-04-03 18:18:14,356.9375,0.4375,0.3125,0.09455800241742897,0.0,0.0,-1.0,0.0,0.0,0.0,0.0,0.0,0.0,0.0,0.0,0.0,0.0,0.0,0.0,-1.0,-1.0,-1.0,-1.0,51.54
2024-04-03 18:18:14,356.9375,0.4375,0.0,0.09455800241742897,0.0,0.0,-1.0,0.0,0.0,0.0,0.0,0.0,0.0,0.0,0.0,0.0,0.0,0.0,0.0,-1.0,-1.0,-1.0,-1.0,51.54
2024-04-03 18:18:14,356.9375,0.5,-0.8125,0.09455800241742897,0.0,0.0,0.0,0.0,0.0,0.0,0.0,0.0,0.0,0.0,0.0,0.0,0.0,0.0,0.0,-1.0,-1.0,-1.0,-1.0,51.54
2024-04-03 18:18:14,356.9375,0.5,-1.0625,0.09455800241742897,0.0,0.0,-1.0,0.0,0.0,0.0,0.0,0.0,0.0,0.0,0.0,0.0,0.0,0.0,0.0,-1.0,-1.0,-1.0,-1.0,51.54
2024-04-03 18:18:14,356.9375,0.5625,-1.0625,0.09455800241742897,0.0,0.0,-1.0,0.0,0.0,0.0,0.0,0.0,0.0,0.0,0.0,0.0,0.0,0.0,0.0,-1.0,-1.0,-1.0,-1.0,51.54
2024-04-03 18:18:14,357.0625,0.875,-1.3125,0.09455800241742897,0.0,0.0,115.0,0.0,0.0,0.0,0.0,0.0,0.0,0.0,0.0,0.0,0.0,0.0,0.0,-1.0,-1.0,-1.0,-1.0,51.54
2024-04-03 18:18:14,357.625,0.875,-1.1875,0.09455800241742897,0.0,0.0,-1.0,0.0,0.0,0.0,0.0,0.0,0.0,0.0,0.0,0.0,0.0,0.0,0.0,-1.0,-1.0,-1.0,-1.0,50.464
2024-04-03 18:18:14,357.6875,0.625,-0.5,0.09455800241742897,0.0,0.0,-1.0,0.0,0.0,0.0,0.0,0.0,0.0,0.0,0.0,0.0,0.0,0.0,0.0,-1.0,-1.0,-1.0,-1.0,51.002
2024-04-03 18:18:14,357.5,0.4375,0.0625,0.09455800241742897,0.0,0.0,-1.0,0.0,0.0,0.0,0.0,0.0,0.0,0.0,0.0,0.0,0.0,0.0,0.0,-1.0,-1.0,-1.0,-1.0,51.54
2024-04-03 18:18:14,357.3125,0.375,0.0625,0.09455800241742897,0.0,0.0,-1.0,0.0,0.0,0.0,0.0,0.0,0.0,0.0,0.0,0.0,0.0,0.0,0.0,-1.0,-1.0,-1.0,-1.0,51.54
2024-04-03 18:18:15,357.25,0.375,0.25,0.0896985374971056,0.0,0.0,115.0,0.0,0.0,0.0,0.0,0.0,0.0,0.0,0.0,0.0,0.0,0.0,0.0,-1.0,-1.0,-1.0,-1.0,51.54
2024-04-03 18:18:15,357.25,0.375,0.4375,0.0896985374971056,0.0,0.0,-1.0,0.0,0.0,0.0,0.0,0.0,0.0,0.0,0.0,0.0,0.0,0.0,0.0,-1.0,-1.0,-1.0,-1.0,51.002
2024-04-03 18:18:15,357.25,0.375,0.0,0.0896985374971056,0.0,0.0,-1.0,0.0,0.0,0.0,0.0,0.0,0.0,0.0,0.0,0.0,0.0,0.0,0.0,-1.0,-1.0,-1.0,-1.0,51.54
2024-04-03 18:18:15,357.25,0.375,-0.25,0.0896985374971056,0.0,0.0,113.0,0.0,0.0,0.0,0.0,0.0,0.0,0.0,0.0,0.0,0.0,0.0,0.0,-1.0,-1.0,-1.0,-1.0,52.078
2024-04-03 18:18:15,357.25,0.375,0.875,0.0896985374971056,0.0,0.0,-1.0,0.0,0.0,0.0,0.0,0.0,0.0,0.0,0.0,0.0,0.0,0.0,0.0,-1.0,-1.0,-1.0,-1.0,50.464
2024-04-03 18:18:15,357.25,0.4375,1.75,0.0896985374971056,0.0,0.0,115.0,0.0,0.0,0.0,0.0,0.0,0.0,0.0,0.0,0.0,0.0,0.0,0.0,-1.0,-1.0,-1.0,-1.0,51.54
2024-04-03 18:18:15,357.25,0.4375,1.375,0.0896985374971056,0.0,0.0,-1.0,0.0,0.0,0.0,0.0,0.0,0.0,0.0,0.0,0.0,0.0,0.0,0.0,-1.0,-1.0,-1.0,-1.0,51.002
2024-04-03 18:18:15,357.25,0.4375,0.625,0.0896985374971056,0.0,0.0,-1.0,0.0,0.0,0.0,0.0,0.0,0.0,0.0,0.0,0.0,0.0,0.0,0.0,-1.0,-1.0,-1.0,-1.0,51.002
2024-04-03 18:18:15,357.25,0.4375,0.375,0.0896985374971056,0.0,0.0,0.0,0.0,0.0,0.0,0.0,0.0,0.0,0.0,0.0,0.0,0.0,0.0,0.0,-1.0,-1.0,-1.0,-1.0,51.54
2024-04-03 18:18:15,357.25,0.4375,0.625,0.0896985374971056,0.0,0.0,-1.0,0.0,0.0,0.0,0.0,0.0,0.0,0.0,0.0,0.0,0.0,0.0,0.0,-1.0,-1.0,-1.0,-1.0,51.54
2024-04-03 18:18:15,357.25,0.4375,0.625,0.0896985374971056,0.0,0.0,-1.0,0.0,0.0,0.0,0.0,0.0,0.0,0.0,0.0,0.0,0.0,0.0,0.0,-1.0,-1.0,-1.0,-1.0,51.54
2024-04-03 18:18:15,357.25,0.4375,0.5,0.0896985374971056,0.0,0.0,-1.0,0.0,0.0,0.0,0.0,0.0,0.0,0.0,0.0,0.0,0.0,0.0,0.0,-1.0,-1.0,-1.0,-1.0,51.54
2024-04-03 18:18:15,357.25,0.4375,0.375,0.0896985374971056,0.0,0.0,-1.0,0.0,0.0,0.0,0.0,0.0,0.0,0.0,0.0,0.0,0.0,0.0,0.0,-1.0,-1.0,-1.0,-1.0,51.54
2024-04-03 18:18:16,357.25,0.4375,0.4375,0.09133043208556385,0.0,0.0,-1.0,0.0,0.0,0.0,0.0,0.0,0.0,0.0,0.0,0.0,0.0,0.0,0.0,-1.0,-1.0,-1.0,-1.0,51.54
2024-04-03 18:18:16,357.25,0.4375,0.5,0.09133043208556385,0.0,0.0,-1.0,0.0,0.0,0.0,0.0,0.0,0.0,0.0,0.0,0.0,0.0,0.0,0.0,-1.0,-1.0,-1.0,-1.0,51.54
2024-04-03 18:18:16,357.25,0.4375,0.4375,0.09133043208556385,0.0,0.0,-1.0,0.0,0.0,0.0,0.0,0.0,0.0,0.0,0.0,0.0,0.0,0.0,0.0,-1.0,-1.0,-1.0,-1.0,52.078
2024-04-03 18:18:16,357.25,0.4375,0.375,0.09133043208556385,0.0,0.0,-1.0,0.0,0.0,0.0,0.0,0.0,0.0,0.0,0.0,0.0,0.0,0.0,0.0,-1.0,-1.0,-1.0,-1.0,51.54
2024-04-03 18:18:16,357.25,0.4375,0.375,0.09133043208556385,0.0,0.0,-1.0,0.0,0.0,0.0,0.0,0.0,0.0,0.0,0.0,0.0,0.0,0.0,0.0,-1.0,-1.0,-1.0,-1.0,51.54
2024-04-03 18:18:16,357.25,0.4375,0.5,0.09133043208556385,0.0,0.0,-1.0,0.0,0.0,0.0,0.0,0.0,0.0,0.0,0.0,0.0,0.0,0.0,0.0,-1.0,-1.0,-1.0,-1.0,51.54
2024-04-03 18:18:16,357.25,0.4375,0.625,0.09133043208556385,0.0,0.0,-1.0,0.0,0.0,0.0,0.0,0.0,0.0,0.0,0.0,0.0,0.0,0.0,0.0,-1.0,-1.0,-1.0,-1.0,52.078
2024-04-03 18:18:16,357.25,0.4375,0.375,0.09133043208556385,0.0,0.0,116.0,0.0,0.0,0.0,0.0,0.0,0.0,0.0,0.0,0.0,0.0,0.0,0.0,-1.0,-1.0,-1.0,-1.0,51.54
2024-04-03 18:18:16,357.25,0.4375,0.4375,0.09133043208556385,0.0,0.0,-1.0,0.0,0.0,0.0,0.0,0.0,0.0,0.0,0.0,0.0,0.0,0.0,0.0,-1.0,-1.0,-1.0,-1.0,52.078
2024-04-03 18:18:16,357.1875,0.6875,0.9375,0.09133043208556385,0.0,0.0,-1.0,0.0,0.0,0.0,0.0,0.0,0.0,0.0,0.0,0.0,0.0,0.0,0.0,-1.0,-1.0,-1.0,-1.0,51.54
2024-04-03 18:18:16,357.0625,1.5625,0.75,0.09133043208556385,0.0,0.0,-1.0,0.0,0.0,0.0,0.0,0.0,0.0,0.0,0.0,0.0,0.0,0.0,0.0,-1.0,-1.0,-1.0,-1.0,51.54
2024-04-03 18:18:16,356.9375,2.5625,-0.5625,0.09133043208556385,0.0,0.0,-1.0,0.0,0.0,0.0,0.0,0.0,0.0,0.0,0.0,0.0,0.0,0.0,0.0,-1.0,-1.0,-1.0,-1.0,51.54
2024-04-03 18:18:16,357.0,2.875,-2.5625,0.08957664783638279,0.0,0.0,117.0,0.0,0.0,0.0,0.0,0.0,0.0,0.0,0.0,0.0,0.0,0.0,0.0,-1.0,-1.0,-1.0,-1.0,51.54
2024-04-03 18:18:16,356.9375,2.8125,-2.0625,0.08957664783638279,0.0,0.0,-1.0,0.0,0.0,0.0,0.0,0.0,0.0,0.0,0.0,0.0,0.0,0.0,0.0,-1.0,-1.0,-1.0,-1.0,51.54
2024-04-03 18:18:16,356.75,2.6875,-0.9375,0.08957664783638279,0.0,0.0,-1.0,0.0,0.0,0.0,0.0,0.0,0.0,0.0,0.0,0.0,0.0,0.0,0.0,-1.0,-1.0,-1.0,-1.0,51.54
2024-04-03 18:18:17,356.375,2.625,1.5625,0.08957664783638279,0.0,0.0,0.0,0.0,0.0,0.0,0.0,0.0,0.0,0.0,0.0,0.0,0.0,0.0,0.0,-1.0,-1.0,-1.0,-1.0,51.54
2024-04-03 18:18:17,356.1875,2.625,5.3125,0.08957664783638279,0.0,0.0,-1.0,0.0,0.0,0.0,0.0,0.0,0.0,0.0,0.0,0.0,0.0,0.0,0.0,-1.0,-1.0,-1.0,-1.0,51.54
2024-04-03 18:18:17,356.0,2.75,7.0625,0.08957664783638279,0.0,0.0,-1.0,0.0,0.0,0.0,0.0,0.0,0.0,0.0,0.0,0.0,0.0,0.0,0.0,-1.0,-1.0,-1.0,-1.0,51.54
2024-04-03 18:18:17,355.8125,2.6875,8.0,0.08957664783638279,0.0,0.0,-1.0,0.0,0.0,0.0,0.0,0.0,0.0,0.0,0.0,0.0,0.0,0.0,0.0,-1.0,-1.0,-1.0,-1.0,51.54
2024-04-03 18:18:17,355.625,2.6875,8.6875,0.08957664783638279,0.0,0.0,-1.0,0.0,0.0,0.0,0.0,0.0,0.0,0.0,0.0,0.0,0.0,0.0,0.0,-1.0,-1.0,-1.0,-1.0,51.002
2024-04-03 18:18:17,355.3125,2.625,9.1875,0.08957664783638279,0.0,0.0,117.0,0.0,0.0,0.0,0.0,0.0,0.0,0.0,0.0,0.0,0.0,0.0,0.0,-1.0,-1.0,-1.0,-1.0,51.54
2024-04-03 18:18:17,355.125,2.625,9.8125,0.08957664783638279,0.0,0.0,-1.0,0.0,0.0,0.0,0.0,0.0,0.0,0.0,0.0,0.0,0.0,0.0,0.0,-1.0,-1.0,-1.0,-1.0,51.54
2024-04-03 18:18:17,355.0625,2.6875,10.5625,0.08957664783638279,0.0,0.0,-1.0,0.0,0.0,0.0,0.0,0.0,0.0,0.0,0.0,0.0,0.0,0.0,0.0,-1.0,-1.0,-1.0,-1.0,51.54
2024-04-03 18:18:17,355.0,2.625,10.6875,0.08957664783638279,0.0,0.0,115.0,0.0,0.0,0.0,0.0,0.0,0.0,0.0,0.0,0.0,0.0,0.0,0.0,-1.0,-1.0,-1.0,-1.0,51.54
2024-04-03 18:18:17,354.875,2.5,10.4375,0.08957664783638279,0.0,0.0,-1.0,0.0,0.0,0.0,0.0,0.0,0.0,0.0,0.0,0.0,0.0,0.0,0.0,-1.0,-1.0,-1.0,-1.0,51.54
2024-04-03 18:18:17,354.9375,2.5,10.4375,0.08957664783638279,0.0,0.0,-1.0,0.0,0.0,0.0,0.0,0.0,0.0,0.0,0.0,0.0,0.0,0.0,0.0,-1.0,-1.0,-1.0,-1.0,51.54
2024-04-03 18:18:17,355.0625,2.6875,10.8125,0.08888564763133856,0.0,0.0,115.0,0.0,0.0,0.0,0.0,0.0,0.0,0.0,0.0,0.0,0.0,0.0,0.0,-1.0,-1.0,-1.0,-1.0,51.54
2024-04-03 18:18:17,355.25,3.125,11.375,0.08888564763133856,0.0,0.0,-1.0,0.0,0.0,0.0,0.0,0.0,0.0,0.0,0.0,0.0,0.0,0.0,0.0,-1.0,-1.0,-1.0,-1.0,51.54
2024-04-03 18:18:17,355.375,3.25,11.4375,0.08888564763133856,0.0,0.0,-1.0,0.0,0.0,0.0,0.0,0.0,0.0,0.0,0.0,0.0,0.0,0.0,0.0,-1.0,-1.0,-1.0,-1.0,51.54
2024-04-03 18:18:18,355.375,3.25,11.4375,0.08888564763133856,0.0,0.0,-1.0,0.0,0.0,0.0,0.0,0.0,0.0,0.0,0.0,0.0,0.0,0.0,0.0,-1.0,-1.0,-1.0,-1.0,51.54
2024-04-03 18:18:18,355.375,3.1875,11.5625,0.08888564763133856,0.0,0.0,-1.0,0.0,0.0,0.0,0.0,0.0,0.0,0.0,0.0,0.0,0.0,0.0,0.0,-1.0,-1.0,-1.0,-1.0,52.078
2024-04-03 18:18:18,355.1875,2.5625,11.0,0.08888564763133856,0.0,0.0,-1.0,0.0,0.0,0.0,0.0,0.0,0.0,0.0,0.0,0.0,0.0,0.0,0.0,-1.0,-1.0,-1.0,-1.0,51.54
2024-04-03 18:18:18,355.625,2.375,9.375,0.08888564763133856,0.0,0.0,115.0,0.0,0.0,0.0,0.0,0.0,0.0,0.0,0.0,0.0,0.0,0.0,0.0,-1.0,-1.0,-1.0,-1.0,51.54
2024-04-03 18:18:18,355.8125,2.125,8.75,0.08888564763133856,0.0,0.0,-1.0,0.0,0.0,0.0,0.0,0.0,0.0,0.0,0.0,0.0,0.0,0.0,0.0,-1.0,-1.0,-1.0,-1.0,51.54
2024-04-03 18:18:18,356.0,2.0,8.1875,0.08888564763133856,0.0,0.0,-1.0,0.0,0.0,0.0,0.0,0.0,0.0,0.0,0.0,0.0,0.0,0.0,0.0,-1.0,-1.0,-1.0,-1.0,51.54
2024-04-03 18:18:18,356.25,1.8125,7.1875,0.08888564763133856,0.0,0.0,116.0,0.0,0.0,0.0,0.0,0.0,0.0,0.0,0.0,0.0,0.0,0.0,0.0,-1.0,-1.0,-1.0,-1.0,51.54
2024-04-03 18:18:18,356.375,1.6875,6.4375,0.08888564763133856,0.0,0.0,-1.0,0.0,0.0,0.0,0.0,0.0,0.0,0.0,0.0,0.0,0.0,0.0,0.0,-1.0,-1.0,-1.0,-1.0,50.464
2024-04-03 18:18:18,356.5,1.6875,5.9375,0.08888564763133856,0.0,0.0,-1.0,0.0,0.0,0.0,0.0,0.0,0.0,0.0,0.0,0.0,0.0,0.0,0.0,-1.0,-1.0,-1.0,-1.0,51.54
2024-04-03 18:18:18,356.6875,1.6875,6.375,0.08888564763133856,0.0,0.0,115.0,0.0,0.0,0.0,0.0,0.0,0.0,0.0,0.0,0.0,0.0,0.0,0.0,-1.0,-1.0,-1.0,-1.0,51.002
2024-04-03 18:18:18,356.6875,1.75,6.625,0.08888564763133856,0.0,0.0,-1.0,0.0,0.0,0.0,0.0,0.0,0.0,0.0,0.0,0.0,0.0,0.0,0.0,-1.0,-1.0,-1.0,-1.0,52.078
2024-04-03 18:18:18,356.75,1.875,6.1875,0.08888564763133856,0.0,0.0,-1.0,0.0,0.0,0.0,0.0,0.0,0.0,0.0,0.0,0.0,0.0,0.0,0.0,-1.0,-1.0,-1.0,-1.0,51.54
2024-04-03 18:18:18,356.875,2.25,4.75,0.08888564763133856,0.0,0.0,115.0,0.0,0.0,0.0,0.0,0.0,0.0,0.0,0.0,0.0,0.0,0.0,0.0,-1.0,-1.0,-1.0,-1.0,50.464
2024-04-03 18:18:18,356.875,2.625,3.0,0.08945198577743005,0.0,0.0,-1.0,0.0,0.0,0.0,0.0,0.0,0.0,0.0,0.0,0.0,0.0,0.0,0.0,-1.0,-1.0,-1.0,-1.0,51.54
2024-04-03 18:18:19,356.8125,2.875,0.5625,0.08945198577743005,0.0,0.0,-1.0,0.0,0.0,0.0,0.0,0.0,0.0,0.0,0.0,0.0,0.0,0.0,0.0,-1.0,-1.0,-1.0,-1.0,51.54
2024-04-03 18:18:19,356.875,2.8125,-1.3125,0.08945198577743005,0.0,0.0,115.0,0.0,0.0,0.0,0.0,0.0,0.0,0.0,0.0,0.0,0.0,0.0,0.0,-1.0,-1.0,-1.0,-1.0,51.54
2024-04-03 18:18:19,356.9375,2.6875,-2.1875,0.08945198577743005,0.0,0.0,-1.0,0.0,0.0,0.0,0.0,0.0,0.0,0.0,0.0,0.0,0.0,0.0,0.0,-1.0,-1.0,-1.0,-1.0,51.54
2024-04-03 18:18:19,356.9375,2.5,-1.375,0.08945198577743005,0.0,0.0,-1.0,0.0,0.0,0.0,0.0,0.0,0.0,0.0,0.0,0.0,0.0,0.0,0.0,-1.0,-1.0,-1.0,-1.0,50.464
2024-04-03 18:18:19,357.0625,2.375,1.0,0.08945198577743005,0.0,0.0,113.0,0.0,0.0,0.0,0.0,0.0,0.0,0.0,0.0,0.0,0.0,0.0,0.0,-1.0,-1.0,-1.0,-1.0,51.54
2024-04-03 18:18:19,357.3125,2.125,3.75,0.08945198577743005,0.0,0.0,-1.0,0.0,0.0,0.0,0.0,0.0,0.0,0.0,0.0,0.0,0.0,0.0,0.0,-1.0,-1.0,-1.0,-1.0,51.54
2024-04-03 18:18:19,357.25,1.4375,4.125,0.08945198577743005,0.0,0.0,116.0,0.0,0.0,0.0,0.0,0.0,0.0,0.0,0.0,0.0,0.0,0.0,0.0,-1.0,-1.0,-1.0,-1.0,50.464
2024-04-03 18:18:19,357.375,1.0625,3.8125,0.08945198577743005,0.0,0.0,-1.0,0.0,0.0,0.0,0.0,0.0,0.0,0.0,0.0,0.0,0.0,0.0,0.0,-1.0,-1.0,-1.0,-1.0,51.54
2024-04-03 18:18:19,357.375,1.0625,3.3125,0.08945198577743005,0.0,0.0,-1.0,0.0,0.0,0.0,0.0,0.0,0.0,0.0,0.0,0.0,0.0,0.0,0.0,-1.0,-1.0,-1.0,-1.0,51.54
2024-04-03 18:18:19,357.375,1.0625,2.8125,0.08945198577743005,0.0,0.0,116.0,0.0,0.0,0.0,0.0,0.0,0.0,0.0,0.0,0.0,0.0,0.0,0.0,-1.0,-1.0,-1.0,-1.0,51.54
2024-04-03 18:18:19,357.375,1.0625,2.625,0.08945198577743005,0.0,0.0,-1.0,0.0,0.0,0.0,0.0,0.0,0.0,0.0,0.0,0.0,0.0,0.0,0.0,-1.0,-1.0,-1.0,-1.0,51.54
2024-04-03 18:18:19,357.375,1.0625,2.75,0.08945198577743005,0.0,0.0,-1.0,0.0,0.0,0.0,0.0,0.0,0.0,0.0,0.0,0.0,0.0,0.0,0.0,-1.0,-1.0,-1.0,-1.0,51.002
2024-04-03 18:18:19,357.25,1.125,3.4375,0.08945198577743005,0.0,0.0,0.0,0.0,0.0,0.0,0.0,0.0,0.0,0.0,0.0,0.0,0.0,0.0,0.0,-1.0,-1.0,-1.0,-1.0,51.002
2024-04-03 18:18:19,357.25,1.125,3.375,0.09080057623497725,0.0,0.0,-1.0,0.0,0.0,0.0,0.0,0.0,0.0,0.0,0.0,0.0,0.0,0.0,0.0,-1.0,-1.0,-1.0,-1.0,51.54
2024-04-03 18:18:20,357.3125,1.0625,2.75,0.09080057623497725,0.0,0.0,-1.0,0.0,0.0,0.0,0.0,0.0,0.0,0.0,0.0,0.0,0.0,0.0,0.0,-1.0,-1.0,-1.0,-1.0,51.54
2024-04-03 18:18:20,357.3125,1.0,2.375,0.09080057623497725,0.0,0.0,-1.0,0.0,0.0,0.0,0.0,0.0,0.0,0.0,0.0,0.0,0.0,0.0,0.0,-1.0,-1.0,-1.0,-1.0,51.54
2024-04-03 18:18:20,357.3125,1.0,2.4375,0.09080057623497725,0.0,0.0,-1.0,0.0,0.0,0.0,0.0,0.0,0.0,0.0,0.0,0.0,0.0,0.0,0.0,-1.0,-1.0,-1.0,-1.0,51.54
2024-04-03 18:18:20,357.3125,1.0,2.6875,0.09080057623497725,0.0,0.0,-1.0,0.0,0.0,0.0,0.0,0.0,0.0,0.0,0.0,0.0,0.0,0.0,0.0,-1.0,-1.0,-1.0,-1.0,51.54
2024-04-03 18:18:20,357.3125,1.0625,3.1875,0.09080057623497725,0.0,0.0,-1.0,0.0,0.0,0.0,0.0,0.0,0.0,0.0,0.0,0.0,0.0,0.0,0.0,-1.0,-1.0,-1.0,-1.0,51.54
2024-04-03 18:18:20,357.3125,1.0625,3.375,0.09080057623497725,0.0,0.0,-1.0,0.0,0.0,0.0,0.0,0.0,0.0,0.0,0.0,0.0,0.0,0.0,0.0,-1.0,-1.0,-1.0,-1.0,52.078
2024-04-03 18:18:20,357.3125,1.0625,3.0625,0.09080057623497725,0.0,0.0,115.0,0.0,0.0,0.0,0.0,0.0,0.0,0.0,0.0,0.0,0.0,0.0,0.0,-1.0,-1.0,-1.0,-1.0,50.464
2024-04-03 18:18:20,357.3125,1.0625,2.9375,0.09080057623497725,0.0,0.0,-1.0,0.0,0.0,0.0,0.0,0.0,0.0,0.0,0.0,0.0,0.0,0.0,0.0,-1.0,-1.0,-1.0,-1.0,51.54
2024-04-03 18:18:20,357.3125,1.0625,3.0,0.09080057623497725,0.0,0.0,-1.0,0.0,0.0,0.0,0.0,0.0,0.0,0.0,0.0,0.0,0.0,0.0,0.0,-1.0,-1.0,-1.0,-1.0,52.078
2024-04-03 18:18:20,357.3125,1.0625,3.125,0.09080057623497725,0.0,0.0,116.0,0.0,0.0,0.0,0.0,0.0,0.0,0.0,0.0,0.0,0.0,0.0,0.0,-1.0,-1.0,-1.0,-1.0,51.002
2024-04-03 18:18:20,357.3125,1.0625,3.1875,0.09080057623497725,0.0,0.0,-1.0,0.0,0.0,0.0,0.0,0.0,0.0,0.0,0.0,0.0,0.0,0.0,0.0,-1.0,-1.0,-1.0,-1.0,51.002
2024-04-03 18:18:20,357.3125,1.0625,3.125,0.09080057623497725,0.0,0.0,-1.0,0.0,0.0,0.0,0.0,0.0,0.0,0.0,0.0,0.0,0.0,0.0,0.0,-1.0,-1.0,-1.0,-1.0,51.54
2024-04-03 18:18:20,357.3125,1.0625,3.0,0.08880829219195573,0.0,0.0,117.0,0.0,0.0,0.0,0.0,0.0,0.0,0.0,0.0,0.0,0.0,0.0,0.0,-1.0,-1.0,-1.0,-1.0,51.002
2024-04-03 18:18:20,357.3125,1.0625,3.0625,0.08880829219195573,0.0,0.0,-1.0,0.0,0.0,0.0,0.0,0.0,0.0,0.0,0.0,0.0,0.0,0.0,0.0,-1.0,-1.0,-1.0,-1.0,50.464
2024-04-03 18:18:20,357.3125,1.0625,3.125,0.08880829219195573,0.0,0.0,-1.0,0.0,0.0,0.0,0.0,0.0,0.0,0.0,0.0,0.0,0.0,0.0,0.0,-1.0,-1.0,-1.0,-1.0,51.54
2024-04-03 18:18:21,357.3125,1.0625,3.125,0.08880829219195573,0.0,0.0,115.0,0.0,0.0,0.0,0.0,0.0,0.0,0.0,0.0,0.0,0.0,0.0,0.0,-1.0,-1.0,-1.0,-1.0,51.54
2024-04-03 18:18:21,357.3125,1.0625,3.125,0.08880829219195573,0.0,0.0,-1.0,0.0,0.0,0.0,0.0,0.0,0.0,0.0,0.0,0.0,0.0,0.0,0.0,-1.0,-1.0,-1.0,-1.0,51.54
2024-04-03 18:18:21,357.3125,1.0625,3.125,0.08880829219195573,0.0,0.0,-1.0,0.0,0.0,0.0,0.0,0.0,0.0,0.0,0.0,0.0,0.0,0.0,0.0,-1.0,-1.0,-1.0,-1.0,51.54
2024-04-03 18:18:21,357.3125,1.0625,3.125,0.08880829219195573,0.0,0.0,117.0,0.0,0.0,0.0,0.0,0.0,0.0,0.0,0.0,0.0,0.0,0.0,0.0,-1.0,-1.0,-1.0,-1.0,51.54
2024-04-03 18:18:21,357.3125,1.0625,3.125,0.08880829219195573,0.0,0.0,-1.0,0.0,0.0,0.0,0.0,0.0,0.0,0.0,0.0,0.0,0.0,0.0,0.0,-1.0,-1.0,-1.0,-1.0,51.002
2024-04-03 18:18:21,357.3125,1.0625,3.125,0.08880829219195573,0.0,0.0,-1.0,0.0,0.0,0.0,0.0,0.0,0.0,0.0,0.0,0.0,0.0,0.0,0.0,-1.0,-1.0,-1.0,-1.0,51.54
2024-04-03 18:18:21,357.3125,1.0625,3.125,0.08880829219195573,0.0,0.0,115.0,0.0,0.0,0.0,0.0,0.0,0.0,0.0,0.0,0.0,0.0,0.0,0.0,-1.0,-1.0,-1.0,-1.0,51.54
2024-04-03 18:18:21,357.3125,1.0625,3.3125,0.08880829219195573,0.0,0.0,-1.0,0.0,0.0,0.0,0.0,0.0,0.0,0.0,0.0,0.0,0.0,0.0,0.0,-1.0,-1.0,-1.0,-1.0,51.54
2024-04-03 18:18:21,357.3125,1.0625,3.875,0.08880829219195573,0.0,0.0,-1.0,0.0,0.0,0.0,0.0,0.0,0.0,0.0,0.0,0.0,0.0,0.0,0.0,-1.0,-1.0,-1.0,-1.0,51.002
2024-04-03 18:18:21,357.3125,1.0625,4.625,0.08880829219195573,0.0,0.0,117.0,0.0,0.0,0.0,0.0,0.0,0.0,0.0,0.0,0.0,0.0,0.0,0.0,-1.0,-1.0,-1.0,-1.0,51.002
2024-04-03 18:18:21,357.3125,1.0625,4.3125,0.08880829219195573,0.0,0.0,-1.0,0.0,0.0,0.0,0.0,0.0,0.0,0.0,0.0,0.0,0.0,0.0,0.0,-1.0,-1.0,-1.0,-1.0,50.464
2024-04-03 18:18:21,357.375,1.0,3.8125,0.08880829219195573,0.0,0.0,-1.0,0.0,0.0,0.0,0.0,0.0,0.0,0.0,0.0,0.0,0.0,0.0,0.0,-1.0,-1.0,-1.0,-1.0,51.54
2024-04-03 18:18:21,357.375,1.0,3.6875,0.08814376627426582,0.0,0.0,116.0,0.0,0.0,0.0,0.0,0.0,0.0,0.0,0.0,0.0,0.0,0.0,0.0,-1.0,-1.0,-1.0,-1.0,51.54
2024-04-03 18:18:21,357.375,1.0,3.75,0.08814376627426582,0.0,0.0,-1.0,0.0,0.0,0.0,0.0,0.0,0.0,0.0,0.0,0.0,0.0,0.0,0.0,-1.0,-1.0,-1.0,-1.0,51.54
2024-04-03 18:18:21,357.375,1.0,3.9375,0.08814376627426582,0.0,0.0,-1.0,0.0,0.0,0.0,0.0,0.0,0.0,0.0,0.0,0.0,0.0,0.0,0.0,-1.0,-1.0,-1.0,-1.0,51.54
2024-04-03 18:18:22,357.375,1.0,4.1875,0.08814376627426582,0.0,0.0,-1.0,0.0,0.0,0.0,0.0,0.0,0.0,0.0,0.0,0.0,0.0,0.0,0.0,-1.0,-1.0,-1.0,-1.0,51.54
2024-04-03 18:18:22,357.375,1.0625,4.625,0.08814376627426582,0.0,0.0,-1.0,0.0,0.0,0.0,0.0,0.0,0.0,0.0,0.0,0.0,0.0,0.0,0.0,-1.0,-1.0,-1.0,-1.0,51.54
2024-04-03 18:18:22,357.375,1.0625,4.625,0.08814376627426582,0.0,0.0,-1.0,0.0,0.0,0.0,0.0,0.0,0.0,0.0,0.0,0.0,0.0,0.0,0.0,-1.0,-1.0,-1.0,-1.0,51.54
2024-04-03 18:18:22,357.375,1.0625,3.875,0.08814376627426582,0.0,0.0,-1.0,0.0,0.0,0.0,0.0,0.0,0.0,0.0,0.0,0.0,0.0,0.0,0.0,-1.0,-1.0,-1.0,-1.0,51.54
2024-04-03 18:18:22,357.375,1.0,3.5,0.08814376627426582,0.0,0.0,-1.0,0.0,0.0,0.0,0.0,0.0,0.0,0.0,0.0,0.0,0.0,0.0,0.0,-1.0,-1.0,-1.0,-1.0,51.54
2024-04-03 18:18:22,357.375,1.0,3.6875,0.08814376627426582,0.0,0.0,-1.0,0.0,0.0,0.0,0.0,0.0,0.0,0.0,0.0,0.0,0.0,0.0,0.0,-1.0,-1.0,-1.0,-1.0,51.002
2024-04-03 18:18:22,357.375,1.0,3.875,0.08814376627426582,0.0,0.0,-1.0,0.0,0.0,0.0,0.0,0.0,0.0,0.0,0.0,0.0,0.0,0.0,0.0,-1.0,-1.0,-1.0,-1.0,51.54
