Timestamp,Yaw,Pitch,Roll,Depth,Depth Set,Depth Control,Water,Roll Control,Pitch Control,Thruster1,Thruster2,Thruster3,Thruster4,Thruster5,Thruster6,BCD1,BCD2,BCD3,BCD4,BCD1 Volt,BCD2 Volt,BCD3 Volt,BCD4 Volt,CPU
2024-04-01 20:19:24,-0.25,-0.5625,0.4375,0.0,0.0,0.0,0.0,0.0,0.0,0.0,0.0,0.0,0.0,-0.0,0.0,0.0,0.0,0.0,0.0,0.0,0.0,0.0,0.0,0.0
2024-04-01 20:19:24,-0.25,-0.5625,0.4375,0.0,0.0,0.0,0.0,0.0,0.0,0.0,0.0,0.0,0.0,-0.0,0.0,0.0,0.0,0.0,0.0,0.0,0.0,0.0,0.0,0.0
2024-04-01 20:19:24,-0.25,-0.5625,0.4375,0.1945478159454948,0.0,0.0,-1.0,0.0,0.0,0.0,0.0,0.0,0.0,-0.0,0.0,0.0,0.0,0.0,0.0,11.0,12.0,13.0,14.0,61.224
2024-04-01 20:19:24,-0.25,-0.5625,0.4375,0.0,0.0,0.0,0.0,0.0,0.0,0.0,0.0,0.0,0.0,-0.0,0.0,0.0,0.0,0.0,0.0,0.0,0.0,0.0,0.0,0.0
2024-04-01 20:19:24,-0.25,-0.5625,0.4375,0.0,0.0,0.0,0.0,0.0,0.0,0.0,0.0,0.0,0.0,-0.0,0.0,0.0,0.0,0.0,0.0,0.0,0.0,0.0,0.0,0.0
2024-04-01 20:19:24,-0.25,-0.5625,0.4375,0.1945478159454948,0.0,0.0,-1.0,0.0,0.0,0.0,0.0,0.0,0.0,-0.0,0.0,0.0,0.0,0.0,0.0,11.0,12.0,13.0,14.0,61.224
2024-04-01 20:19:24,-0.25,-0.5625,0.4375,0.1945478159454948,0.0,0.0,-1.0,0.0,0.0,0.0,0.0,0.0,0.0,-0.0,0.0,0.0,0.0,0.0,0.0,11.0,12.0,13.0,14.0,61.224
2024-04-01 20:19:24,-0.25,-0.5625,0.4375,0.1945478159454948,0.0,0.0,-1.0,0.0,0.0,0.0,0.0,0.0,0.0,-0.0,0.0,0.0,0.0,0.0,0.0,11.0,12.0,13.0,14.0,61.224
2024-04-01 20:19:24,-0.25,-0.5625,0.4375,0.1945478159454948,0.0,0.0,-1.0,0.0,0.0,0.0,0.0,0.0,0.0,-0.0,0.0,0.0,0.0,0.0,0.0,11.0,12.0,13.0,14.0,61.224
2024-04-01 20:19:24,-0.25,-0.5625,0.4375,0.1945478159454948,0.0,0.0,-1.0,0.0,0.0,0.0,0.0,0.0,0.0,-0.0,0.0,0.0,0.0,0.0,0.0,11.0,12.0,13.0,14.0,60.686
2024-04-01 20:19:24,-0.25,-0.5625,0.4375,0.1945478159454948,0.0,0.0,-1.0,0.0,0.0,0.0,0.0,0.0,0.0,-0.0,0.0,0.0,0.0,0.0,0.0,11.0,12.0,13.0,14.0,60.686
2024-04-01 20:19:24,-0.25,-0.5625,0.4375,0.0,0.0,0.0,0.0,0.0,0.0,0.0,0.0,0.0,0.0,-0.0,0.0,0.0,0.0,0.0,0.0,0.0,0.0,0.0,0.0,0.0
2024-04-01 20:19:24,-0.25,-0.5625,0.4375,0.1945478159454948,0.0,0.0,-1.0,0.0,0.0,0.0,0.0,0.0,0.0,-0.0,0.0,0.0,0.0,0.0,0.0,11.0,12.0,13.0,14.0,61.224
2024-04-01 20:19:25,-0.25,-0.5625,0.4375,0.19541163822602067,0.0,0.0,-1.0,0.0,0.0,0.0,0.0,0.0,0.0,-0.0,0.0,0.0,0.0,0.0,0.0,11.0,12.0,13.0,14.0,60.686
2024-04-01 20:19:25,-0.25,-0.5625,0.4375,0.19541163822602067,0.0,0.0,-1.0,0.0,0.0,0.0,0.0,0.0,0.0,-0.0,0.0,0.0,0.0,0.0,0.0,11.0,12.0,13.0,14.0,61.224
2024-04-01 20:19:25,-0.25,-0.5625,0.4375,0.19541163822602067,0.0,0.0,-1.0,0.0,0.0,0.0,0.0,0.0,0.0,-0.0,0.0,0.0,0.0,0.0,0.0,11.0,12.0,13.0,14.0,61.224
2024-04-01 20:19:25,-0.25,-0.5625,0.4375,0.0,0.0,0.0,0.0,0.0,0.0,0.0,0.0,0.0,0.0,-0.0,0.0,0.0,0.0,0.0,0.0,0.0,0.0,0.0,0.0,0.0
2024-04-01 20:19:25,-0.25,-0.5625,0.4375,0.19541163822602067,0.0,0.0,-1.0,0.0,0.0,0.0,0.0,0.0,0.0,-0.0,0.0,0.0,0.0,0.0,0.0,11.0,12.0,13.0,14.0,61.224
2024-04-01 20:19:25,-0.25,-0.5625,0.4375,0.19541163822602067,0.0,0.0,-1.0,0.0,0.0,0.0,0.0,0.0,0.0,-0.0,0.0,0.0,0.0,0.0,0.0,11.0,12.0,13.0,14.0,61.224
2024-04-01 20:19:25,-0.25,-0.5625,0.4375,0.19541163822602067,0.0,0.0,-1.0,0.0,0.0,0.0,0.0,0.0,0.0,-0.0,0.0,0.0,0.0,0.0,0.0,11.0,12.0,13.0,14.0,61.224
2024-04-01 20:19:25,-0.25,-0.5625,0.4375,0.0,0.0,0.0,0.0,0.0,0.0,0.0,0.0,0.0,0.0,-0.0,0.0,0.0,0.0,0.0,0.0,0.0,0.0,0.0,0.0,0.0
2024-04-01 20:19:25,-0.25,-0.5625,0.4375,0.0,0.0,0.0,0.0,0.0,0.0,0.0,0.0,0.0,0.0,-0.0,0.0,0.0,0.0,0.0,0.0,0.0,0.0,0.0,0.0,0.0
2024-04-01 20:19:25,-0.25,-0.5625,0.4375,0.19541163822602067,0.0,0.0,-1.0,0.0,0.0,0.0,0.0,0.0,0.0,-0.0,0.0,0.0,0.0,0.0,0.0,11.0,12.0,13.0,14.0,60.686
2024-04-01 20:19:25,-0.25,-0.5625,0.4375,0.19541163822602067,0.0,0.0,-1.0,0.0,0.0,0.0,0.0,0.0,0.0,-0.0,0.0,0.0,0.0,0.0,0.0,11.0,12.0,13.0,14.0,61.224
2024-04-01 20:19:25,-0.25,-0.5625,0.4375,0.19541163822602067,0.0,0.0,-1.0,0.0,0.0,0.0,0.0,0.0,0.0,-0.0,0.0,0.0,0.0,0.0,0.0,11.0,12.0,13.0,14.0,60.686
2024-04-01 20:19:25,-0.25,-0.5625,0.4375,0.19541163822602067,0.0,0.0,-1.0,0.0,0.0,0.0,0.0,0.0,0.0,-0.0,0.0,0.0,0.0,0.0,0.0,11.0,12.0,13.0,14.0,60.686
2024-04-01 20:19:25,-0.25,-0.5625,0.4375,0.0,0.0,0.0,0.0,0.0,0.0,0.0,0.0,0.0,0.0,-0.0,0.0,0.0,0.0,0.0,0.0,0.0,0.0,0.0,0.0,0.0
2024-04-01 20:19:25,-0.25,-0.5625,0.4375,0.0,0.0,0.0,0.0,0.0,0.0,0.0,0.0,0.0,0.0,-0.0,0.0,0.0,0.0,0.0,0.0,0.0,0.0,0.0,0.0,0.0
2024-04-01 20:19:25,-0.25,-0.5625,0.4375,0.19583332261670996,0.0,0.0,-1.0,0.0,0.0,0.0,0.0,0.0,0.0,-0.0,0.0,0.0,0.0,0.0,0.0,11.0,12.0,13.0,14.0,61.224
2024-04-01 20:19:26,-0.25,-0.5625,0.4375,0.19583332261670996,0.0,0.0,-1.0,0.0,0.0,0.0,0.0,0.0,0.0,-0.0,0.0,0.0,0.0,0.0,0.0,11.0,12.0,13.0,14.0,61.224
2024-04-01 20:19:26,-0.25,-0.5625,0.4375,0.19583332261670996,0.0,0.0,-1.0,0.0,0.0,0.0,0.0,0.0,0.0,-0.0,0.0,0.0,0.0,0.0,0.0,11.0,12.0,13.0,14.0,61.224
2024-04-01 20:19:26,-0.25,-0.5625,0.4375,0.19583332261670996,0.0,0.0,-1.0,0.0,0.0,0.0,0.0,0.0,0.0,-0.0,0.0,0.0,0.0,0.0,0.0,11.0,12.0,13.0,14.0,61.224
2024-04-01 20:19:26,-0.25,-0.5625,0.4375,0.19583332261670996,0.0,0.0,-1.0,0.0,0.0,0.0,0.0,0.0,0.0,-0.0,0.0,0.0,0.0,0.0,0.0,11.0,12.0,13.0,14.0,60.686
2024-04-01 20:19:26,-0.25,-0.5625,0.4375,0.19583332261670996,0.0,0.0,-1.0,0.0,0.0,0.0,0.0,0.0,0.0,-0.0,0.0,0.0,0.0,0.0,0.0,11.0,12.0,13.0,14.0,60.686
2024-04-01 20:19:26,-0.25,-0.5625,0.4375,0.19583332261670996,0.0,0.0,-1.0,0.0,0.0,0.0,0.0,0.0,0.0,-0.0,0.0,0.0,0.0,0.0,0.0,11.0,12.0,13.0,14.0,60.686
2024-04-01 20:19:26,-0.25,-0.5625,0.4375,0.19583332261670996,0.0,0.0,-1.0,0.0,0.0,0.0,0.0,0.0,0.0,-0.0,0.0,0.0,0.0,0.0,0.0,11.0,12.0,13.0,14.0,61.224
2024-04-01 20:19:26,-0.25,-0.5625,0.4375,0.19583332261670996,0.0,0.0,-1.0,0.0,0.0,0.0,0.0,0.0,0.0,-0.0,0.0,0.0,0.0,0.0,0.0,11.0,12.0,13.0,14.0,60.686
2024-04-01 20:19:26,-0.25,-0.5625,0.4375,0.19583332261670996,0.0,0.0,-1.0,0.0,0.0,0.0,0.0,0.0,0.0,-0.0,0.0,0.0,0.0,0.0,0.0,11.0,12.0,13.0,14.0,61.762
2024-04-01 20:19:26,-0.25,-0.5625,0.4375,0.19583332261670996,0.0,0.0,-1.0,0.0,0.0,0.0,0.0,0.0,0.0,-0.0,0.0,0.0,0.0,0.0,0.0,11.0,12.0,13.0,14.0,61.224
2024-04-01 20:19:26,-0.25,-0.5625,0.4375,0.19583332261670996,0.0,0.0,-1.0,0.0,0.0,0.0,0.0,0.0,0.0,-0.0,0.0,0.0,0.0,0.0,0.0,11.0,12.0,13.0,14.0,60.686
2024-04-01 20:19:26,-0.25,-0.5625,0.4375,0.19583332261670996,0.0,0.0,-1.0,0.0,0.0,0.0,0.0,0.0,0.0,-0.0,0.0,0.0,0.0,0.0,0.0,11.0,12.0,13.0,14.0,61.224
2024-04-01 20:19:26,-0.25,-0.5625,0.4375,0.0,0.0,0.0,0.0,0.0,0.0,0.0,0.0,0.0,0.0,-0.0,0.0,0.0,0.0,0.0,0.0,0.0,0.0,0.0,0.0,0.0
2024-04-01 20:19:26,-0.25,-0.5625,0.4375,0.0,0.0,0.0,0.0,0.0,0.0,0.0,0.0,0.0,0.0,-0.0,0.0,0.0,0.0,0.0,0.0,0.0,0.0,0.0,0.0,0.0
2024-04-01 20:19:26,-0.25,-0.5625,0.4375,0.1939124676689301,0.0,0.0,-1.0,0.0,0.0,0.0,0.0,0.0,0.0,-0.0,0.0,0.0,0.0,0.0,0.0,11.0,12.0,13.0,14.0,61.224
2024-04-01 20:19:26,-0.25,-0.5625,0.4375,0.1939124676689301,0.0,0.0,-1.0,0.0,0.0,0.0,0.0,0.0,0.0,-0.0,0.0,0.0,0.0,0.0,0.0,11.0,12.0,13.0,14.0,61.224
2024-04-01 20:19:26,-0.25,-0.5625,0.4375,0.1939124676689301,0.0,0.0,-1.0,0.0,0.0,0.0,0.0,0.0,0.0,-0.0,0.0,0.0,0.0,0.0,0.0,11.0,12.0,13.0,14.0,61.224
2024-04-01 20:19:27,-0.25,-0.5625,0.4375,0.0,0.0,0.0,0.0,0.0,0.0,0.0,0.0,0.0,0.0,-0.0,0.0,0.0,0.0,0.0,0.0,0.0,0.0,0.0,0.0,0.0
2024-04-01 20:19:27,-0.25,-0.5625,0.4375,0.1939124676689301,0.0,0.0,-1.0,0.0,0.0,0.0,0.0,0.0,0.0,-0.0,0.0,0.0,0.0,0.0,0.0,11.0,12.0,13.0,14.0,61.224
2024-04-01 20:19:27,-0.25,-0.5625,0.4375,0.1939124676689301,0.0,0.0,-1.0,0.0,0.0,0.0,0.0,0.0,0.0,-0.0,0.0,0.0,0.0,0.0,0.0,11.0,12.0,13.0,14.0,61.224
2024-04-01 20:19:27,-0.25,-0.5625,0.4375,0.1939124676689301,0.0,0.0,-1.0,0.0,0.0,0.0,0.0,0.0,0.0,-0.0,0.0,0.0,0.0,0.0,0.0,11.0,12.0,13.0,14.0,61.224
2024-04-01 20:19:27,-0.25,-0.5625,0.4375,0.0,0.0,0.0,0.0,0.0,0.0,0.0,0.0,0.0,0.0,-0.0,0.0,0.0,0.0,0.0,0.0,0.0,0.0,0.0,0.0,0.0
2024-04-01 20:19:27,-0.25,-0.5625,0.4375,0.0,0.0,0.0,0.0,0.0,0.0,0.0,0.0,0.0,0.0,-0.0,0.0,0.0,0.0,0.0,0.0,0.0,0.0,0.0,0.0,0.0
2024-04-01 20:19:27,-0.25,-0.5625,0.4375,0.1939124676689301,0.0,0.0,-1.0,0.0,0.0,0.0,0.0,0.0,0.0,-0.0,0.0,0.0,0.0,0.0,0.0,11.0,12.0,13.0,14.0,61.224
2024-04-01 20:19:27,-0.25,-0.5625,0.4375,0.0,0.0,0.0,0.0,0.0,0.0,0.0,0.0,0.0,0.0,-0.0,0.0,0.0,0.0,0.0,0.0,0.0,0.0,0.0,0.0,0.0
2024-04-01 20:19:27,-0.25,-0.5625,0.4375,0.0,0.0,0.0,0.0,0.0,0.0,0.0,0.0,0.0,0.0,-0.0,0.0,0.0,0.0,0.0,0.0,0.0,0.0,0.0,0.0,0.0
2024-04-01 20:19:27,-0.25,-0.5625,0.4375,0.1939124676689301,0.0,0.0,-1.0,0.0,0.0,0.0,0.0,0.0,0.0,-0.0,0.0,0.0,0.0,0.0,0.0,11.0,12.0,13.0,14.0,60.686
2024-04-01 20:19:27,-0.25,-0.5625,0.4375,0.0,0.0,0.0,0.0,0.0,0.0,0.0,0.0,0.0,0.0,-0.0,0.0,0.0,0.0,0.0,0.0,0.0,0.0,0.0,0.0,0.0
2024-04-01 20:19:27,-0.25,-0.5625,0.4375,0.0,0.0,0.0,0.0,0.0,0.0,0.0,0.0,0.0,0.0,-0.0,0.0,0.0,0.0,0.0,0.0,0.0,0.0,0.0,0.0,0.0
2024-04-01 20:19:27,-0.25,-0.5625,0.4375,0.0,0.0,0.0,0.0,0.0,0.0,0.0,0.0,0.0,0.0,-0.0,0.0,0.0,0.0,0.0,0.0,0.0,0.0,0.0,0.0,0.0
2024-04-01 20:19:27,-0.25,-0.5625,0.4375,0.0,0.0,0.0,0.0,0.0,0.0,0.0,0.0,0.0,0.0,-0.0,0.0,0.0,0.0,0.0,0.0,0.0,0.0,0.0,0.0,0.0
2024-04-01 20:19:27,-0.25,-0.5625,0.4375,0.19650382838973082,0.0,0.0,-1.0,0.0,0.0,0.0,0.0,0.0,0.0,-0.0,0.0,0.0,0.0,0.0,0.0,11.0,12.0,13.0,14.0,61.224
2024-04-01 20:19:27,-0.25,-0.5625,0.4375,0.19650382838973082,0.0,0.0,-1.0,0.0,0.0,0.0,0.0,0.0,0.0,-0.0,0.0,0.0,0.0,0.0,0.0,11.0,12.0,13.0,14.0,61.224
2024-04-01 20:19:28,-0.25,-0.5625,0.4375,0.0,0.0,0.0,0.0,0.0,0.0,0.0,0.0,0.0,0.0,-0.0,0.0,0.0,0.0,0.0,0.0,0.0,0.0,0.0,0.0,0.0
2024-04-01 20:19:28,-0.25,-0.5625,0.4375,0.19650382838973082,0.0,0.0,-1.0,0.0,0.0,0.0,0.0,0.0,0.0,-0.0,0.0,0.0,0.0,0.0,0.0,11.0,12.0,13.0,14.0,60.686
2024-04-01 20:19:28,-0.25,-0.5625,0.4375,0.0,0.0,0.0,0.0,0.0,0.0,0.0,0.0,0.0,0.0,-0.0,0.0,0.0,0.0,0.0,0.0,0.0,0.0,0.0,0.0,0.0
2024-04-01 20:19:28,-0.25,-0.5625,0.4375,0.0,0.0,0.0,0.0,0.0,0.0,0.0,0.0,0.0,0.0,-0.0,0.0,0.0,0.0,0.0,0.0,0.0,0.0,0.0,0.0,0.0
2024-04-01 20:19:28,-0.25,-0.5625,0.4375,0.19650382838973082,0.0,0.0,-1.0,0.0,0.0,0.0,0.0,0.0,0.0,-0.0,0.0,0.0,0.0,0.0,0.0,11.0,12.0,13.0,14.0,60.686
2024-04-01 20:19:28,-0.25,-0.5625,0.4375,0.19650382838973082,0.0,0.0,-1.0,0.0,0.0,0.0,0.0,0.0,0.0,-0.0,0.0,0.0,0.0,0.0,0.0,11.0,12.0,13.0,14.0,60.686
2024-04-01 20:19:28,-0.25,-0.5625,0.4375,0.19650382838973082,0.0,0.0,-1.0,0.0,0.0,0.0,0.0,0.0,0.0,-0.0,0.0,0.0,0.0,0.0,0.0,11.0,12.0,13.0,14.0,61.224
2024-04-01 20:19:28,-0.25,-0.5625,0.4375,0.19650382838973082,0.0,0.0,-1.0,0.0,0.0,0.0,0.0,0.0,0.0,-0.0,0.0,0.0,0.0,0.0,0.0,11.0,12.0,13.0,14.0,61.224
2024-04-01 20:19:28,-0.25,-0.5625,0.4375,0.0,0.0,0.0,0.0,0.0,0.0,0.0,0.0,0.0,0.0,-0.0,0.0,0.0,0.0,0.0,0.0,0.0,0.0,0.0,0.0,0.0
2024-04-01 20:19:28,-0.25,-0.5625,0.4375,0.0,0.0,0.0,0.0,0.0,0.0,0.0,0.0,0.0,0.0,-0.0,0.0,0.0,0.0,0.0,0.0,0.0,0.0,0.0,0.0,0.0
2024-04-01 20:19:28,-0.25,-0.5625,0.4375,0.1973075143454133,0.0,0.0,-1.0,0.0,0.0,0.0,0.0,0.0,0.0,-0.0,0.0,0.0,0.0,0.0,0.0,11.0,12.0,13.0,14.0,61.224
2024-04-01 20:19:28,-0.25,-0.5625,0.4375,0.0,0.0,0.0,0.0,0.0,0.0,0.0,0.0,0.0,0.0,-0.0,0.0,0.0,0.0,0.0,0.0,0.0,0.0,0.0,0.0,0.0
2024-04-01 20:19:28,-0.25,-0.5625,0.4375,0.1973075143454133,0.0,0.0,-1.0,0.0,0.0,0.0,0.0,0.0,0.0,-0.0,0.0,0.0,0.0,0.0,0.0,11.0,12.0,13.0,14.0,60.686
2024-04-01 20:19:28,-0.25,-0.5625,0.4375,0.0,0.0,0.0,0.0,0.0,0.0,0.0,0.0,0.0,0.0,-0.0,0.0,0.0,0.0,0.0,0.0,0.0,0.0,0.0,0.0,0.0
2024-04-01 20:19:28,-0.25,-0.5625,0.4375,0.0,0.0,0.0,0.0,0.0,0.0,0.0,0.0,0.0,0.0,-0.0,0.0,0.0,0.0,0.0,0.0,0.0,0.0,0.0,0.0,0.0
2024-04-01 20:19:28,-0.25,-0.5625,0.4375,0.1973075143454133,0.0,0.0,-1.0,0.0,0.0,0.0,0.0,0.0,0.0,-0.0,0.0,0.0,0.0,0.0,0.0,11.0,12.0,13.0,14.0,61.224
2024-04-01 20:19:29,-0.25,-0.5625,0.4375,0.0,0.0,0.0,0.0,0.0,0.0,0.0,0.0,0.0,0.0,-0.0,0.0,0.0,0.0,0.0,0.0,0.0,0.0,0.0,0.0,0.0
2024-04-01 20:19:29,-0.25,-0.5625,0.4375,0.1973075143454133,0.0,0.0,-1.0,0.0,0.0,0.0,0.0,0.0,0.0,-0.0,0.0,0.0,0.0,0.0,0.0,11.0,12.0,13.0,14.0,61.224
2024-04-01 20:19:29,-0.25,-0.5625,0.4375,0.0,0.0,0.0,0.0,0.0,0.0,0.0,0.0,0.0,0.0,-0.0,0.0,0.0,0.0,0.0,0.0,0.0,0.0,0.0,0.0,0.0
2024-04-01 20:19:29,-0.25,-0.5625,0.4375,0.0,0.0,0.0,0.0,0.0,0.0,0.0,0.0,0.0,0.0,-0.0,0.0,0.0,0.0,0.0,0.0,0.0,0.0,0.0,0.0,0.0
2024-04-01 20:19:29,-0.25,-0.5625,0.4375,0.1973075143454133,0.0,0.0,-1.0,0.0,0.0,0.0,0.0,0.0,0.0,-0.0,0.0,0.0,0.0,0.0,0.0,11.0,12.0,13.0,14.0,61.224
2024-04-01 20:19:29,-0.25,-0.5625,0.4375,0.0,0.0,0.0,0.0,0.0,0.0,0.0,0.0,0.0,0.0,-0.0,0.0,0.0,0.0,0.0,0.0,0.0,0.0,0.0,0.0,0.0
2024-04-01 20:19:29,-0.25,-0.5625,0.4375,0.1973075143454133,0.0,0.0,-1.0,0.0,0.0,0.0,0.0,0.0,0.0,-0.0,0.0,0.0,0.0,0.0,0.0,11.0,12.0,13.0,14.0,61.224
2024-04-01 20:19:29,-0.25,-0.5625,0.4375,0.1973075143454133,0.0,0.0,-1.0,0.0,0.0,0.0,0.0,0.0,0.0,-0.0,0.0,0.0,0.0,0.0,0.0,11.0,12.0,13.0,14.0,60.686
2024-04-01 20:19:29,-0.25,-0.5625,0.4375,0.0,0.0,0.0,0.0,0.0,0.0,0.0,0.0,0.0,0.0,-0.0,0.0,0.0,0.0,0.0,0.0,0.0,0.0,0.0,0.0,0.0
2024-04-01 20:19:29,-0.25,-0.5625,0.4375,0.19720037045958103,0.0,0.0,-1.0,0.0,0.0,0.0,0.0,0.0,0.0,-0.0,0.0,0.0,0.0,0.0,0.0,11.0,12.0,13.0,14.0,61.224
2024-04-01 20:19:29,-0.25,-0.5625,0.4375,0.0,0.0,0.0,0.0,0.0,0.0,0.0,0.0,0.0,0.0,-0.0,0.0,0.0,0.0,0.0,0.0,0.0,0.0,0.0,0.0,0.0
2024-04-01 20:19:29,-0.25,-0.5625,0.4375,0.0,0.0,0.0,0.0,0.0,0.0,0.0,0.0,0.0,0.0,-0.0,0.0,0.0,0.0,0.0,0.0,0.0,0.0,0.0,0.0,0.0
2024-04-01 20:19:29,-0.25,-0.5625,0.4375,0.19720037045958103,0.0,0.0,-1.0,0.0,0.0,0.0,0.0,0.0,0.0,-0.0,0.0,0.0,0.0,0.0,0.0,11.0,12.0,13.0,14.0,61.224
2024-04-01 20:19:29,-0.25,-0.5625,0.4375,0.19720037045958103,0.0,0.0,-1.0,0.0,0.0,0.0,0.0,0.0,0.0,-0.0,0.0,0.0,0.0,0.0,0.0,11.0,12.0,13.0,14.0,61.224
2024-04-01 20:19:29,-0.25,-0.5625,0.4375,0.19720037045958103,0.0,0.0,-1.0,0.0,0.0,0.0,0.0,0.0,0.0,-0.0,0.0,0.0,0.0,0.0,0.0,11.0,12.0,13.0,14.0,60.686
2024-04-01 20:19:29,-0.25,-0.5625,0.4375,0.19720037045958103,0.0,0.0,-1.0,0.0,0.0,0.0,0.0,0.0,0.0,-0.0,0.0,0.0,0.0,0.0,0.0,11.0,12.0,13.0,14.0,61.762
2024-04-01 20:19:30,-0.25,-0.5625,0.4375,0.0,0.0,0.0,0.0,0.0,0.0,0.0,0.0,0.0,0.0,-0.0,0.0,0.0,0.0,0.0,0.0,0.0,0.0,0.0,0.0,0.0
2024-04-01 20:19:30,-0.25,-0.5625,0.4375,0.19720037045958103,0.0,0.0,-1.0,0.0,0.0,0.0,0.0,0.0,0.0,-0.0,0.0,0.0,0.0,0.0,0.0,11.0,12.0,13.0,14.0,60.686
2024-04-01 20:19:30,-0.25,-0.5625,0.4375,0.19720037045958103,0.0,0.0,-1.0,0.0,0.0,0.0,0.0,0.0,0.0,-0.0,0.0,0.0,0.0,0.0,0.0,11.0,12.0,13.0,14.0,60.686
2024-04-01 20:19:30,-0.25,-0.5625,0.4375,0.19720037045958103,0.0,0.0,-1.0,0.0,0.0,0.0,0.0,0.0,0.0,-0.0,0.0,0.0,0.0,0.0,0.0,11.0,12.0,13.0,14.0,61.224
2024-04-01 20:19:30,-0.25,-0.5625,0.4375,0.19720037045958103,0.0,0.0,-1.0,0.0,0.0,0.0,0.0,0.0,0.0,-0.0,0.0,0.0,0.0,0.0,0.0,11.0,12.0,13.0,14.0,61.224
2024-04-01 20:19:30,-0.25,-0.5625,0.4375,0.0,0.0,0.0,0.0,0.0,0.0,0.0,0.0,0.0,0.0,-0.0,0.0,0.0,0.0,0.0,0.0,0.0,0.0,0.0,0.0,0.0
2024-04-01 20:19:30,-0.25,-0.5625,0.4375,0.19720037045958103,0.0,0.0,-1.0,0.0,0.0,0.0,0.0,0.0,0.0,-0.0,0.0,0.0,0.0,0.0,0.0,11.0,12.0,13.0,14.0,61.224
2024-04-01 20:19:30,-0.25,-0.5625,0.4375,0.0,0.0,0.0,0.0,0.0,0.0,0.0,0.0,0.0,0.0,-0.0,0.0,0.0,0.0,0.0,0.0,0.0,0.0,0.0,0.0,0.0
2024-04-01 20:19:30,-0.25,-0.5625,0.4375,0.19806476287192204,0.0,0.0,-1.0,0.0,0.0,0.0,0.0,0.0,0.0,-0.0,0.0,0.0,0.0,0.0,0.0,11.0,12.0,13.0,14.0,60.686
2024-04-01 20:19:30,-0.25,-0.5625,0.4375,0.19806476287192204,0.0,0.0,-1.0,0.0,0.0,0.0,0.0,0.0,0.0,-0.0,0.0,0.0,0.0,0.0,0.0,11.0,12.0,13.0,14.0,61.224
2024-04-01 20:19:30,-0.25,-0.5625,0.4375,0.0,0.0,0.0,0.0,0.0,0.0,0.0,0.0,0.0,0.0,-0.0,0.0,0.0,0.0,0.0,0.0,0.0,0.0,0.0,0.0,0.0
2024-04-01 20:19:30,-0.25,-0.5625,0.4375,0.19806476287192204,0.0,0.0,-1.0,0.0,0.0,0.0,0.0,0.0,0.0,-0.0,0.0,0.0,0.0,0.0,0.0,11.0,12.0,13.0,14.0,61.224
2024-04-01 20:19:30,-0.25,-0.5625,0.4375,0.0,0.0,0.0,0.0,0.0,0.0,0.0,0.0,0.0,0.0,-0.0,0.0,0.0,0.0,0.0,0.0,0.0,0.0,0.0,0.0,0.0
2024-04-01 20:19:30,-0.25,-0.5625,0.4375,0.19806476287192204,0.0,0.0,-1.0,0.0,0.0,0.0,0.0,0.0,0.0,-0.0,0.0,0.0,0.0,0.0,0.0,11.0,12.0,13.0,14.0,61.224
2024-04-01 20:19:30,-0.25,-0.5625,0.4375,0.19806476287192204,0.0,0.0,-1.0,0.0,0.0,0.0,0.0,0.0,0.0,-0.0,0.0,0.0,0.0,0.0,0.0,11.0,12.0,13.0,14.0,60.686
2024-04-01 20:19:30,-0.25,-0.5625,0.4375,0.0,0.0,0.0,0.0,0.0,0.0,0.0,0.0,0.0,0.0,-0.0,0.0,0.0,0.0,0.0,0.0,0.0,0.0,0.0,0.0,0.0
2024-04-01 20:19:30,-0.25,-0.5625,0.4375,0.19806476287192204,0.0,0.0,-1.0,0.0,0.0,0.0,0.0,0.0,0.0,-0.0,0.0,0.0,0.0,0.0,0.0,11.0,12.0,13.0,14.0,61.224
2024-04-01 20:19:31,-0.25,-0.5625,0.4375,0.0,0.0,0.0,0.0,0.0,0.0,0.0,0.0,0.0,0.0,-0.0,0.0,0.0,0.0,0.0,0.0,0.0,0.0,0.0,0.0,0.0
2024-04-01 20:19:31,-0.25,-0.5625,0.4375,0.19806476287192204,0.0,0.0,-1.0,0.0,0.0,0.0,0.0,0.0,0.0,-0.0,0.0,0.0,0.0,0.0,0.0,11.0,12.0,13.0,14.0,60.686
2024-04-01 20:19:31,-0.25,-0.5625,0.4375,0.19806476287192204,0.0,0.0,-1.0,0.0,0.0,0.0,0.0,0.0,0.0,-0.0,0.0,0.0,0.0,0.0,0.0,11.0,12.0,13.0,14.0,61.224
2024-04-01 20:19:31,-0.25,-0.5625,0.4375,0.0,0.0,0.0,0.0,0.0,0.0,0.0,0.0,0.0,0.0,-0.0,0.0,0.0,0.0,0.0,0.0,0.0,0.0,0.0,0.0,0.0
2024-04-01 20:19:31,-0.25,-0.5625,0.4375,0.0,0.0,0.0,0.0,0.0,0.0,0.0,0.0,0.0,0.0,-0.0,0.0,0.0,0.0,0.0,0.0,0.0,0.0,0.0,0.0,0.0
2024-04-01 20:19:31,-0.25,-0.5625,0.4375,0.0,0.0,0.0,0.0,0.0,0.0,0.0,0.0,0.0,0.0,-0.0,0.0,0.0,0.0,0.0,0.0,0.0,0.0,0.0,0.0,0.0
2024-04-01 20:19:31,-0.25,-0.5625,0.4375,0.19835710437322174,0.0,0.0,-1.0,0.0,0.0,0.0,0.0,0.0,0.0,-0.0,0.0,0.0,0.0,0.0,0.0,11.0,12.0,13.0,14.0,61.224
2024-04-01 20:19:31,-0.25,-0.5625,0.4375,0.0,0.0,0.0,0.0,0.0,0.0,0.0,0.0,0.0,0.0,-0.0,0.0,0.0,0.0,0.0,0.0,0.0,0.0,0.0,0.0,0.0
2024-04-01 20:19:31,-0.25,-0.5625,0.4375,0.0,0.0,0.0,0.0,0.0,0.0,0.0,0.0,0.0,0.0,-0.0,0.0,0.0,0.0,0.0,0.0,0.0,0.0,0.0,0.0,0.0
2024-04-01 20:19:31,-0.25,-0.5625,0.4375,0.19835710437322174,0.0,0.0,-1.0,0.0,0.0,0.0,0.0,0.0,0.0,-0.0,0.0,0.0,0.0,0.0,0.0,11.0,12.0,13.0,14.0,61.762
2024-04-01 20:19:31,-0.25,-0.5625,0.4375,0.19835710437322174,0.0,0.0,-1.0,0.0,0.0,0.0,0.0,0.0,0.0,-0.0,0.0,0.0,0.0,0.0,0.0,11.0,12.0,13.0,14.0,61.224
2024-04-01 20:19:31,-0.25,-0.5625,0.4375,0.19835710437322174,0.0,0.0,-1.0,0.0,0.0,0.0,0.0,0.0,0.0,-0.0,0.0,0.0,0.0,0.0,0.0,11.0,12.0,13.0,14.0,61.224
2024-04-01 20:19:31,-0.25,-0.5625,0.4375,0.19835710437322174,0.0,0.0,-1.0,0.0,0.0,0.0,0.0,0.0,0.0,-0.0,0.0,0.0,0.0,0.0,0.0,11.0,12.0,13.0,14.0,61.224
2024-04-01 20:19:31,-0.25,-0.5625,0.4375,0.19835710437322174,0.0,0.0,-1.0,0.0,0.0,0.0,0.0,0.0,0.0,-0.0,0.0,0.0,0.0,0.0,0.0,11.0,12.0,13.0,14.0,61.224
2024-04-01 20:19:31,-0.25,-0.5625,0.4375,0.0,0.0,0.0,0.0,0.0,0.0,0.0,0.0,0.0,0.0,-0.0,0.0,0.0,0.0,0.0,0.0,0.0,0.0,0.0,0.0,0.0
2024-04-01 20:19:31,-0.25,-0.5625,0.4375,0.19835710437322174,0.0,0.0,-1.0,0.0,0.0,0.0,0.0,0.0,0.0,-0.0,0.0,0.0,0.0,0.0,0.0,11.0,12.0,13.0,14.0,60.686
2024-04-01 20:19:32,-0.25,-0.5625,0.4375,0.0,0.0,0.0,0.0,0.0,0.0,0.0,0.0,0.0,0.0,-0.0,0.0,0.0,0.0,0.0,0.0,0.0,0.0,0.0,0.0,0.0
2024-04-01 20:19:32,-0.25,-0.5625,0.4375,0.19835710437322174,0.0,0.0,-1.0,0.0,0.0,0.0,0.0,0.0,0.0,-0.0,0.0,0.0,0.0,0.0,0.0,11.0,12.0,13.0,14.0,60.686
2024-04-01 20:19:32,-0.25,-0.5625,0.4375,0.0,0.0,0.0,0.0,0.0,0.0,0.0,0.0,0.0,0.0,-0.0,0.0,0.0,0.0,0.0,0.0,0.0,0.0,0.0,0.0,0.0
2024-04-01 20:19:32,-0.25,-0.5625,0.4375,0.0,0.0,0.0,0.0,0.0,0.0,0.0,0.0,0.0,0.0,-0.0,0.0,0.0,0.0,0.0,0.0,0.0,0.0,0.0,0.0,0.0
2024-04-01 20:19:32,-0.25,-0.5625,0.4375,0.19619546279230216,0.0,0.0,-1.0,0.0,0.0,0.0,0.0,0.0,0.0,-0.0,0.0,0.0,0.0,0.0,0.0,11.0,12.0,13.0,14.0,61.224
2024-04-01 20:19:32,-0.25,-0.5625,0.4375,0.0,0.0,0.0,0.0,0.0,0.0,0.0,0.0,0.0,0.0,-0.0,0.0,0.0,0.0,0.0,0.0,0.0,0.0,0.0,0.0,0.0
2024-04-01 20:19:32,-0.25,-0.5625,0.4375,0.19619546279230216,0.0,0.0,-1.0,0.0,0.0,0.0,0.0,0.0,0.0,-0.0,0.0,0.0,0.0,0.0,0.0,11.0,12.0,13.0,14.0,61.762
2024-04-01 20:19:32,-0.25,-0.5625,0.4375,0.0,0.0,0.0,0.0,0.0,0.0,0.0,0.0,0.0,0.0,-0.0,0.0,0.0,0.0,0.0,0.0,0.0,0.0,0.0,0.0,0.0
2024-04-01 20:19:32,-0.25,-0.5625,0.4375,0.19619546279230216,0.0,0.0,-1.0,0.0,0.0,0.0,0.0,0.0,0.0,-0.0,0.0,0.0,0.0,0.0,0.0,11.0,12.0,13.0,14.0,60.686
2024-04-01 20:19:32,-0.25,-0.5625,0.4375,0.19619546279230216,0.0,0.0,-1.0,0.0,0.0,0.0,0.0,0.0,0.0,-0.0,0.0,0.0,0.0,0.0,0.0,11.0,12.0,13.0,14.0,61.224
2024-04-01 20:19:32,-0.25,-0.5625,0.4375,0.0,0.0,0.0,0.0,0.0,0.0,0.0,0.0,0.0,0.0,-0.0,0.0,0.0,0.0,0.0,0.0,0.0,0.0,0.0,0.0,0.0
2024-04-01 20:19:32,-0.25,-0.5625,0.4375,0.0,0.0,0.0,0.0,0.0,0.0,0.0,0.0,0.0,0.0,-0.0,0.0,0.0,0.0,0.0,0.0,0.0,0.0,0.0,0.0,0.0
2024-04-01 20:19:32,-0.25,-0.5625,0.4375,0.19619546279230216,0.0,0.0,-1.0,0.0,0.0,0.0,0.0,0.0,0.0,-0.0,0.0,0.0,0.0,0.0,0.0,11.0,12.0,13.0,14.0,61.224
2024-04-01 20:19:32,-0.25,-0.5625,0.4375,0.19619546279230216,0.0,0.0,-1.0,0.0,0.0,0.0,0.0,0.0,0.0,-0.0,0.0,0.0,0.0,0.0,0.0,11.0,12.0,13.0,14.0,60.686
2024-04-01 20:19:32,-0.25,-0.5625,0.4375,0.19619546279230216,0.0,0.0,-1.0,0.0,0.0,0.0,0.0,0.0,0.0,-0.0,0.0,0.0,0.0,0.0,0.0,11.0,12.0,13.0,14.0,61.224
2024-04-01 20:19:32,-0.25,-0.5625,0.4375,0.19619546279230216,0.0,0.0,-1.0,0.0,0.0,0.0,0.0,0.0,0.0,-0.0,0.0,0.0,0.0,0.0,0.0,11.0,12.0,13.0,14.0,60.148
2024-04-01 20:19:33,-0.25,-0.5625,0.4375,0.0,0.0,0.0,0.0,0.0,0.0,0.0,0.0,0.0,0.0,-0.0,0.0,0.0,0.0,0.0,0.0,0.0,0.0,0.0,0.0,0.0
2024-04-01 20:19:33,-0.25,-0.5625,0.4375,0.0,0.0,0.0,0.0,0.0,0.0,0.0,0.0,0.0,0.0,-0.0,0.0,0.0,0.0,0.0,0.0,0.0,0.0,0.0,0.0,0.0
2024-04-01 20:19:33,-0.25,-0.5625,0.4375,0.0,0.0,0.0,0.0,0.0,0.0,0.0,0.0,0.0,0.0,-0.0,0.0,0.0,0.0,0.0,0.0,0.0,0.0,0.0,0.0,0.0
2024-04-01 20:19:33,-0.25,-0.5625,0.4375,0.0,0.0,0.0,0.0,0.0,0.0,0.0,0.0,0.0,0.0,-0.0,0.0,0.0,0.0,0.0,0.0,0.0,0.0,0.0,0.0,0.0
2024-04-01 20:19:33,-0.25,-0.5625,0.4375,0.1970569453436753,0.0,0.0,-1.0,0.0,0.0,0.0,0.0,0.0,0.0,-0.0,0.0,0.0,0.0,0.0,0.0,11.0,12.0,13.0,14.0,60.686
2024-04-01 20:19:33,-0.25,-0.5625,0.4375,0.1970569453436753,0.0,0.0,-1.0,0.0,0.0,0.0,0.0,0.0,0.0,-0.0,0.0,0.0,0.0,0.0,0.0,11.0,12.0,13.0,14.0,61.224
2024-04-01 20:19:33,-0.25,-0.5625,0.4375,0.1970569453436753,0.0,0.0,-1.0,0.0,0.0,0.0,0.0,0.0,0.0,-0.0,0.0,0.0,0.0,0.0,0.0,11.0,12.0,13.0,14.0,61.224
2024-04-01 20:19:33,-0.25,-0.5625,0.4375,0.1970569453436753,0.0,0.0,-1.0,0.0,0.0,0.0,0.0,0.0,0.0,-0.0,0.0,0.0,0.0,0.0,0.0,11.0,12.0,13.0,14.0,61.224
2024-04-01 20:19:33,-0.25,-0.5625,0.4375,0.0,0.0,0.0,0.0,0.0,0.0,0.0,0.0,0.0,0.0,-0.0,0.0,0.0,0.0,0.0,0.0,0.0,0.0,0.0,0.0,0.0
2024-04-01 20:19:33,-0.25,-0.5625,0.4375,0.1970569453436753,0.0,0.0,-1.0,0.0,0.0,0.0,0.0,0.0,0.0,-0.0,0.0,0.0,0.0,0.0,0.0,11.0,12.0,13.0,14.0,61.224
2024-04-01 20:19:33,-0.25,-0.5625,0.4375,0.0,0.0,0.0,0.0,0.0,0.0,0.0,0.0,0.0,0.0,-0.0,0.0,0.0,0.0,0.0,0.0,0.0,0.0,0.0,0.0,0.0
2024-04-01 20:19:33,-0.25,-0.5625,0.4375,0.0,0.0,0.0,0.0,0.0,0.0,0.0,0.0,0.0,0.0,-0.0,0.0,0.0,0.0,0.0,0.0,0.0,0.0,0.0,0.0,0.0
2024-04-01 20:19:33,-0.25,-0.5625,0.4375,0.1970569453436753,0.0,0.0,-1.0,0.0,0.0,0.0,0.0,0.0,0.0,-0.0,0.0,0.0,0.0,0.0,0.0,11.0,12.0,13.0,14.0,60.686
2024-04-01 20:19:33,-0.25,-0.5625,0.4375,0.0,0.0,0.0,0.0,0.0,0.0,0.0,0.0,0.0,0.0,-0.0,0.0,0.0,0.0,0.0,0.0,0.0,0.0,0.0,0.0,0.0
2024-04-01 20:19:33,-0.25,-0.5625,0.4375,0.1970569453436753,0.0,0.0,-1.0,0.0,0.0,0.0,0.0,0.0,0.0,-0.0,0.0,0.0,0.0,0.0,0.0,11.0,12.0,13.0,14.0,60.686
2024-04-01 20:19:33,-0.25,-0.5625,0.4375,0.1970569453436753,0.0,0.0,-1.0,0.0,0.0,0.0,0.0,0.0,0.0,-0.0,0.0,0.0,0.0,0.0,0.0,11.0,12.0,13.0,14.0,61.224
2024-04-01 20:19:34,-0.25,-0.5625,0.4375,0.19788018786626896,0.0,0.0,-1.0,0.0,0.0,0.0,0.0,0.0,0.0,-0.0,0.0,0.0,0.0,0.0,0.0,11.0,12.0,13.0,14.0,61.224
2024-04-01 20:19:34,-0.25,-0.5625,0.4375,0.19788018786626896,0.0,0.0,-1.0,0.0,0.0,0.0,0.0,0.0,0.0,-0.0,0.0,0.0,0.0,0.0,0.0,11.0,12.0,13.0,14.0,60.148
2024-04-01 20:19:34,-0.25,-0.5625,0.4375,0.19788018786626896,0.0,0.0,-1.0,0.0,0.0,0.0,0.0,0.0,0.0,-0.0,0.0,0.0,0.0,0.0,0.0,11.0,12.0,13.0,14.0,60.686
2024-04-01 20:19:34,-0.25,-0.5625,0.4375,0.19788018786626896,0.0,0.0,-1.0,0.0,0.0,0.0,0.0,0.0,0.0,-0.0,0.0,0.0,0.0,0.0,0.0,11.0,12.0,13.0,14.0,60.686
2024-04-01 20:19:34,-0.25,-0.5625,0.4375,0.0,0.0,0.0,0.0,0.0,0.0,0.0,0.0,0.0,0.0,-0.0,0.0,0.0,0.0,0.0,0.0,0.0,0.0,0.0,0.0,0.0
2024-04-01 20:19:34,-0.25,-0.5625,0.4375,0.0,0.0,0.0,0.0,0.0,0.0,0.0,0.0,0.0,0.0,-0.0,0.0,0.0,0.0,0.0,0.0,0.0,0.0,0.0,0.0,0.0
2024-04-01 20:19:34,-0.25,-0.5625,0.4375,0.19788018786626896,0.0,0.0,-1.0,0.0,0.0,0.0,0.0,0.0,0.0,-0.0,0.0,0.0,0.0,0.0,0.0,11.0,12.0,13.0,14.0,61.224
2024-04-01 20:19:34,-0.25,-0.5625,0.4375,0.0,0.0,0.0,0.0,0.0,0.0,0.0,0.0,0.0,0.0,-0.0,0.0,0.0,0.0,0.0,0.0,0.0,0.0,0.0,0.0,0.0
2024-04-01 20:19:34,-0.25,-0.5625,0.4375,0.19788018786626896,0.0,0.0,-1.0,0.0,0.0,0.0,0.0,0.0,0.0,-0.0,0.0,0.0,0.0,0.0,0.0,11.0,12.0,13.0,14.0,61.224
2024-04-01 20:19:34,-0.25,-0.5625,0.4375,0.19788018786626896,0.0,0.0,-1.0,0.0,0.0,0.0,0.0,0.0,0.0,-0.0,0.0,0.0,0.0,0.0,0.0,11.0,12.0,13.0,14.0,61.224
2024-04-01 20:19:34,-0.25,-0.5625,0.4375,0.0,0.0,0.0,0.0,0.0,0.0,0.0,0.0,0.0,0.0,-0.0,0.0,0.0,0.0,0.0,0.0,0.0,0.0,0.0,0.0,0.0
2024-04-01 20:19:34,-0.25,-0.5625,0.4375,0.19788018786626896,0.0,0.0,-1.0,0.0,0.0,0.0,0.0,0.0,0.0,-0.0,0.0,0.0,0.0,0.0,0.0,11.0,12.0,13.0,14.0,60.686
2024-04-01 20:19:34,-0.25,-0.5625,0.4375,0.0,0.0,0.0,0.0,0.0,0.0,0.0,0.0,0.0,0.0,-0.0,0.0,0.0,0.0,0.0,0.0,0.0,0.0,0.0,0.0,0.0
2024-04-01 20:19:34,-0.25,-0.5625,0.4375,0.19788018786626896,0.0,0.0,-1.0,0.0,0.0,0.0,0.0,0.0,0.0,-0.0,0.0,0.0,0.0,0.0,0.0,11.0,12.0,13.0,14.0,60.686
2024-04-01 20:19:34,-0.25,-0.5625,0.4375,0.19788018786626896,0.0,0.0,-1.0,0.0,0.0,0.0,0.0,0.0,0.0,-0.0,0.0,0.0,0.0,0.0,0.0,11.0,12.0,13.0,14.0,60.686
2024-04-01 20:19:34,-0.25,-0.5625,0.4375,0.1956101976267663,0.0,0.0,-1.0,0.0,0.0,0.0,0.0,0.0,0.0,-0.0,0.0,0.0,0.0,0.0,0.0,11.0,12.0,13.0,14.0,60.686
2024-04-01 20:19:34,-0.25,-0.5625,0.4375,0.1956101976267663,0.0,0.0,-1.0,0.0,0.0,0.0,0.0,0.0,0.0,-0.0,0.0,0.0,0.0,0.0,0.0,11.0,12.0,13.0,14.0,60.686
2024-04-01 20:19:35,-0.25,-0.5625,0.4375,0.1956101976267663,0.0,0.0,-1.0,0.0,0.0,0.0,0.0,0.0,0.0,-0.0,0.0,0.0,0.0,0.0,0.0,11.0,12.0,13.0,14.0,61.224
2024-04-01 20:19:35,-0.25,-0.5625,0.4375,0.0,0.0,0.0,0.0,0.0,0.0,0.0,0.0,0.0,0.0,-0.0,0.0,0.0,0.0,0.0,0.0,0.0,0.0,0.0,0.0,0.0
2024-04-01 20:19:35,-0.25,-0.5625,0.4375,0.1956101976267663,0.0,0.0,-1.0,0.0,0.0,0.0,0.0,0.0,0.0,-0.0,0.0,0.0,0.0,0.0,0.0,11.0,12.0,13.0,14.0,60.686
2024-04-01 20:19:35,-0.25,-0.5625,0.4375,0.0,0.0,0.0,0.0,0.0,0.0,0.0,0.0,0.0,0.0,-0.0,0.0,0.0,0.0,0.0,0.0,0.0,0.0,0.0,0.0,0.0
2024-04-01 20:19:35,-0.25,-0.5625,0.4375,0.1956101976267663,0.0,0.0,-1.0,0.0,0.0,0.0,0.0,0.0,0.0,-0.0,0.0,0.0,0.0,0.0,0.0,11.0,12.0,13.0,14.0,61.224
2024-04-01 20:19:35,-0.25,-0.5625,0.4375,0.0,0.0,0.0,0.0,0.0,0.0,0.0,0.0,0.0,0.0,-0.0,0.0,0.0,0.0,0.0,0.0,0.0,0.0,0.0,0.0,0.0
2024-04-01 20:19:35,-0.25,-0.5625,0.4375,0.0,0.0,0.0,0.0,0.0,0.0,0.0,0.0,0.0,0.0,-0.0,0.0,0.0,0.0,0.0,0.0,0.0,0.0,0.0,0.0,0.0
2024-04-01 20:19:35,-0.25,-0.5625,0.4375,0.1956101976267663,0.0,0.0,-1.0,0.0,0.0,0.0,0.0,0.0,0.0,-0.0,0.0,0.0,0.0,0.0,0.0,11.0,12.0,13.0,14.0,60.686
2024-04-01 20:19:35,-0.25,-0.5625,0.4375,0.1956101976267663,0.0,0.0,-1.0,0.0,0.0,0.0,0.0,0.0,0.0,-0.0,0.0,0.0,0.0,0.0,0.0,11.0,12.0,13.0,14.0,61.224
2024-04-01 20:19:35,-0.25,-0.5625,0.4375,0.0,0.0,0.0,0.0,0.0,0.0,0.0,0.0,0.0,0.0,-0.0,0.0,0.0,0.0,0.0,0.0,0.0,0.0,0.0,0.0,0.0
2024-04-01 20:19:35,-0.25,-0.5625,0.4375,0.1956101976267663,0.0,0.0,-1.0,0.0,0.0,0.0,0.0,0.0,0.0,-0.0,0.0,0.0,0.0,0.0,0.0,11.0,12.0,13.0,14.0,61.224
2024-04-01 20:19:35,-0.25,-0.5625,0.4375,0.0,0.0,0.0,0.0,0.0,0.0,0.0,0.0,0.0,0.0,-0.0,0.0,0.0,0.0,0.0,0.0,0.0,0.0,0.0,0.0,0.0
2024-04-01 20:19:35,-0.25,-0.5625,0.4375,0.0,0.0,0.0,0.0,0.0,0.0,0.0,0.0,0.0,0.0,-0.0,0.0,0.0,0.0,0.0,0.0,0.0,0.0,0.0,0.0,0.0
2024-04-01 20:19:35,-0.25,-0.5625,0.4375,0.0,0.0,0.0,0.0,0.0,0.0,0.0,0.0,0.0,0.0,-0.0,0.0,0.0,0.0,0.0,0.0,0.0,0.0,0.0,0.0,0.0
2024-04-01 20:19:35,-0.25,-0.5625,0.4375,0.0,0.0,0.0,0.0,0.0,0.0,0.0,0.0,0.0,0.0,-0.0,0.0,0.0,0.0,0.0,0.0,0.0,0.0,0.0,0.0,0.0
2024-04-01 20:19:35,-0.25,-0.5625,0.4375,0.19756783846022044,0.0,0.0,-1.0,0.0,0.0,0.0,0.0,0.0,0.0,-0.0,0.0,0.0,0.0,0.0,0.0,11.0,12.0,13.0,14.0,60.686
2024-04-01 20:19:36,-0.25,-0.5625,0.4375,0.0,0.0,0.0,0.0,0.0,0.0,0.0,0.0,0.0,0.0,-0.0,0.0,0.0,0.0,0.0,0.0,0.0,0.0,0.0,0.0,0.0
2024-04-01 20:19:36,-0.25,-0.5625,0.4375,0.19756783846022044,0.0,0.0,-1.0,0.0,0.0,0.0,0.0,0.0,0.0,-0.0,0.0,0.0,0.0,0.0,0.0,11.0,12.0,13.0,14.0,60.686
2024-04-01 20:19:36,-0.25,-0.5625,0.4375,0.19756783846022044,0.0,0.0,-1.0,0.0,0.0,0.0,0.0,0.0,0.0,-0.0,0.0,0.0,0.0,0.0,0.0,11.0,12.0,13.0,14.0,60.686
2024-04-01 20:19:36,-0.25,-0.5625,0.4375,0.0,0.0,0.0,0.0,0.0,0.0,0.0,0.0,0.0,0.0,-0.0,0.0,0.0,0.0,0.0,0.0,0.0,0.0,0.0,0.0,0.0
2024-04-01 20:19:36,-0.25,-0.5625,0.4375,0.19756783846022044,0.0,0.0,-1.0,0.0,0.0,0.0,0.0,0.0,0.0,-0.0,0.0,0.0,0.0,0.0,0.0,11.0,12.0,13.0,14.0,61.224
2024-04-01 20:19:36,-0.25,-0.5625,0.4375,0.0,0.0,0.0,0.0,0.0,0.0,0.0,0.0,0.0,0.0,-0.0,0.0,0.0,0.0,0.0,0.0,0.0,0.0,0.0,0.0,0.0
2024-04-01 20:19:36,-0.25,-0.5625,0.4375,0.19756783846022044,0.0,0.0,-1.0,0.0,0.0,0.0,0.0,0.0,0.0,-0.0,0.0,0.0,0.0,0.0,0.0,11.0,12.0,13.0,14.0,61.224
2024-04-01 20:19:36,-0.25,-0.5625,0.4375,0.19756783846022044,0.0,0.0,-1.0,0.0,0.0,0.0,0.0,0.0,0.0,-0.0,0.0,0.0,0.0,0.0,0.0,11.0,12.0,13.0,14.0,61.224
2024-04-01 20:19:36,-0.25,-0.5625,0.4375,0.0,0.0,0.0,0.0,0.0,0.0,0.0,0.0,0.0,0.0,0.11359756097560976,0.11359756097560976,0.0,0.0,0.0,0.0,0.0,0.0,0.0,0.0,0.0
2024-04-01 20:19:36,-0.25,-0.5625,0.4375,0.19756783846022044,0.0,0.0,-1.0,0.0,0.0,-0.13710365853658538,0.13710365853658538,0.13710365853658538,-0.13710365853658538,0.04307926829268292,0.04307926829268292,0.0,0.0,0.0,0.0,11.0,12.0,13.0,14.0,60.686
2024-04-01 20:19:36,-0.25,-0.5625,0.4375,0.0,0.0,0.0,0.0,0.0,0.0,0.0,0.0,0.0,0.0,-0.0,0.0,0.0,0.0,0.0,0.0,0.0,0.0,0.0,0.0,0.0
2024-04-01 20:19:36,-0.25,-0.5625,0.4375,0.0,0.0,0.0,0.0,0.0,0.0,0.0,0.0,0.0,0.0,0.28597560975609754,0.28597560975609754,0.0,0.0,0.0,0.0,0.0,0.0,0.0,0.0,0.0
2024-04-01 20:19:36,-0.25,-0.5625,0.4375,0.0,0.0,0.0,0.0,0.0,0.0,-0.24679878048780488,0.24679878048780488,0.24679878048780488,-0.24679878048780488,0.9989939024390244,0.9989939024390244,0.0,0.0,0.0,0.0,0.0,0.0,0.0,0.0,0.0
2024-04-01 20:19:36,-0.25,-0.5625,0.4375,0.0,0.0,0.0,0.0,0.0,0.0,-0.24679878048780488,0.24679878048780488,0.24679878048780488,-0.24679878048780488,0.9989939024390244,0.9989939024390244,0.0,0.0,0.0,0.0,0.0,0.0,0.0,0.0,0.0
2024-04-01 20:19:36,-0.25,-0.5625,0.4375,0.19917110551298922,0.0,0.0,-1.0,0.0,0.0,-0.3721646341463415,0.3721646341463415,0.3721646341463415,-0.3721646341463415,0.6699085365853659,0.6699085365853659,0.0,0.0,0.0,0.0,11.0,12.0,13.0,14.0,60.686
2024-04-01 20:19:36,-0.25,-0.5625,0.4375,0.0,0.0,0.0,0.0,0.0,0.0,0.0,0.0,0.0,0.0,-0.0,0.0,0.0,0.0,0.0,0.0,0.0,0.0,0.0,0.0,0.0
2024-04-01 20:19:37,-0.25,-0.5625,0.4375,0.0,0.0,0.0,0.0,0.0,0.0,0.0,0.0,0.0,0.0,0.9989939024390244,0.9989939024390244,0.0,0.0,0.0,0.0,0.0,0.0,0.0,0.0,0.0
2024-04-01 20:19:37,-0.25,-0.5625,0.4375,0.19917110551298922,0.0,0.0,-1.0,0.0,0.0,0.0,0.0,0.0,0.0,0.9989939024390244,0.9989939024390244,0.0,0.0,0.0,0.0,11.0,12.0,13.0,14.0,61.224
2024-04-01 20:19:37,-0.25,-0.5625,0.4375,0.19917110551298922,0.0,0.0,-1.0,0.0,0.0,0.0,0.0,0.0,0.0,0.4583536585365854,0.4583536585365854,0.0,0.0,0.0,0.0,11.0,12.0,13.0,14.0,61.224
2024-04-01 20:19:37,-0.25,-0.5625,0.4375,0.19917110551298922,0.0,0.0,-1.0,0.0,0.0,0.0,0.0,0.0,0.0,0.12926829268292683,0.12926829268292683,0.0,0.0,0.0,0.0,11.0,12.0,13.0,14.0,60.686
2024-04-01 20:19:37,-0.25,-0.5625,0.4375,0.0,0.0,0.0,0.0,0.0,0.0,-0.24679878048780488,0.24679878048780488,0.24679878048780488,-0.24679878048780488,0.9989939024390244,0.9989939024390244,0.0,0.0,0.0,0.0,0.0,0.0,0.0,0.0,0.0
2024-04-01 20:19:37,-0.25,-0.5625,0.4375,0.0,0.0,0.0,0.0,0.0,0.0,-0.05091463414634146,0.05091463414634146,0.05091463414634146,-0.05091463414634146,0.5445426829268293,0.5445426829268293,0.0,0.0,0.0,0.0,0.0,0.0,0.0,0.0,0.0
2024-04-01 20:19:37,-0.25,-0.5625,0.4375,0.19917110551298922,0.0,0.0,-1.0,0.0,0.0,0.0,0.0,0.0,0.0,-0.0,0.0,0.0,0.0,0.0,0.0,11.0,12.0,13.0,14.0,60.686
2024-04-01 20:19:37,-0.25,-0.5625,0.4375,0.19917110551298922,0.0,0.0,-1.0,0.0,0.0,-0.24679878048780488,0.24679878048780488,0.24679878048780488,-0.24679878048780488,0.9989939024390244,0.9989939024390244,0.0,0.0,0.0,0.0,11.0,12.0,13.0,14.0,60.686
2024-04-01 20:19:37,-0.25,-0.5625,0.4375,0.0,0.0,0.0,0.0,0.0,0.0,-0.12143292682926829,0.12143292682926829,0.12143292682926829,-0.12143292682926829,0.9676524390243902,0.9676524390243902,0.0,0.0,0.0,0.0,0.0,0.0,0.0,0.0,0.0
2024-04-01 20:19:37,-0.25,-0.5625,0.4375,0.19917110551298922,0.0,0.0,-1.0,0.0,0.0,0.0,0.0,0.0,0.0,-0.0,0.0,0.0,0.0,0.0,0.0,11.0,12.0,13.0,14.0,60.686
2024-04-01 20:19:37,-0.25,-0.5625,0.4375,0.0,0.0,0.0,0.0,0.0,0.0,-0.11359756097560976,0.11359756097560976,0.11359756097560976,-0.11359756097560976,0.9989939024390244,0.9989939024390244,0.0,0.0,0.0,0.0,0.0,0.0,0.0,0.0,0.0
2024-04-01 20:19:37,-0.25,-0.5625,0.4375,0.0,0.0,0.0,0.0,0.0,0.0,0.0,0.0,0.0,0.0,0.13710365853658538,0.13710365853658538,0.0,0.0,0.0,0.0,0.0,0.0,0.0,0.0,0.0
2024-04-01 20:19:37,-0.25,-0.5625,0.4375,0.19806053474159047,0.0,0.0,-1.0,0.0,0.0,0.0,0.0,0.0,0.0,-0.0,0.0,0.0,0.0,0.0,0.0,11.0,12.0,13.0,14.0,61.224
2024-04-01 20:19:37,-0.25,-0.5625,0.4375,0.0,0.0,0.0,0.0,0.0,0.0,0.0,0.0,0.0,0.0,-0.0,0.0,0.0,0.0,0.0,0.0,0.0,0.0,0.0,0.0,0.0
2024-04-01 20:19:37,-0.25,-0.5625,0.4375,0.19806053474159047,0.0,0.0,-1.0,0.0,0.0,0.0,0.0,0.0,0.0,-0.0,0.0,0.0,0.0,0.0,0.0,11.0,12.0,13.0,14.0,60.686
2024-04-01 20:19:37,-0.25,-0.5625,0.4375,0.19806053474159047,0.0,0.0,-1.0,0.0,0.0,0.0,0.0,0.0,0.0,-0.0,0.0,0.0,0.0,0.0,0.0,11.0,12.0,13.0,14.0,60.686
2024-04-01 20:19:38,-0.25,-0.5625,0.4375,0.0,0.0,0.0,0.0,0.0,0.0,0.0,0.0,0.0,0.0,-0.0,0.0,0.0,0.0,0.0,0.0,0.0,0.0,0.0,0.0,0.0
2024-04-01 20:19:38,-0.25,-0.5625,0.4375,0.19806053474159047,0.0,0.0,-1.0,0.0,0.0,0.0,0.0,0.0,0.0,-0.0,0.0,0.0,0.0,0.0,0.0,11.0,12.0,13.0,14.0,61.224
2024-04-01 20:19:38,-0.25,-0.5625,0.4375,0.0,0.0,0.0,0.0,0.0,0.0,0.0,0.0,0.0,0.0,-0.0,0.0,0.0,0.0,0.0,0.0,0.0,0.0,0.0,0.0,0.0
2024-04-01 20:19:38,-0.25,-0.5625,0.4375,0.19806053474159047,0.0,0.0,-1.0,0.0,0.0,0.0,0.0,0.0,0.0,-0.0,0.0,0.0,0.0,0.0,0.0,11.0,12.0,13.0,14.0,61.224
2024-04-01 20:19:38,-0.25,-0.5625,0.4375,0.19806053474159047,0.0,0.0,-1.0,0.0,0.0,0.0,0.0,0.0,0.0,-0.0,0.0,0.0,0.0,0.0,0.0,11.0,12.0,13.0,14.0,61.224
2024-04-01 20:19:38,-0.25,-0.5625,0.4375,0.0,0.0,0.0,0.0,0.0,0.0,0.0,0.0,0.0,0.0,-0.0,0.0,0.0,0.0,0.0,0.0,0.0,0.0,0.0,0.0,0.0
2024-04-01 20:19:38,-0.25,-0.5625,0.4375,0.19806053474159047,0.0,0.0,-1.0,0.0,0.0,0.0,0.0,0.0,0.0,-0.0,0.0,0.0,0.0,0.0,0.0,11.0,12.0,13.0,14.0,61.224
2024-04-01 20:19:38,-0.25,-0.5625,0.4375,0.19806053474159047,0.0,0.0,-1.0,0.0,0.0,0.0,0.0,0.0,0.0,-0.0,0.0,0.0,0.0,0.0,0.0,11.0,12.0,13.0,14.0,60.686
2024-04-01 20:19:38,-0.25,-0.5625,0.4375,0.19806053474159047,0.0,0.0,-1.0,0.0,0.0,0.0,0.0,0.0,0.0,-0.0,0.0,0.0,0.0,0.0,0.0,11.0,12.0,13.0,14.0,61.224
2024-04-01 20:19:38,-0.25,-0.5625,0.4375,0.19806053474159047,0.0,0.0,-1.0,0.0,0.0,0.0,0.0,0.0,0.0,-0.0,0.0,0.0,0.0,0.0,0.0,11.0,12.0,13.0,14.0,60.686
2024-04-01 20:19:38,-0.25,-0.5625,0.4375,0.0,0.0,0.0,0.0,0.0,0.0,0.0,0.0,0.0,0.0,-0.0,0.0,0.0,0.0,0.0,0.0,0.0,0.0,0.0,0.0,0.0
2024-04-01 20:19:38,-0.25,-0.5625,0.4375,0.19736412562269537,0.0,0.0,-1.0,0.0,0.0,0.0,0.0,0.0,0.0,-0.0,0.0,0.0,0.0,0.0,0.0,11.0,12.0,13.0,14.0,61.224
2024-04-01 20:19:38,-0.25,-0.5625,0.4375,0.19736412562269537,0.0,0.0,-1.0,0.0,0.0,0.0,0.0,0.0,0.0,-0.0,0.0,0.0,0.0,0.0,0.0,11.0,12.0,13.0,14.0,61.224
2024-04-01 20:19:38,-0.25,-0.5625,0.4375,0.0,0.0,0.0,0.0,0.0,0.0,0.0,0.0,0.0,0.0,-0.0,0.0,0.0,0.0,0.0,0.0,0.0,0.0,0.0,0.0,0.0
2024-04-01 20:19:38,-0.25,-0.5625,0.4375,0.19736412562269537,0.0,0.0,-1.0,0.0,0.0,0.0,0.0,0.0,0.0,-0.0,0.0,0.0,0.0,0.0,0.0,11.0,12.0,13.0,14.0,61.762
2024-04-01 20:19:38,-0.25,-0.5625,0.4375,0.0,0.0,0.0,0.0,0.0,0.0,0.0,0.0,0.0,0.0,-0.0,0.0,0.0,0.0,0.0,0.0,0.0,0.0,0.0,0.0,0.0
2024-04-01 20:19:39,-0.25,-0.5625,0.4375,0.19736412562269537,0.0,0.0,-1.0,0.0,0.0,0.0,0.0,0.0,0.0,-0.0,0.0,0.0,0.0,0.0,0.0,11.0,12.0,13.0,14.0,61.224
2024-04-01 20:19:39,-0.25,-0.5625,0.4375,0.19736412562269537,0.0,0.0,-1.0,0.0,0.0,0.0,0.0,0.0,0.0,-0.0,0.0,0.0,0.0,0.0,0.0,11.0,12.0,13.0,14.0,61.224
2024-04-01 20:19:39,-0.25,-0.5625,0.4375,0.0,0.0,0.0,0.0,0.0,0.0,0.0,0.0,0.0,0.0,-0.0,0.0,0.0,0.0,0.0,0.0,0.0,0.0,0.0,0.0,0.0
2024-04-01 20:19:39,-0.25,-0.5625,0.4375,0.0,0.0,0.0,0.0,0.0,0.0,0.0,0.0,0.0,0.0,-0.0,0.0,0.0,0.0,0.0,0.0,0.0,0.0,0.0,0.0,0.0
2024-04-01 20:19:39,-0.25,-0.5625,0.4375,0.19736412562269537,0.0,0.0,-1.0,0.0,0.0,0.0,0.0,0.0,0.0,-0.0,0.0,0.0,0.0,0.0,0.0,11.0,12.0,13.0,14.0,61.224
2024-04-01 20:19:39,-0.25,-0.5625,0.4375,0.19736412562269537,0.0,0.0,-1.0,0.0,0.0,0.0,0.0,0.0,0.0,-0.0,0.0,0.0,0.0,0.0,0.0,11.0,12.0,13.0,14.0,60.686
2024-04-01 20:19:39,-0.25,-0.5625,0.4375,0.0,0.0,0.0,0.0,0.0,0.0,0.0,0.0,0.0,0.0,-0.0,0.0,0.0,0.0,0.0,0.0,0.0,0.0,0.0,0.0,0.0
2024-04-01 20:19:39,-0.25,-0.5625,0.4375,0.19736412562269537,0.0,0.0,-1.0,0.0,0.0,0.0,0.0,0.0,0.0,-0.0,0.0,0.0,0.0,0.0,0.0,11.0,12.0,13.0,14.0,60.686
2024-04-01 20:19:39,-0.25,-0.5625,0.4375,0.0,0.0,0.0,0.0,0.0,0.0,0.0,0.0,0.0,0.0,-0.0,0.0,0.0,0.0,0.0,0.0,0.0,0.0,0.0,0.0,0.0
2024-04-01 20:19:39,-0.25,-0.5625,0.4375,0.20116514766873575,0.0,0.0,-1.0,0.0,0.0,0.0,0.0,0.0,0.0,-0.0,0.0,0.0,0.0,0.0,0.0,11.0,12.0,13.0,14.0,61.224
2024-04-01 20:19:39,-0.25,-0.5625,0.4375,0.20116514766873575,0.0,0.0,-1.0,0.0,0.0,0.0,0.0,0.0,0.0,-0.0,0.0,0.0,0.0,0.0,0.0,11.0,12.0,13.0,14.0,61.224
2024-04-01 20:19:39,-0.25,-0.5625,0.4375,0.0,0.0,0.0,0.0,0.0,0.0,0.0,0.0,0.0,0.0,-0.0,0.0,0.0,0.0,0.0,0.0,0.0,0.0,0.0,0.0,0.0
2024-04-01 20:19:39,-0.25,-0.5625,0.4375,0.20116514766873575,0.0,0.0,-1.0,0.0,0.0,0.0,0.0,0.0,0.0,-0.0,0.0,0.0,0.0,0.0,0.0,11.0,12.0,13.0,14.0,60.686
2024-04-01 20:19:39,-0.25,-0.5625,0.4375,0.0,0.0,0.0,0.0,0.0,0.0,0.0,0.0,0.0,0.0,-0.0,0.0,0.0,0.0,0.0,0.0,0.0,0.0,0.0,0.0,0.0
2024-04-01 20:19:39,-0.25,-0.5625,0.4375,0.0,0.0,0.0,0.0,0.0,0.0,0.0,0.0,0.0,0.0,-0.0,0.0,0.0,0.0,0.0,0.0,0.0,0.0,0.0,0.0,0.0
2024-04-01 20:19:39,-0.25,-0.5625,0.4375,0.20116514766873575,0.0,0.0,-1.0,0.0,0.0,0.0,0.0,0.0,0.0,-0.0,0.0,0.0,0.0,0.0,0.0,11.0,12.0,13.0,14.0,61.224
2024-04-01 20:19:40,-0.25,-0.5625,0.4375,0.0,0.0,0.0,0.0,0.0,0.0,0.0,0.0,0.0,0.0,-0.0,0.0,0.0,0.0,0.0,0.0,0.0,0.0,0.0,0.0,0.0
2024-04-01 20:19:40,-0.25,-0.5625,0.4375,0.20116514766873575,0.0,0.0,-1.0,0.0,0.0,0.0,0.0,0.0,0.0,-0.0,0.0,0.0,0.0,0.0,0.0,11.0,12.0,13.0,14.0,60.686
2024-04-01 20:19:40,-0.25,-0.5625,0.4375,0.20116514766873575,0.0,0.0,-1.0,0.0,0.0,0.0,0.0,0.0,0.0,-0.0,0.0,0.0,0.0,0.0,0.0,11.0,12.0,13.0,14.0,60.686
2024-04-01 20:19:40,-0.25,-0.5625,0.4375,0.0,0.0,0.0,0.0,0.0,0.0,0.0,0.0,0.0,0.0,-0.0,0.0,0.0,0.0,0.0,0.0,0.0,0.0,0.0,0.0,0.0
2024-04-01 20:19:40,-0.25,-0.5625,0.4375,0.20116514766873575,0.0,0.0,-1.0,0.0,0.0,0.0,0.0,0.0,0.0,-0.0,0.0,0.0,0.0,0.0,0.0,11.0,12.0,13.0,14.0,60.686
2024-04-01 20:19:40,-0.25,-0.5625,0.4375,0.0,0.0,0.0,0.0,0.0,0.0,0.0,0.0,0.0,0.0,-0.0,0.0,0.0,0.0,0.0,0.0,0.0,0.0,0.0,0.0,0.0
2024-04-01 20:19:40,-0.25,-0.5625,0.4375,0.20116514766873575,0.0,0.0,-1.0,0.0,0.0,0.0,0.0,0.0,0.0,-0.0,0.0,0.0,0.0,0.0,0.0,11.0,12.0,13.0,14.0,60.686
2024-04-01 20:19:40,-0.25,-0.5625,0.4375,0.20116514766873575,0.0,0.0,-1.0,0.0,0.0,0.0,0.0,0.0,0.0,-0.0,0.0,0.0,0.0,0.0,0.0,11.0,12.0,13.0,14.0,60.686
2024-04-01 20:19:40,-0.25,-0.5625,0.4375,0.0,0.0,0.0,0.0,0.0,0.0,0.0,0.0,0.0,0.0,-0.0,0.0,0.0,0.0,0.0,0.0,0.0,0.0,0.0,0.0,0.0
2024-04-01 20:19:40,-0.25,-0.5625,0.4375,0.1943020996445173,0.0,0.0,-1.0,0.0,0.0,0.0,0.0,0.0,0.0,-0.0,0.0,0.0,0.0,0.0,0.0,11.0,12.0,13.0,14.0,60.148
2024-04-01 20:19:40,-0.25,-0.5625,0.4375,0.1943020996445173,0.0,0.0,-1.0,0.0,0.0,0.0,0.0,0.0,0.0,-0.0,0.0,0.0,0.0,0.0,0.0,11.0,12.0,13.0,14.0,61.224
2024-04-01 20:19:40,-0.25,-0.5625,0.4375,0.0,0.0,0.0,0.0,0.0,0.0,0.0,0.0,0.0,0.0,-0.0,0.0,0.0,0.0,0.0,0.0,0.0,0.0,0.0,0.0,0.0
2024-04-01 20:19:40,-0.25,-0.5625,0.4375,0.1943020996445173,0.0,0.0,-1.0,0.0,0.0,0.0,0.0,0.0,0.0,-0.0,0.0,0.0,0.0,0.0,0.0,11.0,12.0,13.0,14.0,61.224
2024-04-01 20:19:40,-0.25,-0.5625,0.4375,0.0,0.0,0.0,0.0,0.0,0.0,0.0,0.0,0.0,0.0,-0.0,0.0,0.0,0.0,0.0,0.0,0.0,0.0,0.0,0.0,0.0
2024-04-01 20:19:40,-0.25,-0.5625,0.4375,0.1943020996445173,0.0,0.0,-1.0,0.0,0.0,0.0,0.0,0.0,0.0,-0.0,0.0,0.0,0.0,0.0,0.0,11.0,12.0,13.0,14.0,61.224
2024-04-01 20:19:40,-0.25,-0.5625,0.4375,0.0,0.0,0.0,0.0,0.0,0.0,0.0,0.0,0.0,0.0,-0.0,0.0,0.0,0.0,0.0,0.0,0.0,0.0,0.0,0.0,0.0
2024-04-01 20:19:41,-0.25,-0.5625,0.4375,0.0,0.0,0.0,0.0,0.0,0.0,0.0,0.0,0.0,0.0,-0.0,0.0,0.0,0.0,0.0,0.0,0.0,0.0,0.0,0.0,0.0
2024-04-01 20:19:41,-0.25,-0.5625,0.4375,0.1943020996445173,0.0,0.0,-1.0,0.0,0.0,0.0,0.0,0.0,0.0,-0.0,0.0,0.0,0.0,0.0,0.0,11.0,12.0,13.0,14.0,61.224
2024-04-01 20:19:41,-0.25,-0.5625,0.4375,0.0,0.0,0.0,0.0,0.0,0.0,0.0,0.0,0.0,0.0,-0.0,0.0,0.0,0.0,0.0,0.0,0.0,0.0,0.0,0.0,0.0
2024-04-01 20:19:41,-0.25,-0.5625,0.4375,0.1943020996445173,0.0,0.0,-1.0,0.0,0.0,0.0,0.0,0.0,0.0,-0.0,0.0,0.0,0.0,0.0,0.0,11.0,12.0,13.0,14.0,60.686
2024-04-01 20:19:41,-0.25,-0.5625,0.4375,0.0,0.0,0.0,0.0,0.0,0.0,0.0,0.0,0.0,0.0,-0.0,0.0,0.0,0.0,0.0,0.0,0.0,0.0,0.0,0.0,0.0
2024-04-01 20:19:41,-0.25,-0.5625,0.4375,0.1943020996445173,0.0,0.0,-1.0,0.0,0.0,0.0,0.0,0.0,0.0,-0.0,0.0,0.0,0.0,0.0,0.0,11.0,12.0,13.0,14.0,60.686
2024-04-01 20:19:41,-0.25,-0.5625,0.4375,0.1943020996445173,0.0,0.0,-1.0,0.0,0.0,0.0,0.0,0.0,0.0,-0.0,0.0,0.0,0.0,0.0,0.0,11.0,12.0,13.0,14.0,60.686
2024-04-01 20:19:41,-0.25,-0.5625,0.4375,0.0,0.0,0.0,0.0,0.0,0.0,0.0,0.0,0.0,0.0,-0.0,0.0,0.0,0.0,0.0,0.0,0.0,0.0,0.0,0.0,0.0
2024-04-01 20:19:41,-0.25,-0.5625,0.4375,0.1995976318642346,0.0,0.0,-1.0,0.0,0.0,0.0,0.0,0.0,0.0,-0.0,0.0,0.0,0.0,0.0,0.0,11.0,12.0,13.0,14.0,60.686
2024-04-01 20:19:41,-0.25,-0.5625,0.4375,0.0,0.0,0.0,0.0,0.0,0.0,0.0,0.0,0.0,0.0,-0.0,0.0,0.0,0.0,0.0,0.0,0.0,0.0,0.0,0.0,0.0
2024-04-01 20:19:41,-0.25,-0.5625,0.4375,0.0,0.0,0.0,0.0,0.0,0.0,0.0,0.0,0.0,0.0,-0.0,0.0,0.0,0.0,0.0,0.0,0.0,0.0,0.0,0.0,0.0
2024-04-01 20:19:41,-0.25,-0.5625,0.4375,0.1995976318642346,0.0,0.0,-1.0,0.0,0.0,0.0,0.0,0.0,0.0,-0.0,0.0,0.0,0.0,0.0,0.0,11.0,12.0,13.0,14.0,61.224
2024-04-01 20:19:41,-0.25,-0.5625,0.4375,0.0,0.0,0.0,0.0,0.0,0.0,0.0,0.0,0.0,0.0,-0.0,0.0,0.0,0.0,0.0,0.0,0.0,0.0,0.0,0.0,0.0
2024-04-01 20:19:41,-0.25,-0.5625,0.4375,0.0,0.0,0.0,0.0,0.0,0.0,0.0,0.0,0.0,0.0,-0.0,0.0,0.0,0.0,0.0,0.0,0.0,0.0,0.0,0.0,0.0
2024-04-01 20:19:41,-0.25,-0.5625,0.4375,0.1995976318642346,0.0,0.0,-1.0,0.0,0.0,0.0,0.0,0.0,0.0,-0.0,0.0,0.0,0.0,0.0,0.0,11.0,12.0,13.0,14.0,60.686
2024-04-01 20:19:41,-0.25,-0.5625,0.4375,0.1995976318642346,0.0,0.0,-1.0,0.0,0.0,0.0,0.0,0.0,0.0,-0.0,0.0,0.0,0.0,0.0,0.0,11.0,12.0,13.0,14.0,60.686
2024-04-01 20:19:42,-0.25,-0.5625,0.4375,0.0,0.0,0.0,0.0,0.0,0.0,0.0,0.0,0.0,0.0,-0.0,0.0,0.0,0.0,0.0,0.0,0.0,0.0,0.0,0.0,0.0
2024-04-01 20:19:42,-0.25,-0.5625,0.4375,0.1995976318642346,0.0,0.0,-1.0,0.0,0.0,0.0,0.0,0.0,0.0,-0.0,0.0,0.0,0.0,0.0,0.0,11.0,12.0,13.0,14.0,61.224
2024-04-01 20:19:42,-0.25,-0.5625,0.4375,0.1995976318642346,0.0,0.0,-1.0,0.0,0.0,0.0,0.0,0.0,0.0,-0.0,0.0,0.0,0.0,0.0,0.0,11.0,12.0,13.0,14.0,61.224
2024-04-01 20:19:42,-0.25,-0.5625,0.4375,0.0,0.0,0.0,0.0,0.0,0.0,0.0,0.0,0.0,0.0,-0.0,0.0,0.0,0.0,0.0,0.0,0.0,0.0,0.0,0.0,0.0
2024-04-01 20:19:42,-0.25,-0.5625,0.4375,0.1995976318642346,0.0,0.0,-1.0,0.0,0.0,0.0,0.0,0.0,0.0,-0.0,0.0,0.0,0.0,0.0,0.0,11.0,12.0,13.0,14.0,61.224
2024-04-01 20:19:42,-0.25,-0.5625,0.4375,0.0,0.0,0.0,0.0,0.0,0.0,0.0,0.0,0.0,0.0,-0.0,0.0,0.0,0.0,0.0,0.0,0.0,0.0,0.0,0.0,0.0
2024-04-01 20:19:42,-0.25,-0.5625,0.4375,0.1985547543062516,0.0,0.0,-1.0,0.0,0.0,0.0,0.0,0.0,0.0,-0.0,0.0,0.0,0.0,0.0,0.0,11.0,12.0,13.0,14.0,61.224
2024-04-01 20:19:42,-0.25,-0.5625,0.4375,0.1985547543062516,0.0,0.0,-1.0,0.0,0.0,0.0,0.0,0.0,0.0,-0.0,0.0,0.0,0.0,0.0,0.0,11.0,12.0,13.0,14.0,61.224
2024-04-01 20:19:42,-0.25,-0.5625,0.4375,0.0,0.0,0.0,0.0,0.0,0.0,0.0,0.0,0.0,0.0,-0.0,0.0,0.0,0.0,0.0,0.0,0.0,0.0,0.0,0.0,0.0
2024-04-01 20:19:42,-0.25,-0.5625,0.4375,0.1985547543062516,0.0,0.0,-1.0,0.0,0.0,0.0,0.0,0.0,0.0,-0.0,0.0,0.0,0.0,0.0,0.0,11.0,12.0,13.0,14.0,61.224
2024-04-01 20:19:42,-0.25,-0.5625,0.4375,0.0,0.0,0.0,0.0,0.0,0.0,0.0,0.0,0.0,0.0,-0.0,0.0,0.0,0.0,0.0,0.0,0.0,0.0,0.0,0.0,0.0
2024-04-01 20:19:42,-0.25,-0.5625,0.4375,0.1985547543062516,0.0,0.0,-1.0,0.0,0.0,0.0,0.0,0.0,0.0,-0.0,0.0,0.0,0.0,0.0,0.0,11.0,12.0,13.0,14.0,61.224
2024-04-01 20:19:42,-0.25,-0.5625,0.4375,0.0,0.0,0.0,0.0,0.0,0.0,0.0,0.0,0.0,0.0,-0.0,0.0,0.0,0.0,0.0,0.0,0.0,0.0,0.0,0.0,0.0
2024-04-01 20:19:42,-0.25,-0.5625,0.4375,0.0,0.0,0.0,0.0,0.0,0.0,0.0,0.0,0.0,0.0,-0.0,0.0,0.0,0.0,0.0,0.0,0.0,0.0,0.0,0.0,0.0
2024-04-01 20:19:42,-0.25,-0.5625,0.4375,0.1985547543062516,0.0,0.0,-1.0,0.0,0.0,0.0,0.0,0.0,0.0,-0.0,0.0,0.0,0.0,0.0,0.0,11.0,12.0,13.0,14.0,60.686
2024-04-01 20:19:42,-0.25,-0.5625,0.4375,0.0,0.0,0.0,0.0,0.0,0.0,0.0,0.0,0.0,0.0,-0.0,0.0,0.0,0.0,0.0,0.0,0.0,0.0,0.0,0.0,0.0
2024-04-01 20:19:42,-0.25,-0.5625,0.4375,0.0,0.0,0.0,0.0,0.0,0.0,0.0,0.0,0.0,0.0,-0.0,0.0,0.0,0.0,0.0,0.0,0.0,0.0,0.0,0.0,0.0
2024-04-01 20:19:43,-0.25,-0.5625,0.4375,0.1985547543062516,0.0,0.0,-1.0,0.0,0.0,0.0,0.0,0.0,0.0,-0.0,0.0,0.0,0.0,0.0,0.0,11.0,12.0,13.0,14.0,61.224
2024-04-01 20:19:43,-0.25,-0.5625,0.4375,0.0,0.0,0.0,0.0,0.0,0.0,0.0,0.0,0.0,0.0,-0.0,0.0,0.0,0.0,0.0,0.0,0.0,0.0,0.0,0.0,0.0
2024-04-01 20:19:43,-0.25,-0.5625,0.4375,0.0,0.0,0.0,0.0,0.0,0.0,0.0,0.0,0.0,0.0,-0.0,0.0,0.0,0.0,0.0,0.0,0.0,0.0,0.0,0.0,0.0
2024-04-01 20:19:43,-0.25,-0.5625,0.4375,0.1985547543062516,0.0,0.0,-1.0,0.0,0.0,0.0,0.0,0.0,0.0,-0.0,0.0,0.0,0.0,0.0,0.0,11.0,12.0,13.0,14.0,61.224
2024-04-01 20:19:43,-0.25,-0.5625,0.4375,0.0,0.0,0.0,0.0,0.0,0.0,0.0,0.0,0.0,0.0,-0.0,0.0,0.0,0.0,0.0,0.0,0.0,0.0,0.0,0.0,0.0
2024-04-01 20:19:43,-0.25,-0.5625,0.4375,0.1968004321236999,0.0,0.0,-1.0,0.0,0.0,0.0,0.0,0.0,0.0,-0.0,0.0,0.0,0.0,0.0,0.0,11.0,12.0,13.0,14.0,61.224
2024-04-01 20:19:43,-0.25,-0.5625,0.4375,0.0,0.0,0.0,0.0,0.0,0.0,0.0,0.0,0.0,0.0,-0.0,0.0,0.0,0.0,0.0,0.0,0.0,0.0,0.0,0.0,0.0
2024-04-01 20:19:43,-0.25,-0.5625,0.4375,0.1968004321236999,0.0,0.0,-1.0,0.0,0.0,0.0,0.0,0.0,0.0,-0.0,0.0,0.0,0.0,0.0,0.0,11.0,12.0,13.0,14.0,61.224
2024-04-01 20:19:43,-0.25,-0.5625,0.4375,0.0,0.0,0.0,0.0,0.0,0.0,0.0,0.0,0.0,0.0,-0.0,0.0,0.0,0.0,0.0,0.0,0.0,0.0,0.0,0.0,0.0
2024-04-01 20:19:43,-0.25,-0.5625,0.4375,0.0,0.0,0.0,0.0,0.0,0.0,0.0,0.0,0.0,0.0,-0.0,0.0,0.0,0.0,0.0,0.0,0.0,0.0,0.0,0.0,0.0
2024-04-01 20:19:43,-0.25,-0.5625,0.4375,0.1968004321236999,0.0,0.0,-1.0,0.0,0.0,0.0,0.0,0.0,0.0,-0.0,0.0,0.0,0.0,0.0,0.0,11.0,12.0,13.0,14.0,61.224
2024-04-01 20:19:43,-0.25,-0.5625,0.4375,0.0,0.0,0.0,0.0,0.0,0.0,0.0,0.0,0.0,0.0,-0.0,0.0,0.0,0.0,0.0,0.0,0.0,0.0,0.0,0.0,0.0
2024-04-01 20:19:43,-0.25,-0.5625,0.4375,0.1968004321236999,0.0,0.0,-1.0,0.0,0.0,0.0,0.0,0.0,0.0,-0.0,0.0,0.0,0.0,0.0,0.0,11.0,12.0,13.0,14.0,61.224
2024-04-01 20:19:43,-0.25,-0.5625,0.4375,0.0,0.0,0.0,0.0,0.0,0.0,0.0,0.0,0.0,0.0,-0.0,0.0,0.0,0.0,0.0,0.0,0.0,0.0,0.0,0.0,0.0
2024-04-01 20:19:43,-0.25,-0.5625,0.4375,0.0,0.0,0.0,0.0,0.0,0.0,0.0,0.0,0.0,0.0,-0.0,0.0,0.0,0.0,0.0,0.0,0.0,0.0,0.0,0.0,0.0
2024-04-01 20:19:43,-0.25,-0.5625,0.4375,0.1968004321236999,0.0,0.0,-1.0,0.0,0.0,0.0,0.0,0.0,0.0,-0.0,0.0,0.0,0.0,0.0,0.0,11.0,12.0,13.0,14.0,60.686
2024-04-01 20:19:44,-0.25,-0.5625,0.4375,0.0,0.0,0.0,0.0,0.0,0.0,0.0,0.0,0.0,0.0,-0.0,0.0,0.0,0.0,0.0,0.0,0.0,0.0,0.0,0.0,0.0
2024-04-01 20:19:44,-0.25,-0.5625,0.4375,0.1968004321236999,0.0,0.0,-1.0,0.0,0.0,0.0,0.0,0.0,0.0,-0.0,0.0,0.0,0.0,0.0,0.0,11.0,12.0,13.0,14.0,60.686
2024-04-01 20:19:44,-0.25,-0.5625,0.4375,0.1968004321236999,0.0,0.0,-1.0,0.0,0.0,0.0,0.0,0.0,0.0,-0.0,0.0,0.0,0.0,0.0,0.0,11.0,12.0,13.0,14.0,61.224
2024-04-01 20:19:44,-0.25,-0.5625,0.4375,0.0,0.0,0.0,0.0,0.0,0.0,0.0,0.0,0.0,0.0,-0.0,0.0,0.0,0.0,0.0,0.0,0.0,0.0,0.0,0.0,0.0
2024-04-01 20:19:44,-0.25,-0.5625,0.4375,0.20537965246824194,0.0,0.0,-1.0,0.0,0.0,0.0,0.0,0.0,0.0,-0.0,0.0,0.0,0.0,0.0,0.0,11.0,12.0,13.0,14.0,61.224
2024-04-01 20:19:44,-0.25,-0.5625,0.4375,0.0,0.0,0.0,0.0,0.0,0.0,0.0,0.0,0.0,0.0,-0.0,0.0,0.0,0.0,0.0,0.0,0.0,0.0,0.0,0.0,0.0
2024-04-01 20:19:44,-0.25,-0.5625,0.4375,0.20537965246824194,0.0,0.0,-1.0,0.0,0.0,0.0,0.0,0.0,0.0,-0.0,0.0,0.0,0.0,0.0,0.0,11.0,12.0,13.0,14.0,61.224
2024-04-01 20:19:44,-0.1875,-0.625,0.375,0.20537965246824194,0.0,0.0,-1.0,0.0,0.0,0.0,0.0,0.0,0.0,-0.0,0.0,0.0,0.0,0.0,0.0,11.0,12.0,13.0,14.0,61.224
2024-04-01 20:19:44,-0.1875,-0.6875,0.375,0.0,0.0,0.0,0.0,0.0,0.0,0.0,0.0,0.0,0.0,-0.0,0.0,0.0,0.0,0.0,0.0,0.0,0.0,0.0,0.0,0.0
2024-04-01 20:19:44,-0.25,-0.625,0.375,0.20537965246824194,0.0,0.0,-1.0,0.0,0.0,0.0,0.0,0.0,0.0,-0.0,0.0,0.0,0.0,0.0,0.0,11.0,12.0,13.0,14.0,61.224
2024-04-01 20:19:44,-0.25,-0.5625,0.375,0.0,0.0,0.0,0.0,0.0,0.0,0.0,0.0,0.0,0.0,-0.0,0.0,0.0,0.0,0.0,0.0,0.0,0.0,0.0,0.0,0.0
2024-04-01 20:19:44,-0.25,-0.625,0.375,0.20537965246824194,0.0,0.0,-1.0,0.0,0.0,0.0,0.0,0.0,0.0,-0.0,0.0,0.0,0.0,0.0,0.0,11.0,12.0,13.0,14.0,61.224
2024-04-01 20:19:44,2047.75,-0.625,0.375,0.20537965246824194,0.0,0.0,-1.0,0.0,0.0,0.0,0.0,0.0,0.0,-0.0,0.0,0.0,0.0,0.0,0.0,11.0,12.0,13.0,14.0,61.224
2024-04-01 20:19:44,-0.25,-0.625,0.375,0.0,0.0,0.0,0.0,0.0,0.0,0.0,0.0,0.0,0.0,-0.0,0.0,0.0,0.0,0.0,0.0,0.0,0.0,0.0,0.0,0.0
2024-04-01 20:19:44,-0.25,-0.625,0.375,0.20537965246824194,0.0,0.0,-1.0,0.0,0.0,0.0,0.0,0.0,0.0,-0.0,0.0,0.0,0.0,0.0,0.0,11.0,12.0,13.0,14.0,61.224
2024-04-01 20:19:44,-0.25,-0.625,0.375,0.0,0.0,0.0,0.0,0.0,0.0,0.0,0.0,0.0,0.0,-0.0,0.0,0.0,0.0,0.0,0.0,0.0,0.0,0.0,0.0,0.0
2024-04-01 20:19:45,-0.25,-0.625,0.375,0.20537965246824194,0.0,0.0,-1.0,0.0,0.0,0.0,0.0,0.0,0.0,-0.0,0.0,0.0,0.0,0.0,0.0,11.0,12.0,13.0,14.0,61.224
2024-04-01 20:19:45,-0.25,-0.625,0.375,0.20537965246824194,0.0,0.0,-1.0,0.0,0.0,0.0,0.0,0.0,0.0,-0.0,0.0,0.0,0.0,0.0,0.0,11.0,12.0,13.0,14.0,60.686
2024-04-01 20:19:45,-0.25,-0.625,0.375,0.20132555631039695,0.0,0.0,-1.0,0.0,0.0,0.0,0.0,0.0,0.0,-0.0,0.0,0.0,0.0,0.0,0.0,11.0,12.0,13.0,14.0,61.224
2024-04-01 20:19:45,-0.25,-0.625,0.375,0.20132555631039695,0.0,0.0,-1.0,0.0,0.0,0.0,0.0,0.0,0.0,-0.0,0.0,0.0,0.0,0.0,0.0,11.0,12.0,13.0,14.0,61.224
2024-04-01 20:19:45,-0.25,-0.625,0.375,0.0,0.0,0.0,0.0,0.0,0.0,0.0,0.0,0.0,0.0,-0.0,0.0,0.0,0.0,0.0,0.0,0.0,0.0,0.0,0.0,0.0
2024-04-01 20:19:45,-0.25,-0.625,0.375,0.0,0.0,0.0,0.0,0.0,0.0,0.0,0.0,0.0,0.0,-0.0,0.0,0.0,0.0,0.0,0.0,0.0,0.0,0.0,0.0,0.0
2024-04-01 20:19:45,-0.25,-0.625,0.375,0.20132555631039695,0.0,0.0,-1.0,0.0,0.0,0.0,0.0,0.0,0.0,-0.0,0.0,0.0,0.0,0.0,0.0,11.0,12.0,13.0,14.0,60.686
2024-04-01 20:19:45,-0.25,-0.625,0.375,0.0,0.0,0.0,0.0,0.0,0.0,0.0,0.0,0.0,0.0,-0.0,0.0,0.0,0.0,0.0,0.0,0.0,0.0,0.0,0.0,0.0
2024-04-01 20:19:45,-0.25,-0.625,0.375,0.20132555631039695,0.0,0.0,-1.0,0.0,0.0,0.0,0.0,0.0,0.0,-0.0,0.0,0.0,0.0,0.0,0.0,11.0,12.0,13.0,14.0,61.224
2024-04-01 20:19:45,-0.25,-0.625,0.375,0.20132555631039695,0.0,0.0,-1.0,0.0,0.0,0.0,0.0,0.0,0.0,-0.0,0.0,0.0,0.0,0.0,0.0,11.0,12.0,13.0,14.0,60.686
2024-04-01 20:19:45,-0.25,-0.625,0.375,0.20132555631039695,0.0,0.0,-1.0,0.0,0.0,0.0,0.0,0.0,0.0,-0.0,0.0,0.0,0.0,0.0,0.0,11.0,12.0,13.0,14.0,60.686
2024-04-01 20:19:45,-0.25,-0.625,0.375,0.20132555631039695,0.0,0.0,-1.0,0.0,0.0,0.0,0.0,0.0,0.0,-0.0,0.0,0.0,0.0,0.0,0.0,11.0,12.0,13.0,14.0,60.686
2024-04-01 20:19:45,-0.25,-0.625,0.375,0.0,0.0,0.0,0.0,0.0,0.0,0.0,0.0,0.0,0.0,-0.0,0.0,0.0,0.0,0.0,0.0,0.0,0.0,0.0,0.0,0.0
2024-04-01 20:19:45,-0.25,-0.625,0.375,0.20132555631039695,0.0,0.0,-1.0,0.0,0.0,0.0,0.0,0.0,0.0,-0.0,0.0,0.0,0.0,0.0,0.0,11.0,12.0,13.0,14.0,61.224
2024-04-01 20:19:45,-0.25,-0.625,0.375,0.0,0.0,0.0,0.0,0.0,0.0,0.0,0.0,0.0,0.0,-0.0,0.0,0.0,0.0,0.0,0.0,0.0,0.0,0.0,0.0,0.0
2024-04-01 20:19:45,-0.25,-0.625,0.375,0.20132555631039695,0.0,0.0,-1.0,0.0,0.0,0.0,0.0,0.0,0.0,-0.0,0.0,0.0,0.0,0.0,0.0,11.0,12.0,13.0,14.0,61.224
2024-04-01 20:19:45,-0.25,-0.625,0.375,0.20132555631039695,0.0,0.0,-1.0,0.0,0.0,0.0,0.0,0.0,0.0,-0.0,0.0,0.0,0.0,0.0,0.0,11.0,12.0,13.0,14.0,61.224
2024-04-01 20:19:46,-0.25,-0.625,0.375,0.20175800397108679,0.0,0.0,-1.0,0.0,0.0,0.0,0.0,0.0,0.0,-0.9989939024390244,-0.9989939024390244,0.0,0.0,0.0,0.0,11.0,12.0,13.0,14.0,61.224
2024-04-01 20:19:46,-0.1875,-0.625,0.375,0.0,-1.0,0.0,0.0,0.0,0.0,0.0,0.0,0.0,0.0,0.278140243902439,0.278140243902439,0.0,0.0,0.0,0.0,0.0,0.0,0.0,0.0,0.0
2024-04-01 20:19:46,-0.25,-0.625,0.3125,0.20175800397108679,-1.0,0.0,-1.0,0.0,0.0,0.0,0.0,0.0,0.0,-0.0,0.0,0.0,0.0,0.0,0.0,11.0,12.0,13.0,14.0,61.224
2024-04-01 20:19:46,-0.25,-0.5,0.0625,0.0,-1.0,0.0,0.0,0.0,0.0,0.0,0.0,0.0,0.0,-0.0,0.0,0.0,0.0,0.0,0.0,0.0,0.0,0.0,0.0,0.0
2024-04-01 20:19:46,0.0625,-0.1875,-0.5,0.20175800397108679,-1.0,0.0,-1.0,0.0,0.0,0.0,0.0,0.0,0.0,-0.0,0.0,0.0,0.0,0.0,0.0,11.0,12.0,13.0,14.0,60.686
2024-04-01 20:19:46,0.4375,0.25,-1.3125,0.20175800397108679,-1.0,0.0,-1.0,0.0,0.0,0.0,0.0,0.0,0.0,-0.0,0.0,0.0,0.0,0.0,0.0,11.0,12.0,13.0,14.0,61.224
2024-04-01 20:19:46,0.625,0.25,-1.8125,0.0,-1.0,0.0,0.0,0.0,0.0,0.0,0.0,0.0,0.0,-0.0,0.0,0.0,0.0,0.0,0.0,0.0,0.0,0.0,0.0,0.0
2024-04-01 20:19:46,0.4375,-0.125,-2.1875,0.20175800397108679,-1.0,0.0,-1.0,0.0,0.0,0.0,0.0,0.0,0.0,-0.0,0.0,0.0,0.0,0.0,0.0,11.0,12.0,13.0,14.0,60.686
2024-04-01 20:19:46,0.0,-0.9375,-2.5625,0.20175800397108679,-1.0,0.0,-1.0,0.0,0.0,0.0,0.0,0.0,0.0,-0.0,0.0,0.0,0.0,0.0,0.0,11.0,12.0,13.0,14.0,61.224
2024-04-01 20:19:46,-0.5,-2.0625,-3.0,0.20175800397108679,-2.0,0.0,-1.0,0.0,0.0,0.0,0.0,0.0,0.0,-0.0,0.0,0.0,0.0,0.0,0.0,11.0,12.0,13.0,14.0,61.224
2024-04-01 20:19:46,-0.625,-2.875,-3.5,0.20175800397108679,-2.0,0.0,-1.0,0.0,0.0,0.0,0.0,0.0,0.0,-0.0,0.0,0.0,0.0,0.0,0.0,11.0,12.0,13.0,14.0,61.224
2024-04-01 20:19:46,-0.375,-3.125,-3.75,0.0,-2.0,0.0,0.0,0.0,0.0,0.0,0.0,0.0,0.0,-0.0,0.0,0.0,0.0,0.0,0.0,0.0,0.0,0.0,0.0,0.0
2024-04-01 20:19:46,0.1875,-3.0,-4.0625,0.20175800397108679,-2.0,0.0,-1.0,0.0,0.0,0.0,0.0,0.0,0.0,-0.0,0.0,0.0,0.0,0.0,0.0,11.0,12.0,13.0,14.0,61.224
2024-04-01 20:19:46,0.9375,-2.875,-4.0625,0.0,-2.0,0.0,0.0,0.0,0.0,0.0,0.0,0.0,0.0,-0.0,0.0,0.0,0.0,0.0,0.0,0.0,0.0,0.0,0.0,0.0
2024-04-01 20:19:46,1.6875,-2.75,-3.4375,0.0,-2.0,0.0,0.0,0.0,0.0,0.0,0.0,0.0,0.0,-0.0,0.0,0.0,0.0,0.0,0.0,0.0,0.0,0.0,0.0,0.0
2024-04-01 20:19:46,2.125,-2.875,-3.625,0.20175800397108679,-2.0,0.0,-1.0,0.0,0.0,0.0,0.0,0.0,0.0,-0.0,0.0,0.0,0.0,0.0,0.0,11.0,12.0,13.0,14.0,61.224
2024-04-01 20:19:47,2.375,-3.3125,-4.0625,0.0,-2.0,0.0,0.0,0.0,0.0,0.0,0.0,0.0,0.0,-0.0,0.0,0.0,0.0,0.0,0.0,0.0,0.0,0.0,0.0,0.0
2024-04-01 20:19:47,2.75,-3.75,-4.4375,0.22208432258559846,-2.0,0.0,-1.0,0.0,0.0,0.0,0.0,0.0,0.0,-0.0,0.0,0.0,0.0,0.0,0.0,11.0,12.0,13.0,14.0,60.686
2024-04-01 20:19:47,3.0625,-4.1875,-4.375,0.0,-2.0,0.0,0.0,0.0,0.0,0.0,0.0,0.0,0.0,-0.0,0.0,0.0,0.0,0.0,0.0,0.0,0.0,0.0,0.0,0.0
2024-04-01 20:19:47,3.6875,-4.375,-3.9375,0.0,-2.0,0.0,0.0,0.0,0.0,0.0,0.0,0.0,0.0,-0.0,0.0,0.0,0.0,0.0,0.0,0.0,0.0,0.0,0.0,0.0
2024-04-01 20:19:47,4.375,-4.5,-3.25,0.0,-2.0,0.0,0.0,0.0,0.0,0.0,0.0,0.0,0.0,-0.0,0.0,0.0,0.0,0.0,0.0,0.0,0.0,0.0,0.0,0.0
2024-04-01 20:19:47,5.125,-4.625,-2.375,0.0,-2.0,0.0,0.0,0.0,0.0,0.0,0.0,0.0,0.0,-0.05875,-0.05875,0.0,0.0,0.0,0.0,0.0,0.0,0.0,0.0,0.0
2024-04-01 20:19:47,6.125,-4.8125,-1.625,0.22208432258559846,-2.0,0.0,-1.0,0.0,0.0,-0.07442073170731707,0.07442073170731707,0.07442073170731707,-0.07442073170731707,-0.6777439024390244,-0.6777439024390244,0.0,0.0,0.0,0.0,11.0,12.0,13.0,14.0,60.686
2024-04-01 20:19:47,6.6875,-4.875,-1.25,0.22208432258559846,-2.0,0.0,-1.0,0.0,0.0,-0.09792682926829269,0.09792682926829269,0.09792682926829269,-0.09792682926829269,-0.8736280487804878,-0.8736280487804878,0.0,0.0,0.0,0.0,11.0,12.0,13.0,14.0,60.686
2024-04-01 20:19:47,7.25,-4.9375,-1.0,0.0,-2.0,0.0,0.0,0.0,0.0,-0.11359756097560976,0.11359756097560976,0.11359756097560976,-0.11359756097560976,-0.8892987804878049,-0.8892987804878049,0.0,0.0,0.0,0.0,0.0,0.0,0.0,0.0,0.0
2024-04-01 20:19:47,7.8125,-4.9375,-0.4375,0.22208432258559846,-2.0,0.0,-1.0,0.0,0.0,-0.13710365853658538,0.13710365853658538,0.13710365853658538,-0.13710365853658538,-0.8892987804878049,-0.8892987804878049,0.0,0.0,0.0,0.0,11.0,12.0,13.0,14.0,60.686
2024-04-01 20:19:47,7.9375,-4.875,0.375,0.0,-2.0,0.0,0.0,0.0,0.0,-0.1449390243902439,0.1449390243902439,0.1449390243902439,-0.1449390243902439,-0.9363109756097561,-0.9363109756097561,0.0,0.0,0.0,0.0,0.0,0.0,0.0,0.0,0.0
2024-04-01 20:19:47,7.8125,-5.0625,1.375,0.0,-2.0,0.0,0.0,0.0,0.0,-0.11359756097560976,0.11359756097560976,0.11359756097560976,-0.11359756097560976,-0.9989939024390244,-0.9989939024390244,0.0,0.0,0.0,0.0,0.0,0.0,0.0,0.0,0.0
2024-04-01 20:19:47,7.125,-5.4375,2.375,0.0,-2.0,0.0,0.0,0.0,0.0,-0.11359756097560976,0.11359756097560976,0.11359756097560976,-0.11359756097560976,-0.9989939024390244,-0.9989939024390244,0.0,0.0,0.0,0.0,0.0,0.0,0.0,0.0,0.0
2024-04-01 20:19:47,5.6875,-5.6875,3.375,0.0,-2.0,0.0,0.0,0.0,0.0,-0.11359756097560976,0.11359756097560976,0.11359756097560976,-0.11359756097560976,-0.9989939024390244,-0.9989939024390244,0.0,0.0,0.0,0.0,0.0,0.0,0.0,0.0,0.0
2024-04-01 20:19:47,4.3125,-6.0625,4.125,0.22208432258559846,-2.0,0.0,-1.0,0.0,0.0,-0.2703048780487805,0.2703048780487805,0.2703048780487805,-0.2703048780487805,-0.9989939024390244,-0.9989939024390244,0.0,0.0,0.0,0.0,11.0,12.0,13.0,14.0,61.224
2024-04-01 20:19:47,3.0,-6.25,5.375,0.0,-2.0,0.0,0.0,0.0,0.0,-0.3956707317073171,0.3956707317073171,0.3956707317073171,-0.3956707317073171,-0.9989939024390244,-0.9989939024390244,0.0,0.0,0.0,0.0,0.0,0.0,0.0,0.0,0.0
2024-04-01 20:19:48,1.9375,-6.6875,7.1875,0.0,-2.0,0.0,0.0,0.0,0.0,-0.4348475609756098,0.4348475609756098,0.4348475609756098,-0.4348475609756098,-0.9989939024390244,-0.9989939024390244,0.0,0.0,0.0,0.0,0.0,0.0,0.0,0.0,0.0
2024-04-01 20:19:48,0.4375,-6.6875,9.4375,0.20872941366397896,-2.0,0.0,-1.0,0.0,0.0,-0.5053658536585366,0.5053658536585366,0.5053658536585366,-0.5053658536585366,-0.9676524390243902,-0.9676524390243902,0.0,0.0,0.0,0.0,11.0,12.0,13.0,14.0,60.686
2024-04-01 20:19:48,-1.25,-5.8125,11.1875,0.0,-2.0,0.0,0.0,0.0,0.0,-0.5915548780487805,0.5915548780487805,0.5915548780487805,-0.5915548780487805,-0.9363109756097561,-0.9363109756097561,0.0,0.0,0.0,0.0,0.0,0.0,0.0,0.0,0.0
2024-04-01 20:19:48,-2.5625,-4.8125,11.4375,0.20872941366397896,-2.0,0.0,-1.0,0.0,0.0,-0.7169207317073171,0.7169207317073171,0.7169207317073171,-0.7169207317073171,-0.8501219512195122,-0.8501219512195122,0.0,0.0,0.0,0.0,11.0,12.0,13.0,14.0,60.686
2024-04-01 20:19:48,-3.4375,-4.25,10.3125,0.0,-2.0,0.0,0.0,0.0,0.0,-0.9676524390243902,0.9676524390243902,0.9676524390243902,-0.9676524390243902,-0.5915548780487805,-0.5915548780487805,0.0,0.0,0.0,0.0,0.0,0.0,0.0,0.0,0.0
2024-04-01 20:19:48,-3.875,-4.25,9.0625,0.0,-2.0,0.0,0.0,0.0,0.0,-0.9676524390243902,0.9676524390243902,0.9676524390243902,-0.9676524390243902,-0.5758841463414635,-0.5758841463414635,0.0,0.0,0.0,0.0,0.0,0.0,0.0,0.0,0.0
2024-04-01 20:19:48,-3.875,-4.9375,7.9375,0.0,-2.0,0.0,0.0,0.0,0.0,-0.9676524390243902,0.9676524390243902,0.9676524390243902,-0.9676524390243902,-0.5758841463414635,-0.5758841463414635,0.0,0.0,0.0,0.0,0.0,0.0,0.0,0.0,0.0
2024-04-01 20:19:48,-3.625,-5.625,6.625,0.0,-2.0,0.0,0.0,0.0,0.0,-0.9676524390243902,0.9676524390243902,0.9676524390243902,-0.9676524390243902,-0.5758841463414635,-0.5758841463414635,0.0,0.0,0.0,0.0,0.0,0.0,0.0,0.0,0.0
2024-04-01 20:19:48,-3.3125,-6.4375,5.5,0.20872941366397896,-2.0,0.0,-1.0,0.0,0.0,-0.9676524390243902,0.9676524390243902,0.9676524390243902,-0.9676524390243902,-0.5758841463414635,-0.5758841463414635,0.0,0.0,0.0,0.0,11.0,12.0,13.0,14.0,60.686
2024-04-01 20:19:48,-3.0,-7.25,4.375,0.20872941366397896,-2.0,0.0,-1.0,0.0,0.0,-0.9676524390243902,0.9676524390243902,0.9676524390243902,-0.9676524390243902,-0.5758841463414635,-0.5758841463414635,0.0,0.0,0.0,0.0,11.0,12.0,13.0,14.0,61.224
2024-04-01 20:19:48,-2.75,-8.125,3.25,0.0,-2.0,0.0,0.0,0.0,0.0,-0.9676524390243902,0.9676524390243902,0.9676524390243902,-0.9676524390243902,-0.5758841463414635,-0.5758841463414635,0.0,0.0,0.0,0.0,0.0,0.0,0.0,0.0,0.0
2024-04-01 20:19:48,-2.5625,-8.875,2.5625,0.0,-2.0,0.0,0.0,0.0,0.0,0.0,0.0,0.0,0.0,-0.0,0.0,0.0,0.0,0.0,0.0,0.0,0.0,0.0,0.0,0.0
2024-04-01 20:19:48,-2.5,-9.6875,2.0,0.0,-2.0,0.0,0.0,0.0,0.0,0.0,0.0,0.0,0.0,-0.0,0.0,0.0,0.0,0.0,0.0,0.0,0.0,0.0,0.0,0.0
2024-04-01 20:19:48,-2.625,-10.5625,1.75,0.20872941366397896,-2.0,0.0,-1.0,0.0,0.0,0.0,0.0,0.0,0.0,-0.0,0.0,0.0,0.0,0.0,0.0,11.0,12.0,13.0,14.0,60.686
2024-04-01 20:19:48,-2.8125,-11.5,1.5,0.0,-2.0,0.0,0.0,0.0,0.0,0.0,0.0,0.0,0.0,-0.0,0.0,0.0,0.0,0.0,0.0,0.0,0.0,0.0,0.0,0.0
2024-04-01 20:19:48,-3.0625,-12.4375,1.25,0.0,-2.0,0.0,0.0,0.0,0.0,0.0,0.0,0.0,0.0,-0.0,0.0,0.0,0.0,0.0,0.0,0.0,0.0,0.0,0.0,0.0
2024-04-01 20:19:48,-3.375,-13.25,0.9375,0.20872941366397896,-2.0,0.0,-1.0,0.0,0.0,0.0,0.0,0.0,0.0,-0.0,0.0,0.0,0.0,0.0,0.0,11.0,12.0,13.0,14.0,61.762
2024-04-01 20:19:49,-3.75,-14.0,0.5625,0.0,-2.0,0.0,0.0,0.0,0.0,0.0,0.0,0.0,0.0,-0.0,0.0,0.0,0.0,0.0,0.0,0.0,0.0,0.0,0.0,0.0
