Timestamp,Yaw,Pitch,Roll,Depth,Depth Set,Depth Control,Water,Roll Control,Pitch Control,Thruster1,Thruster2,Thruster3,Thruster4,Thruster5,Thruster6,BCD1,BCD2,BCD3,BCD4,BCD1 Volt,BCD2 Volt,BCD3 Volt,BCD4 Volt,CPU
2024-04-01 20:37:57,-19.4375,-10.0625,2.1875,0.0,-2.0,-0.0,0.0,0.0,0.0,0.0,0.0,0.0,0.0,-0.0,0.0,1.0,1.0,1.0,1.0,0.0,0.0,0.0,0.0,0.0
2024-04-01 20:37:57,-19.625,-9.3125,0.1875,0.0,-2.0,-0.0,0.0,0.0,0.0,0.0,0.0,0.0,0.0,-0.0,0.0,1.0,1.0,1.0,1.0,0.0,0.0,0.0,0.0,0.0
2024-04-01 20:37:57,-19.6875,-9.3125,-0.0625,0.0,-2.0,-0.0,0.0,0.0,0.0,0.0,0.0,0.0,0.0,-0.0,0.0,1.0,1.0,1.0,1.0,0.0,0.0,0.0,0.0,0.0
2024-04-01 20:37:57,-19.75,-9.375,-0.25,0.0,-2.0,-0.0,0.0,0.0,0.0,0.0,0.0,0.0,0.0,-0.0,0.0,1.0,1.0,1.0,1.0,0.0,0.0,0.0,0.0,0.0
2024-04-01 20:37:57,-19.75,-9.5,-0.5,0.0,-2.0,-0.0,0.0,0.0,0.0,0.0,0.0,0.0,0.0,-0.0,0.0,1.0,1.0,1.0,1.0,0.0,0.0,0.0,0.0,0.0
2024-04-01 20:37:57,-19.8125,-9.5,-0.5,0.0,-2.0,-0.0,0.0,0.0,0.0,0.0,0.0,0.0,0.0,-0.0,0.0,1.0,1.0,1.0,1.0,0.0,0.0,0.0,0.0,0.0
2024-04-01 20:37:57,-20.0,-10.25,-0.9375,-0.4586114345343221,-2.0,-0.0,-1.0,0.0,0.0,0.0,0.0,0.0,0.0,-0.0,0.0,1.0,1.0,1.0,1.0,11.0,12.0,13.0,14.0,62.3
2024-04-01 20:37:58,-20.0625,-10.5,-0.9375,0.0,-2.0,-0.0,0.0,0.0,0.0,0.0,0.0,0.0,0.0,-0.0,0.0,1.0,1.0,1.0,1.0,0.0,0.0,0.0,0.0,0.0
2024-04-01 20:37:58,-20.4375,-13.0625,0.125,0.0,-2.0,-0.0,0.0,0.0,0.0,0.0,0.0,0.0,0.0,-0.0,0.0,1.0,1.0,1.0,1.0,0.0,0.0,0.0,0.0,0.0
2024-04-01 20:37:58,-20.4375,-3.8125,-15.1875,0.0,-2.0,-0.0,0.0,0.0,0.0,0.0,0.0,0.0,0.0,-0.0,0.0,1.0,1.0,1.0,1.0,0.0,0.0,0.0,0.0,0.0
2024-04-01 20:37:58,-20.5,-13.5625,0.5,0.0,-2.0,-0.0,0.0,0.0,0.0,0.0,0.0,0.0,0.0,-0.0,0.0,1.0,1.0,1.0,1.0,0.0,0.0,0.0,0.0,0.0
2024-04-01 20:37:58,-20.5,-13.75,0.6875,0.0,-2.0,-0.0,0.0,0.0,0.0,0.0,0.0,0.0,0.0,-0.0,0.0,1.0,1.0,1.0,1.0,0.0,0.0,0.0,0.0,0.0
2024-04-01 20:37:58,-20.5,-13.9375,0.9375,0.0,-2.0,-0.0,0.0,0.0,0.0,0.0,0.0,0.0,0.0,-0.0,0.0,1.0,1.0,1.0,1.0,0.0,0.0,0.0,0.0,0.0
2024-04-01 20:37:58,-20.4375,-14.6875,1.5,0.0,-2.0,-0.0,0.0,0.0,0.0,0.0,0.0,0.0,0.0,-0.0,0.0,1.0,1.0,1.0,1.0,0.0,0.0,0.0,0.0,0.0
2024-04-01 20:37:58,-20.5,-15.0,1.6875,0.0,-2.0,-0.0,0.0,0.0,0.0,0.0,0.0,0.0,0.0,-0.0,0.0,1.0,1.0,1.0,1.0,0.0,0.0,0.0,0.0,0.0
2024-04-01 20:37:58,-20.5,-15.0625,1.75,0.0,-2.0,-0.0,0.0,0.0,0.0,0.0,0.0,0.0,0.0,-0.0,0.0,1.0,1.0,1.0,1.0,0.0,0.0,0.0,0.0,0.0
2024-04-01 20:37:58,-20.5,-15.0625,1.8125,0.0,-2.0,-0.0,0.0,0.0,0.0,0.0,0.0,0.0,0.0,-0.0,0.0,1.0,1.0,1.0,1.0,0.0,0.0,0.0,0.0,0.0
2024-04-01 20:37:58,-20.5,-15.125,1.875,0.0,-2.0,-0.0,0.0,0.0,0.0,0.0,0.0,0.0,0.0,-0.0,0.0,1.0,1.0,1.0,1.0,0.0,0.0,0.0,0.0,0.0
2024-04-01 20:37:58,-20.5,-15.125,1.875,0.0,-2.0,-0.0,0.0,0.0,0.0,0.0,0.0,0.0,0.0,-0.0,0.0,1.0,1.0,1.0,1.0,0.0,0.0,0.0,0.0,0.0
2024-04-01 20:37:59,-20.5,-15.125,1.9375,0.0,-2.0,-0.0,0.0,0.0,0.0,0.0,0.0,0.0,0.0,-0.0,0.0,1.0,1.0,1.0,1.0,0.0,0.0,0.0,0.0,0.0
2024-04-01 20:37:59,-20.5625,-15.0625,1.875,0.0,-2.0,-0.0,0.0,0.0,0.0,0.0,0.0,0.0,0.0,-0.0,0.0,1.0,1.0,1.0,1.0,0.0,0.0,0.0,0.0,0.0
2024-04-01 20:37:59,-20.5625,-15.0,1.875,0.0,-2.0,-0.0,0.0,0.0,0.0,0.0,0.0,0.0,0.0,-0.0,0.0,1.0,1.0,1.0,1.0,0.0,0.0,0.0,0.0,0.0
2024-04-01 20:37:59,-20.5625,-14.9375,1.875,0.0,-2.0,-0.0,0.0,0.0,0.0,0.0,0.0,0.0,0.0,-0.0,0.0,1.0,1.0,1.0,1.0,0.0,0.0,0.0,0.0,0.0
2024-04-01 20:37:59,-20.5625,-14.8125,1.8125,0.0,-2.0,-0.0,0.0,0.0,0.0,0.0,0.0,0.0,0.0,-0.0,0.0,1.0,1.0,1.0,1.0,0.0,0.0,0.0,0.0,0.0
2024-04-01 20:37:59,-20.5625,-14.6875,1.6875,0.0,-2.0,-0.0,0.0,0.0,0.0,0.0,0.0,0.0,0.0,-0.0,0.0,1.0,1.0,1.0,1.0,0.0,0.0,0.0,0.0,0.0
2024-04-01 20:37:59,-20.5625,-14.5625,1.5625,0.0,-2.0,-0.0,0.0,0.0,0.0,0.0,0.0,0.0,0.0,-0.0,0.0,1.0,1.0,1.0,1.0,0.0,0.0,0.0,0.0,0.0
2024-04-01 20:37:59,-20.5625,-14.4375,1.4375,0.0,-2.0,-0.0,0.0,0.0,0.0,0.0,0.0,0.0,0.0,-0.0,0.0,1.0,1.0,1.0,1.0,0.0,0.0,0.0,0.0,0.0
2024-04-01 20:37:59,-20.5,-14.25,1.3125,0.0,-2.0,-0.0,0.0,0.0,0.0,0.0,0.0,0.0,0.0,-0.0,0.0,1.0,1.0,1.0,1.0,0.0,0.0,0.0,0.0,0.0
2024-04-01 20:37:59,-20.4375,-13.75,1.0625,0.0,-2.0,-0.0,0.0,0.0,0.0,0.0,0.0,0.0,0.0,-0.0,0.0,1.0,1.0,1.0,1.0,0.0,0.0,0.0,0.0,0.0
2024-04-01 20:37:59,-20.375,-13.375,0.875,0.0,-2.0,-0.0,0.0,0.0,0.0,0.0,0.0,0.0,0.0,-0.0,0.0,1.0,1.0,1.0,1.0,0.0,0.0,0.0,0.0,0.0
2024-04-01 20:37:59,-20.3125,-13.125,0.8125,0.0,-2.0,-0.0,0.0,0.0,0.0,0.0,0.0,0.0,0.0,-0.0,0.0,1.0,1.0,1.0,1.0,0.0,0.0,0.0,0.0,0.0
2024-04-01 20:37:59,-20.25,-12.75,0.6875,0.0,-2.0,-0.0,0.0,0.0,0.0,0.0,0.0,0.0,0.0,-0.0,0.0,1.0,1.0,1.0,1.0,0.0,0.0,0.0,0.0,0.0
2024-04-01 20:37:59,-20.125,-12.0,0.5625,0.0,-2.0,-0.0,0.0,0.0,0.0,0.0,0.0,0.0,0.0,-0.0,0.0,1.0,1.0,1.0,1.0,0.0,0.0,0.0,0.0,0.0
2024-04-01 20:37:59,-20.125,-11.9375,0.5625,0.0,-2.0,-0.0,0.0,0.0,0.0,0.0,0.0,0.0,0.0,-0.0,0.0,1.0,1.0,1.0,1.0,0.0,0.0,0.0,0.0,0.0
2024-04-01 20:37:59,-19.9375,-10.4375,0.4375,0.0,-2.0,-0.0,0.0,0.0,0.0,0.0,0.0,0.0,0.0,-0.0,0.0,1.0,1.0,1.0,1.0,0.0,0.0,0.0,0.0,0.0
2024-04-01 20:38:00,-19.875,-10.0,0.4375,0.0,-2.0,-0.0,0.0,0.0,0.0,0.0,0.0,0.0,0.0,-0.0,0.0,1.0,1.0,1.0,1.0,0.0,0.0,0.0,0.0,0.0
2024-04-01 20:38:00,-19.75,-9.375,0.4375,0.0,-2.0,-0.0,0.0,0.0,0.0,0.0,0.0,0.0,0.0,-0.0,0.0,1.0,1.0,1.0,1.0,0.0,0.0,0.0,0.0,0.0
2024-04-01 20:38:00,-19.6875,-9.0,0.4375,0.0,-2.0,-0.0,0.0,0.0,0.0,0.0,0.0,0.0,0.0,-0.0,0.0,1.0,1.0,1.0,1.0,0.0,0.0,0.0,0.0,0.0
2024-04-01 20:38:00,-19.625,-8.4375,0.5,0.0,-2.0,-0.0,0.0,0.0,0.0,0.0,0.0,0.0,0.0,-0.0,0.0,1.0,1.0,1.0,1.0,0.0,0.0,0.0,0.0,0.0
2024-04-01 20:38:00,-19.5625,-7.875,0.625,0.0,-2.0,-0.0,0.0,0.0,0.0,0.0,0.0,0.0,0.0,-0.0,0.0,1.0,1.0,1.0,1.0,0.0,0.0,0.0,0.0,0.0
2024-04-01 20:38:00,-19.5,-7.3125,0.75,0.0,-2.0,-0.0,0.0,0.0,0.0,0.0,0.0,0.0,0.0,-0.0,0.0,1.0,1.0,1.0,1.0,0.0,0.0,0.0,0.0,0.0
2024-04-01 20:38:00,-19.4375,-6.8125,0.8125,0.0,-2.0,-0.0,0.0,0.0,0.0,0.0,0.0,0.0,0.0,-0.0,0.0,1.0,1.0,1.0,1.0,0.0,0.0,0.0,0.0,0.0
2024-04-01 20:38:00,-19.3125,-6.25,0.9375,0.0,-2.0,-0.0,0.0,0.0,0.0,0.0,0.0,0.0,0.0,0.16060975609756098,0.16060975609756098,1.0,1.0,1.0,1.0,0.0,0.0,0.0,0.0,0.0
2024-04-01 20:38:00,-19.1875,-5.0625,1.25,-0.4586114345343221,-2.0,-0.0,-1.0,0.0,0.0,0.0,0.0,0.0,0.0,0.481859756097561,0.481859756097561,1.0,1.0,1.0,1.0,11.0,12.0,13.0,14.0,63.376
2024-04-01 20:38:00,-19.0625,-4.5625,1.4375,0.0,-2.0,-0.0,0.0,0.0,0.0,0.0,0.0,0.0,0.0,0.6464024390243902,0.6464024390243902,1.0,1.0,1.0,1.0,0.0,0.0,0.0,0.0,0.0
2024-04-01 20:38:00,-19.0625,-4.5,1.4375,0.0,-2.0,-0.0,0.0,0.0,0.0,0.0,0.0,0.0,0.0,0.6542378048780488,0.6542378048780488,1.0,1.0,1.0,1.0,0.0,0.0,0.0,0.0,0.0
2024-04-01 20:38:00,-18.875,-3.25,1.875,0.0,-2.0,-0.0,0.0,0.0,0.0,0.0,0.0,0.0,0.0,0.6777439024390244,0.6777439024390244,1.0,1.0,1.0,1.0,0.0,0.0,0.0,0.0,0.0
2024-04-01 20:38:01,-18.8125,-2.875,2.0,0.0,-2.0,-0.0,0.0,0.0,0.0,0.0,0.0,0.0,0.0,0.6072256097560975,0.6072256097560975,1.0,1.0,1.0,1.0,0.0,0.0,0.0,0.0,0.0
2024-04-01 20:38:01,-18.6875,-3.125,1.9375,0.0,-2.0,-0.0,0.0,0.0,0.0,0.0,0.0,0.0,0.0,-0.0,0.0,1.0,1.0,1.0,1.0,0.0,0.0,0.0,0.0,0.0
2024-04-01 20:38:01,-19.0,-6.6875,1.0,0.0,-2.0,-0.0,0.0,0.0,0.0,0.0,0.0,0.0,0.0,-0.0,0.0,1.0,1.0,1.0,1.0,0.0,0.0,0.0,0.0,0.0
2024-04-01 20:38:01,-19.0625,-7.375,0.8125,0.0,-2.0,-0.0,0.0,0.0,0.0,0.0,0.0,0.0,0.0,-0.0,0.0,1.0,1.0,1.0,1.0,0.0,0.0,0.0,0.0,0.0
2024-04-01 20:38:01,-19.125,-8.125,0.6875,0.0,-2.0,-0.0,0.0,0.0,0.0,0.0,0.0,0.0,0.0,-0.0,0.0,1.0,1.0,1.0,1.0,0.0,0.0,0.0,0.0,0.0
2024-04-01 20:38:01,-19.1875,-8.625,0.5625,0.0,-2.0,-0.0,0.0,0.0,0.0,0.0,0.0,0.0,0.0,-0.0,0.0,1.0,1.0,1.0,1.0,0.0,0.0,0.0,0.0,0.0
2024-04-01 20:38:01,-19.25,-8.9375,0.5,0.0,-2.0,-0.0,0.0,0.0,0.0,0.0,0.0,0.0,0.0,-0.0,0.0,1.0,1.0,1.0,1.0,0.0,0.0,0.0,0.0,0.0
2024-04-01 20:38:01,-19.25,-9.5,0.375,0.0,-2.0,-0.0,0.0,0.0,0.0,0.0,0.0,0.0,0.0,-0.0,0.0,1.0,1.0,1.0,1.0,0.0,0.0,0.0,0.0,0.0
2024-04-01 20:38:01,-19.3125,-10.1875,0.25,0.0,-2.0,-0.0,0.0,0.0,0.0,0.0,0.0,0.0,0.0,-0.0,0.0,1.0,1.0,1.0,1.0,0.0,0.0,0.0,0.0,0.0
2024-04-01 20:38:02,-19.375,-11.0625,0.125,0.0,-2.0,-0.0,0.0,0.0,0.0,0.0,0.0,0.0,0.0,-0.0,0.0,1.0,1.0,1.0,1.0,0.0,0.0,0.0,0.0,0.0
2024-04-01 20:38:02,-19.3125,-12.25,0.1875,0.0,-2.0,-0.0,0.0,0.0,0.0,0.0,0.0,0.0,0.0,-0.0,0.0,1.0,1.0,1.0,1.0,0.0,0.0,0.0,0.0,0.0
2024-04-01 20:38:02,-19.25,-12.25,0.3125,0.0,-2.0,-0.0,0.0,0.0,0.0,0.0,0.0,0.0,0.0,0.3721646341463415,0.3721646341463415,1.0,1.0,1.0,1.0,0.0,0.0,0.0,0.0,0.0
2024-04-01 20:38:02,-19.1875,-12.1875,0.375,0.0,-2.0,-0.0,0.0,0.0,0.0,0.0,0.0,0.0,0.0,0.5288719512195122,0.5288719512195122,1.0,1.0,1.0,1.0,0.0,0.0,0.0,0.0,0.0
2024-04-01 20:38:02,-19.125,-12.0,0.5,0.0,-2.0,-0.0,0.0,0.0,0.0,0.0,0.0,0.0,0.0,0.5602134146341463,0.5602134146341463,1.0,1.0,1.0,1.0,0.0,0.0,0.0,0.0,0.0
2024-04-01 20:38:02,-19.0625,-11.9375,0.5625,0.0,-2.0,-0.0,0.0,0.0,0.0,0.0,0.0,0.0,0.0,0.5602134146341463,0.5602134146341463,1.0,1.0,1.0,1.0,0.0,0.0,0.0,0.0,0.0
2024-04-01 20:38:02,-19.0,-11.6875,0.75,0.0,-2.0,-0.0,0.0,0.0,0.0,0.0,0.0,0.0,0.0,0.5602134146341463,0.5602134146341463,1.0,1.0,1.0,1.0,0.0,0.0,0.0,0.0,0.0
2024-04-01 20:38:02,-18.75,-11.0625,1.125,-0.4586114345343221,-2.0,-0.0,-1.0,0.0,0.0,0.0,0.0,0.0,0.0,0.5602134146341463,0.5602134146341463,1.0,1.0,1.0,1.0,11.0,12.0,13.0,14.0,62.838
2024-04-01 20:38:03,-18.75,-11.0,1.125,0.0,-2.0,-0.0,0.0,0.0,0.0,0.0,0.0,0.0,0.0,0.5602134146341463,0.5602134146341463,1.0,1.0,1.0,1.0,0.0,0.0,0.0,0.0,0.0
2024-04-01 20:38:03,-17.375,-6.625,2.1875,0.0,-2.0,-0.0,0.0,0.0,0.0,0.0,0.0,0.0,0.0,0.3329878048780488,0.3329878048780488,1.0,1.0,1.0,1.0,0.0,0.0,0.0,0.0,0.0
2024-04-01 20:38:03,-17.3125,-6.375,2.1875,0.0,-2.0,-0.0,0.0,0.0,0.0,0.0,0.0,0.0,0.0,-0.0,0.0,1.0,1.0,1.0,1.0,0.0,0.0,0.0,0.0,0.0
2024-04-01 20:38:03,-17.1875,-6.125,2.125,0.0,-2.0,-0.0,0.0,0.0,0.0,0.0,0.0,0.0,0.0,-0.0,0.0,1.0,1.0,1.0,1.0,0.0,0.0,0.0,0.0,0.0
2024-04-01 20:38:03,-17.125,-5.875,2.0625,0.0,-2.0,-0.0,0.0,0.0,0.0,0.0,0.0,0.0,0.0,-0.0,0.0,1.0,1.0,1.0,1.0,0.0,0.0,0.0,0.0,0.0
2024-04-01 20:38:03,-16.875,-6.0625,1.3125,0.0,-2.0,-0.0,0.0,0.0,0.0,0.0,0.0,0.0,0.0,-0.0,0.0,1.0,1.0,1.0,1.0,0.0,0.0,0.0,0.0,0.0
2024-04-01 20:38:03,-16.875,-6.25,1.125,0.0,-2.0,-0.0,0.0,0.0,0.0,0.0,0.0,0.0,0.0,-0.0,0.0,1.0,1.0,1.0,1.0,0.0,0.0,0.0,0.0,0.0
2024-04-01 20:38:03,-16.8125,-6.5625,0.875,0.0,-2.0,-0.0,0.0,0.0,0.0,0.0,0.0,0.0,0.0,-0.0,0.0,1.0,1.0,1.0,1.0,0.0,0.0,0.0,0.0,0.0
2024-04-01 20:38:04,-16.8125,-6.8125,0.75,0.0,-2.0,-0.0,0.0,0.0,0.0,0.0,0.0,0.0,0.0,-0.0,0.0,1.0,1.0,1.0,1.0,0.0,0.0,0.0,0.0,0.0
2024-04-01 20:38:04,-16.4375,-7.625,0.625,0.0,-2.0,-0.0,0.0,0.0,0.0,0.0,0.0,0.0,0.0,-0.0,0.0,1.0,1.0,1.0,1.0,0.0,0.0,0.0,0.0,0.0
2024-04-01 20:38:04,-16.3125,-7.625,0.75,0.0,-2.0,-0.0,0.0,0.0,0.0,0.0,0.0,0.0,0.0,-0.0,0.0,1.0,1.0,1.0,1.0,0.0,0.0,0.0,0.0,0.0
2024-04-01 20:38:04,-16.25,-7.5,0.9375,0.0,-2.0,-0.0,0.0,0.0,0.0,0.0,0.0,0.0,0.0,-0.0,0.0,1.0,1.0,1.0,1.0,0.0,0.0,0.0,0.0,0.0
2024-04-01 20:38:04,-16.25,-7.5,0.9375,0.0,-2.0,-0.0,0.0,0.0,0.0,0.0,0.0,0.0,0.0,-0.0,0.0,1.0,1.0,1.0,1.0,0.0,0.0,0.0,0.0,0.0
2024-04-01 20:38:04,-16.0625,-7.1875,1.3125,-0.4586114345343221,-2.0,-0.0,-1.0,0.0,0.0,0.0,0.0,0.0,0.0,-0.0,0.0,1.0,1.0,1.0,1.0,11.0,12.0,13.0,14.0,62.3
2024-04-01 20:38:05,-15.375,-6.0,2.3125,0.0,-2.0,-0.0,0.0,0.0,0.0,0.0,0.0,0.0,0.0,-0.0,0.0,1.0,1.0,1.0,1.0,0.0,0.0,0.0,0.0,0.0
2024-04-01 20:38:05,-15.3125,-6.0,2.375,0.0,-2.0,-0.0,0.0,0.0,0.0,0.0,0.0,0.0,0.0,-0.0,0.0,1.0,1.0,1.0,1.0,0.0,0.0,0.0,0.0,0.0
2024-04-01 20:38:05,-15.3125,-6.0625,2.375,0.0,-2.0,-0.0,0.0,0.0,0.0,0.0,0.0,0.0,0.0,-0.0,0.0,1.0,1.0,1.0,1.0,0.0,0.0,0.0,0.0,0.0
2024-04-01 20:38:05,-15.3125,-6.0625,2.375,0.0,-2.0,-0.0,0.0,0.0,0.0,0.0,0.0,0.0,0.0,-0.0,0.0,1.0,1.0,1.0,1.0,0.0,0.0,0.0,0.0,0.0
2024-04-01 20:38:05,-15.25,-6.125,2.3125,0.0,-2.0,-0.0,0.0,0.0,0.0,0.0,0.0,0.0,0.0,-0.0,0.0,1.0,1.0,1.0,1.0,0.0,0.0,0.0,0.0,0.0
2024-04-01 20:38:05,-15.1875,-6.5,2.1875,0.0,-2.0,-0.0,0.0,0.0,0.0,0.0,0.0,0.0,0.0,-0.0,0.0,1.0,1.0,1.0,1.0,0.0,0.0,0.0,0.0,0.0
2024-04-01 20:38:05,-15.1875,-7.625,1.6875,0.0,-2.0,-0.0,0.0,0.0,0.0,0.0,0.0,0.0,0.0,-0.0,0.0,1.0,1.0,1.0,1.0,0.0,0.0,0.0,0.0,0.0
2024-04-01 20:38:05,-15.1875,-7.875,1.5625,0.0,-2.0,-0.0,0.0,0.0,0.0,0.0,0.0,0.0,0.0,-0.0,0.0,1.0,1.0,1.0,1.0,0.0,0.0,0.0,0.0,0.0
2024-04-01 20:38:05,-15.1875,-8.0,1.5,0.0,-2.0,-0.0,0.0,0.0,0.0,0.0,0.0,0.0,0.0,-0.0,0.0,1.0,1.0,1.0,1.0,0.0,0.0,0.0,0.0,0.0
2024-04-01 20:38:05,-15.1875,-8.4375,1.375,0.0,-2.0,-0.0,0.0,0.0,0.0,0.0,0.0,0.0,0.0,-0.3094817073170732,-0.3094817073170732,1.0,1.0,1.0,1.0,0.0,0.0,0.0,0.0,0.0
2024-04-01 20:38:05,-15.1875,-8.8125,1.1875,0.0,-2.0,-0.0,0.0,0.0,0.0,0.0,0.0,0.0,0.0,-0.9989939024390244,-0.9989939024390244,1.0,1.0,1.0,1.0,0.0,0.0,0.0,0.0,0.0
2024-04-01 20:38:06,-15.25,-9.5625,0.875,0.0,-2.0,-0.0,0.0,0.0,0.0,0.0,0.0,0.0,0.0,-0.9989939024390244,-0.9989939024390244,1.0,1.0,1.0,1.0,0.0,0.0,0.0,0.0,0.0
2024-04-01 20:38:06,-15.5,-12.5,0.3125,0.0,-2.0,-0.0,0.0,0.0,0.0,0.0,0.0,0.0,0.0,-0.5758841463414635,-0.5758841463414635,1.0,1.0,1.0,1.0,0.0,0.0,0.0,0.0,0.0
2024-04-01 20:38:06,-15.5,-12.6875,0.3125,-0.4586114345343221,-2.0,-0.0,-1.0,0.0,0.0,0.0,0.0,0.0,0.0,-0.4740243902439024,-0.4740243902439024,1.0,1.0,1.0,1.0,11.0,12.0,13.0,14.0,62.3
2024-04-01 20:38:06,-15.5,-12.75,0.3125,0.0,-2.0,-0.0,0.0,0.0,0.0,0.0,0.0,0.0,0.0,-0.4740243902439024,-0.4740243902439024,1.0,1.0,1.0,1.0,0.0,0.0,0.0,0.0,0.0
2024-04-01 20:38:06,-15.4375,-12.8125,0.375,0.0,-2.0,-0.0,0.0,0.0,0.0,0.0,0.0,0.0,0.0,-0.4740243902439024,-0.4740243902439024,1.0,1.0,1.0,1.0,0.0,0.0,0.0,0.0,0.0
2024-04-01 20:38:06,-15.4375,-12.875,0.4375,0.0,-2.0,-0.0,0.0,0.0,0.0,0.0,0.0,0.0,0.0,-0.4740243902439024,-0.4740243902439024,1.0,1.0,1.0,1.0,0.0,0.0,0.0,0.0,0.0
2024-04-01 20:38:07,-15.5,-12.9375,0.5625,0.0,-2.0,-0.0,0.0,0.0,0.0,0.0,0.0,0.0,0.0,-0.0,0.0,1.0,1.0,1.0,1.0,0.0,0.0,0.0,0.0,0.0
2024-04-01 20:38:07,-15.5,-12.375,1.125,0.0,-2.0,-0.0,0.0,0.0,0.0,0.0,0.0,0.0,0.0,-0.0,0.0,1.0,1.0,1.0,1.0,0.0,0.0,0.0,0.0,0.0
2024-04-01 20:38:07,-15.4375,-12.25,1.125,0.0,-2.0,-0.0,0.0,0.0,0.0,0.0,0.0,0.0,0.0,-0.0,0.0,1.0,1.0,1.0,1.0,0.0,0.0,0.0,0.0,0.0
2024-04-01 20:38:07,-15.4375,-12.125,1.0625,0.0,-2.0,-0.0,0.0,0.0,0.0,0.0,0.0,0.0,0.0,-0.0,0.0,1.0,1.0,1.0,1.0,0.0,0.0,0.0,0.0,0.0
2024-04-01 20:38:07,-15.375,-11.875,1.0625,-0.4586114345343221,-2.0,-0.0,-1.0,0.0,0.0,0.0,0.0,0.0,0.0,-0.0,0.0,1.0,1.0,1.0,1.0,11.0,12.0,13.0,14.0,63.376
2024-04-01 20:38:07,-15.375,-11.8125,1.0625,0.0,-2.0,-0.0,0.0,0.0,0.0,0.0,0.0,0.0,0.0,-0.0,0.0,1.0,1.0,1.0,1.0,0.0,0.0,0.0,0.0,0.0
2024-04-01 20:38:07,-15.375,-11.75,1.0625,0.0,-2.0,-0.0,0.0,0.0,0.0,0.0,0.0,0.0,0.0,-0.0,0.0,1.0,1.0,1.0,1.0,0.0,0.0,0.0,0.0,0.0
2024-04-01 20:38:07,-15.3125,-11.625,1.0625,0.0,-2.0,-0.0,0.0,0.0,0.0,0.0,0.0,0.0,0.0,-0.0,0.0,1.0,1.0,1.0,1.0,0.0,0.0,0.0,0.0,0.0
2024-04-01 20:38:07,-15.3125,-11.4375,1.0625,0.0,-2.0,-0.0,0.0,0.0,0.0,0.0,0.0,0.0,0.0,-0.0,0.0,1.0,1.0,1.0,1.0,0.0,0.0,0.0,0.0,0.0
2024-04-01 20:38:07,-15.3125,-11.3125,1.0625,0.0,-2.0,-0.0,0.0,0.0,0.0,0.0,0.0,0.0,0.0,-0.0,0.0,1.0,1.0,1.0,1.0,0.0,0.0,0.0,0.0,0.0
2024-04-01 20:38:07,-15.3125,-11.1875,1.0625,0.0,-2.0,-0.0,0.0,0.0,0.0,0.0,0.0,0.0,0.0,-0.0,0.0,1.0,1.0,1.0,1.0,0.0,0.0,0.0,0.0,0.0
2024-04-01 20:38:07,-15.25,-11.0,1.0625,0.0,-2.0,-0.0,0.0,0.0,0.0,0.0,0.0,0.0,0.0,-0.0,0.0,1.0,1.0,1.0,1.0,0.0,0.0,0.0,0.0,0.0
2024-04-01 20:38:07,-15.25,-10.8125,1.0625,0.0,-2.0,-0.0,0.0,0.0,0.0,0.0,0.0,0.0,0.0,-0.0,0.0,1.0,1.0,1.0,1.0,0.0,0.0,0.0,0.0,0.0
2024-04-01 20:38:08,-15.1875,-10.6875,1.0625,0.0,-2.0,-0.0,0.0,0.0,0.0,0.0,0.0,0.0,0.0,-0.0,0.0,1.0,1.0,1.0,1.0,0.0,0.0,0.0,0.0,0.0
2024-04-01 20:38:08,-15.1875,-10.4375,1.0625,0.0,-2.0,-0.0,0.0,0.0,0.0,0.0,0.0,0.0,0.0,-0.0,0.0,1.0,1.0,1.0,1.0,0.0,0.0,0.0,0.0,0.0
2024-04-01 20:38:08,-15.125,-10.0,1.0625,0.0,-2.0,-0.0,0.0,0.0,0.0,0.0,0.0,0.0,0.0,-0.0,0.0,1.0,1.0,1.0,1.0,0.0,0.0,0.0,0.0,0.0
2024-04-01 20:38:08,-15.0625,-9.6875,1.0625,0.0,-2.0,-0.0,0.0,0.0,0.0,0.0,0.0,0.0,0.0,-0.0,0.0,1.0,1.0,1.0,1.0,0.0,0.0,0.0,0.0,0.0
2024-04-01 20:38:08,-15.0625,-9.625,1.0625,0.0,-2.0,-0.0,0.0,0.0,0.0,0.0,0.0,0.0,0.0,-0.0,0.0,1.0,1.0,1.0,1.0,0.0,0.0,0.0,0.0,0.0
2024-04-01 20:38:08,-15.0,2039.1875,1.0625,0.0,-2.0,-0.0,0.0,0.0,0.0,0.0,0.0,0.0,0.0,-0.0,0.0,1.0,1.0,1.0,1.0,0.0,0.0,0.0,0.0,0.0
2024-04-01 20:38:08,-15.0,-8.6875,1.0625,0.0,-2.0,-0.0,0.0,0.0,0.0,0.0,0.0,0.0,0.0,-0.0,0.0,1.0,1.0,1.0,1.0,0.0,0.0,0.0,0.0,0.0
2024-04-01 20:38:08,-15.0,-8.625,1.0625,0.0,-2.0,-0.0,0.0,0.0,0.0,0.0,0.0,0.0,0.0,-0.0,0.0,1.0,1.0,1.0,1.0,0.0,0.0,0.0,0.0,0.0
2024-04-01 20:38:08,-14.9375,-8.3125,1.125,0.0,-2.0,-0.0,0.0,0.0,0.0,0.0,0.0,0.0,0.0,-0.0,0.0,1.0,1.0,1.0,1.0,0.0,0.0,0.0,0.0,0.0
2024-04-01 20:38:08,-14.8125,-7.0625,1.4375,0.0,-2.0,-0.0,0.0,0.0,0.0,0.0,0.0,0.0,0.0,-0.0,0.0,1.0,1.0,1.0,1.0,0.0,0.0,0.0,0.0,0.0
2024-04-01 20:38:09,-14.75,-6.75,1.5,0.0,-2.0,-0.0,0.0,0.0,0.0,0.0,0.0,0.0,0.0,-0.0,0.0,1.0,1.0,1.0,1.0,0.0,0.0,0.0,0.0,0.0
2024-04-01 20:38:09,-14.75,-6.5,1.5625,0.0,-2.0,-0.0,0.0,0.0,0.0,0.0,0.0,0.0,0.0,-0.0,0.0,1.0,1.0,1.0,1.0,0.0,0.0,0.0,0.0,0.0
2024-04-01 20:38:09,-14.6875,-6.25,1.625,0.0,-2.0,-0.0,0.0,0.0,0.0,0.0,0.0,0.0,0.0,-0.0,0.0,1.0,1.0,1.0,1.0,0.0,0.0,0.0,0.0,0.0
2024-04-01 20:38:09,-14.75,-4.875,1.9375,0.0,-2.0,-0.0,0.0,0.0,0.0,0.0,0.0,0.0,0.0,-0.0,0.0,1.0,1.0,1.0,1.0,0.0,0.0,0.0,0.0,0.0
2024-04-01 20:38:09,-14.75,-4.75,1.9375,0.0,-2.0,-0.0,0.0,0.0,0.0,0.0,0.0,0.0,0.0,-0.0,0.0,1.0,1.0,1.0,1.0,0.0,0.0,0.0,0.0,0.0
2024-04-01 20:38:09,-14.75,-4.6875,1.9375,0.0,-2.0,-0.0,0.0,0.0,0.0,0.0,0.0,0.0,0.0,-0.0,0.0,1.0,1.0,1.0,1.0,0.0,0.0,0.0,0.0,0.0
2024-04-01 20:38:09,-14.75,-4.625,1.9375,0.0,-2.0,-0.0,0.0,0.0,0.0,0.0,0.0,0.0,0.0,-0.0,0.0,1.0,1.0,1.0,1.0,0.0,0.0,0.0,0.0,0.0
2024-04-01 20:38:09,-14.75,-4.625,1.875,0.0,-2.0,-0.0,0.0,0.0,0.0,0.0,0.0,0.0,0.0,-0.0,0.0,1.0,1.0,1.0,1.0,0.0,0.0,0.0,0.0,0.0
2024-04-01 20:38:09,-14.75,-4.625,1.8125,0.0,-2.0,-0.0,0.0,0.0,0.0,0.0,0.0,0.0,0.0,-0.0,0.0,1.0,1.0,1.0,1.0,0.0,0.0,0.0,0.0,0.0
2024-04-01 20:38:09,-14.8125,-4.6875,1.75,0.0,-2.0,-0.0,0.0,0.0,0.0,0.0,0.0,0.0,0.0,-0.0,0.0,1.0,1.0,1.0,1.0,0.0,0.0,0.0,0.0,0.0
2024-04-01 20:38:09,-14.8125,-4.8125,1.6875,0.0,-2.0,-0.0,0.0,0.0,0.0,0.0,0.0,0.0,0.0,-0.0,0.0,1.0,1.0,1.0,1.0,0.0,0.0,0.0,0.0,0.0
2024-04-01 20:38:10,-14.875,-4.9375,1.5625,0.0,-2.0,-0.0,0.0,0.0,0.0,0.0,0.0,0.0,0.0,-0.0,0.0,1.0,1.0,1.0,1.0,0.0,0.0,0.0,0.0,0.0
2024-04-01 20:38:10,-14.9375,-5.1875,1.4375,0.0,-2.0,-0.0,0.0,0.0,0.0,0.0,0.0,0.0,0.0,-0.0,0.0,1.0,1.0,1.0,1.0,0.0,0.0,0.0,0.0,0.0
2024-04-01 20:38:10,-15.0,-5.375,1.375,0.0,-2.0,-0.0,0.0,0.0,0.0,0.0,0.0,0.0,0.0,-0.0,0.0,1.0,1.0,1.0,1.0,0.0,0.0,0.0,0.0,0.0
2024-04-01 20:38:10,-15.0625,-5.625,1.25,0.0,-2.0,-0.0,0.0,0.0,0.0,0.0,0.0,0.0,0.0,-0.0,0.0,1.0,1.0,1.0,1.0,0.0,0.0,0.0,0.0,0.0
2024-04-01 20:38:10,-15.125,-5.875,1.125,0.0,-2.0,-0.0,0.0,0.0,0.0,0.0,0.0,0.0,0.0,-0.0,0.0,1.0,1.0,1.0,1.0,0.0,0.0,0.0,0.0,0.0
2024-04-01 20:38:10,-15.1875,-6.25,1.0625,0.0,-2.0,-0.0,0.0,0.0,0.0,0.0,0.0,0.0,0.0,-0.0,0.0,1.0,1.0,1.0,1.0,0.0,0.0,0.0,0.0,0.0
2024-04-01 20:38:10,-15.25,-6.625,0.9375,0.0,-2.0,-0.0,0.0,0.0,0.0,0.0,0.0,0.0,0.0,-0.0,0.0,1.0,1.0,1.0,1.0,0.0,0.0,0.0,0.0,0.0
2024-04-01 20:38:10,-15.25,-6.9375,0.875,0.0,-2.0,-0.0,0.0,0.0,0.0,0.0,0.0,0.0,0.0,-0.0,0.0,1.0,1.0,1.0,1.0,0.0,0.0,0.0,0.0,0.0
2024-04-01 20:38:10,-15.3125,-7.3125,0.8125,0.0,-2.0,-0.0,0.0,0.0,0.0,0.0,0.0,0.0,0.0,-0.0,0.0,1.0,1.0,1.0,1.0,0.0,0.0,0.0,0.0,0.0
2024-04-01 20:38:10,-15.4375,-7.9375,0.75,0.0,-2.0,-0.0,0.0,0.0,0.0,0.0,0.0,0.0,0.0,-0.0,0.0,1.0,1.0,1.0,1.0,0.0,0.0,0.0,0.0,0.0
2024-04-01 20:38:10,-15.5,-8.4375,0.75,0.0,-2.0,-0.0,0.0,0.0,0.0,0.0,0.0,0.0,0.0,-0.0,0.0,1.0,1.0,1.0,1.0,0.0,0.0,0.0,0.0,0.0
2024-04-01 20:38:10,-15.5625,-8.6875,0.75,0.0,-2.0,-0.0,0.0,0.0,0.0,0.0,0.0,0.0,0.0,-0.0,0.0,1.0,1.0,1.0,1.0,0.0,0.0,0.0,0.0,0.0
2024-04-01 20:38:10,-15.5625,-9.0,0.75,0.0,-2.0,-0.0,0.0,0.0,0.0,0.0,0.0,0.0,0.0,-0.0,0.0,1.0,1.0,1.0,1.0,0.0,0.0,0.0,0.0,0.0
2024-04-01 20:38:10,-15.625,-9.375,0.75,0.0,-2.0,-0.0,0.0,0.0,0.0,0.0,0.0,0.0,0.0,-0.0,0.0,1.0,1.0,1.0,1.0,0.0,0.0,0.0,0.0,0.0
2024-04-01 20:38:10,-15.6875,-9.625,0.75,0.0,-2.0,-0.0,0.0,0.0,0.0,0.0,0.0,0.0,0.0,-0.0,0.0,1.0,1.0,1.0,1.0,0.0,0.0,0.0,0.0,0.0
2024-04-01 20:38:11,-15.75,-10.125,0.75,0.0,-2.0,-0.0,0.0,0.0,0.0,0.0,0.0,0.0,0.0,-0.0,0.0,1.0,1.0,1.0,1.0,0.0,0.0,0.0,0.0,0.0
2024-04-01 20:38:11,-15.8125,-10.375,1.25,0.0,-2.0,-0.0,0.0,0.0,0.0,0.0,0.0,0.0,0.0,-0.0,0.0,1.0,1.0,1.0,1.0,0.0,0.0,0.0,0.0,0.0
2024-04-01 20:38:11,-15.75,-10.25,1.3125,0.0,-2.0,-0.0,0.0,0.0,0.0,0.0,0.0,0.0,0.0,-0.0,0.0,1.0,1.0,1.0,1.0,0.0,0.0,0.0,0.0,0.0
2024-04-01 20:38:11,-15.6875,-9.875,1.5,-0.4586114345343221,-2.0,-0.0,-1.0,0.0,0.0,0.0,0.0,0.0,0.0,-0.0,0.0,1.0,1.0,1.0,1.0,11.0,12.0,13.0,14.0,62.838
2024-04-01 20:38:11,-15.6875,-9.75,1.5625,0.0,-2.0,-0.0,0.0,0.0,0.0,0.0,0.0,0.0,0.0,-0.0,0.0,1.0,1.0,1.0,1.0,0.0,0.0,0.0,0.0,0.0
2024-04-01 20:38:11,-15.625,-9.625,1.625,0.0,-2.0,-0.0,0.0,0.0,0.0,0.0,0.0,0.0,0.0,-0.0,0.0,1.0,1.0,1.0,1.0,0.0,0.0,0.0,0.0,0.0
2024-04-01 20:38:11,-15.625,-9.375,1.6875,0.0,-2.0,-0.0,0.0,0.0,0.0,0.0,0.0,0.0,0.0,-0.0,0.0,1.0,1.0,1.0,1.0,0.0,0.0,0.0,0.0,0.0
2024-04-01 20:38:11,-15.5625,-9.0625,1.75,0.0,-2.0,-0.0,0.0,0.0,0.0,0.0,0.0,0.0,0.0,-0.0,0.0,1.0,1.0,1.0,1.0,0.0,0.0,0.0,0.0,0.0
2024-04-01 20:38:11,-15.5,-8.8125,1.75,0.0,-2.0,-0.0,0.0,0.0,0.0,0.0,0.0,0.0,0.0,-0.0,0.0,1.0,1.0,1.0,1.0,0.0,0.0,0.0,0.0,0.0
2024-04-01 20:38:11,-15.5,-8.625,1.75,0.0,-2.0,-0.0,0.0,0.0,0.0,0.0,0.0,0.0,0.0,-0.0,0.0,1.0,1.0,1.0,1.0,0.0,0.0,0.0,0.0,0.0
2024-04-01 20:38:11,-15.4375,-8.0625,1.8125,-0.4586114345343221,-2.0,-0.0,-1.0,0.0,0.0,0.0,0.0,0.0,0.0,-0.0,0.0,1.0,1.0,1.0,1.0,11.0,12.0,13.0,14.0,63.376
2024-04-01 20:38:12,-15.375,-7.75,1.75,-0.4586114345343221,-2.0,-0.0,-1.0,0.0,0.0,0.0,0.0,0.0,0.0,-0.0,0.0,1.0,1.0,1.0,1.0,11.0,12.0,13.0,14.0,62.838
2024-04-01 20:38:12,-15.3125,-7.5,1.6875,0.0,-2.0,-0.0,0.0,0.0,0.0,0.0,0.0,0.0,0.0,0.13710365853658538,0.13710365853658538,1.0,1.0,1.0,1.0,0.0,0.0,0.0,0.0,0.0
2024-04-01 20:38:12,-15.3125,-7.25,1.625,-0.4586114345343221,-2.0,-0.0,-1.0,0.0,0.0,0.04307926829268292,-0.04307926829268292,-0.04307926829268292,0.04307926829268292,0.8892987804878049,0.8892987804878049,1.0,1.0,1.0,1.0,11.0,12.0,13.0,14.0,62.838
2024-04-01 20:38:12,-15.3125,-7.0,1.5,0.0,-2.0,-0.0,0.0,0.0,0.0,0.06658536585365854,-0.06658536585365854,-0.06658536585365854,0.06658536585365854,0.8657926829268293,0.8657926829268293,1.0,1.0,1.0,1.0,0.0,0.0,0.0,0.0,0.0
2024-04-01 20:38:12,-15.25,-6.875,1.375,-0.4586114345343221,-2.0,-0.0,-1.0,0.0,0.0,0.06658536585365854,-0.06658536585365854,-0.06658536585365854,0.06658536585365854,0.28597560975609754,0.28597560975609754,1.0,1.0,1.0,1.0,11.0,12.0,13.0,14.0,62.3
2024-04-01 20:38:12,-15.25,-6.6875,1.3125,0.0,-2.0,-0.0,0.0,0.0,0.0,0.0,0.0,0.0,0.0,-0.0,0.0,1.0,1.0,1.0,1.0,0.0,0.0,0.0,0.0,0.0
2024-04-01 20:38:12,-15.25,-6.625,1.1875,0.0,-2.0,-0.0,0.0,0.0,0.0,0.0,0.0,0.0,0.0,-0.0,0.0,1.0,1.0,1.0,1.0,0.0,0.0,0.0,0.0,0.0
2024-04-01 20:38:12,-15.25,-6.5625,1.0625,-0.38924597798406546,-2.0,-0.0,-1.0,0.0,0.0,0.0,0.0,0.0,0.0,-0.0,0.0,1.0,1.0,1.0,1.0,11.0,12.0,13.0,14.0,62.838
2024-04-01 20:38:12,-15.25,-6.5625,0.9375,0.0,-2.0,-0.0,0.0,0.0,0.0,0.0,0.0,0.0,0.0,-0.0,0.0,1.0,1.0,1.0,1.0,0.0,0.0,0.0,0.0,0.0
2024-04-01 20:38:12,-15.25,-6.5625,0.8125,-0.38924597798406546,-2.0,-0.0,-1.0,0.0,0.0,0.0,0.0,0.0,0.0,-0.0,0.0,1.0,1.0,1.0,1.0,11.0,12.0,13.0,14.0,63.376
2024-04-01 20:38:12,-15.25,-6.625,0.75,0.0,-2.0,-0.0,0.0,0.0,0.0,0.0,0.0,0.0,0.0,-0.0,0.0,1.0,1.0,1.0,1.0,0.0,0.0,0.0,0.0,0.0
2024-04-01 20:38:12,-15.25,-6.75,0.625,0.0,-2.0,-0.0,0.0,0.0,0.0,0.0,0.0,0.0,0.0,-0.0,0.0,1.0,1.0,1.0,1.0,0.0,0.0,0.0,0.0,0.0
2024-04-01 20:38:12,-15.1875,-6.8125,0.625,-0.38924597798406546,-2.0,-0.0,-1.0,0.0,0.0,0.0,0.0,0.0,0.0,-0.0,0.0,1.0,1.0,1.0,1.0,11.0,12.0,13.0,14.0,62.838
2024-04-01 20:38:12,-15.25,-6.875,0.5625,0.0,-2.0,-0.0,0.0,0.0,0.0,0.0,0.0,0.0,0.0,-0.0,0.0,1.0,1.0,1.0,1.0,0.0,0.0,0.0,0.0,0.0
2024-04-01 20:38:12,-15.25,-7.0,0.5,-0.38924597798406546,-2.0,-0.0,-1.0,0.0,0.0,0.0,0.0,0.0,0.0,-0.03524390243902439,-0.03524390243902439,1.0,1.0,1.0,1.0,11.0,12.0,13.0,14.0,62.3
2024-04-01 20:38:12,-15.25,-7.125,0.5,-0.38924597798406546,-2.0,-0.0,-1.0,0.0,0.0,0.0,0.0,0.0,0.0,-0.7247560975609756,-0.7247560975609756,1.0,1.0,1.0,1.0,11.0,12.0,13.0,14.0,63.376
2024-04-01 20:38:12,-15.3125,-7.25,0.5,0.0,-2.0,-0.0,0.0,0.0,0.0,0.0,0.0,0.0,0.0,-0.0,0.0,1.0,1.0,1.0,1.0,0.0,0.0,0.0,0.0,0.0
2024-04-01 20:38:13,-15.3125,-7.375,0.5,-0.38924597798406546,-2.0,-0.0,-1.0,0.0,0.0,0.0,0.0,0.0,0.0,-0.0,0.0,1.0,1.0,1.0,1.0,11.0,12.0,13.0,14.0,62.3
2024-04-01 20:38:13,-15.3125,-7.5,0.5,0.0,-2.0,-0.0,0.0,0.0,0.0,0.0,0.0,0.0,0.0,-0.0,0.0,1.0,1.0,1.0,1.0,0.0,0.0,0.0,0.0,0.0
2024-04-01 20:38:13,-15.375,-7.625,0.5,0.0,-2.0,-0.0,0.0,0.0,0.0,0.0,0.0,0.0,0.0,-0.0,0.0,1.0,1.0,1.0,1.0,0.0,0.0,0.0,0.0,0.0
2024-04-01 20:38:13,-15.375,-7.75,0.5625,-0.38924597798406546,-2.0,-0.0,-1.0,0.0,0.0,0.0,0.0,0.0,0.0,-0.0,0.0,1.0,1.0,1.0,1.0,11.0,12.0,13.0,14.0,62.3
2024-04-01 20:38:13,-15.375,-7.875,0.5625,-0.4060270078355944,-2.0,-0.0,-1.0,0.0,0.0,0.0,0.0,0.0,0.0,-0.0,0.0,1.0,1.0,1.0,1.0,11.0,12.0,13.0,14.0,63.376
2024-04-01 20:38:13,-15.375,-8.0,0.6875,-0.4060270078355944,-2.0,-0.0,-1.0,0.0,0.0,0.0,0.0,0.0,0.0,-0.0,0.0,1.0,1.0,1.0,1.0,11.0,12.0,13.0,14.0,62.3
2024-04-01 20:38:13,-15.375,-8.0625,0.75,0.0,-2.0,-0.0,0.0,0.0,0.0,0.0,0.0,0.0,0.0,0.05875,0.05875,1.0,1.0,1.0,1.0,0.0,0.0,0.0,0.0,0.0
2024-04-01 20:38:13,-15.3125,-8.1875,0.8125,0.0,-2.0,-0.0,0.0,0.0,0.0,0.0,0.0,0.0,0.0,0.7482621951219512,0.7482621951219512,1.0,1.0,1.0,1.0,0.0,0.0,0.0,0.0,0.0
2024-04-01 20:38:13,-15.3125,-8.25,0.9375,-0.4060270078355944,-2.0,-0.0,-1.0,0.0,0.0,0.0,0.0,0.0,0.0,0.4975304878048781,0.4975304878048781,1.0,1.0,1.0,1.0,11.0,12.0,13.0,14.0,62.3
2024-04-01 20:38:13,-15.3125,-8.3125,1.0625,0.0,-2.0,-0.0,0.0,0.0,0.0,0.0,0.0,0.0,0.0,-0.0,0.0,1.0,1.0,1.0,1.0,0.0,0.0,0.0,0.0,0.0
2024-04-01 20:38:13,-15.3125,-8.375,1.125,-0.4060270078355944,-2.0,-0.0,-1.0,0.0,0.0,0.0,0.0,0.0,0.0,-0.0,0.0,1.0,1.0,1.0,1.0,11.0,12.0,13.0,14.0,62.3
2024-04-01 20:38:13,-15.25,-8.4375,1.25,0.0,-2.0,-0.0,0.0,0.0,0.0,0.0,0.0,0.0,0.0,-0.0,0.0,1.0,1.0,1.0,1.0,0.0,0.0,0.0,0.0,0.0
2024-04-01 20:38:13,-15.25,-8.4375,1.3125,0.0,-2.0,-0.0,0.0,0.0,0.0,0.0,0.0,0.0,0.0,-0.0,0.0,1.0,1.0,1.0,1.0,0.0,0.0,0.0,0.0,0.0
2024-04-01 20:38:13,-15.25,-8.4375,1.375,-0.4060270078355944,-2.0,-0.0,-1.0,0.0,0.0,0.0,0.0,0.0,0.0,-0.0,0.0,1.0,1.0,1.0,1.0,11.0,12.0,13.0,14.0,62.3
2024-04-01 20:38:13,-15.25,-8.4375,1.4375,-0.4060270078355944,-2.0,-0.0,-1.0,0.0,0.0,0.0,0.0,0.0,0.0,-0.0,0.0,1.0,1.0,1.0,1.0,11.0,12.0,13.0,14.0,62.3
2024-04-01 20:38:13,-15.25,-8.4375,1.4375,0.0,-2.0,-0.0,0.0,0.0,0.0,0.0,0.0,0.0,0.0,-0.10576219512195122,-0.10576219512195122,1.0,1.0,1.0,1.0,0.0,0.0,0.0,0.0,0.0
2024-04-01 20:38:14,-15.25,-8.4375,1.4375,-0.4060270078355944,-2.0,-0.0,-1.0,0.0,0.0,0.0,0.0,0.0,0.0,-0.6228963414634147,-0.6228963414634147,1.0,1.0,1.0,1.0,11.0,12.0,13.0,14.0,62.3
2024-04-01 20:38:14,-15.25,-8.4375,1.4375,0.0,-2.0,-0.0,0.0,0.0,0.0,-0.05875,0.05875,0.05875,-0.05875,-0.7717682926829268,-0.7717682926829268,1.0,1.0,1.0,1.0,0.0,0.0,0.0,0.0,0.0
2024-04-01 20:38:14,-15.25,-8.4375,1.4375,-0.4060270078355944,-2.0,-0.0,-1.0,0.0,0.0,-0.05875,0.05875,0.05875,-0.05875,-0.0,0.0,1.0,1.0,1.0,1.0,11.0,12.0,13.0,14.0,62.3
2024-04-01 20:38:14,-15.25,-8.4375,1.4375,-0.4295968143323484,-2.0,-0.0,-1.0,0.0,0.0,0.0,0.0,0.0,0.0,-0.0,0.0,1.0,1.0,1.0,1.0,11.0,12.0,13.0,14.0,62.3
2024-04-01 20:38:14,-15.25,-8.5,1.4375,-0.4295968143323484,-2.0,-0.0,-1.0,0.0,0.0,0.05875,-0.05875,-0.05875,0.05875,0.6228963414634147,0.6228963414634147,1.0,1.0,1.0,1.0,11.0,12.0,13.0,14.0,62.3
2024-04-01 20:38:14,-15.25,-8.5,1.4375,-0.4295968143323484,-2.0,-0.0,-1.0,0.0,0.0,0.09009146341463414,-0.09009146341463414,-0.09009146341463414,0.09009146341463414,0.9989939024390244,0.9989939024390244,1.0,1.0,1.0,1.0,11.0,12.0,13.0,14.0,62.3
2024-04-01 20:38:14,-15.25,-8.5625,1.375,0.0,-2.0,-0.0,0.0,0.0,0.0,0.17628048780487804,-0.17628048780487804,-0.17628048780487804,0.17628048780487804,0.08225609756097561,0.08225609756097561,1.0,1.0,1.0,1.0,0.0,0.0,0.0,0.0,0.0
2024-04-01 20:38:14,-15.1875,-8.625,1.3125,-0.4295968143323484,-2.0,-0.0,-1.0,0.0,0.0,0.0,0.0,0.0,0.0,-0.16060975609756098,-0.16060975609756098,1.0,1.0,1.0,1.0,11.0,12.0,13.0,14.0,62.3
2024-04-01 20:38:14,-15.1875,-8.625,1.25,0.0,-2.0,-0.0,0.0,0.0,0.0,0.0,0.0,0.0,0.0,-0.7639329268292683,-0.7639329268292683,1.0,1.0,1.0,1.0,0.0,0.0,0.0,0.0,0.0
2024-04-01 20:38:14,-15.1875,-8.6875,1.125,0.0,-2.0,-0.0,0.0,0.0,0.0,-0.07442073170731707,0.07442073170731707,0.07442073170731707,-0.07442073170731707,-0.9989939024390244,-0.9989939024390244,1.0,1.0,1.0,1.0,0.0,0.0,0.0,0.0,0.0
2024-04-01 20:38:14,-15.1875,-8.6875,1.0625,-0.4295968143323484,-2.0,-0.0,-1.0,0.0,0.0,0.0,0.0,0.0,0.0,-0.5758841463414635,-0.5758841463414635,1.0,1.0,1.0,1.0,11.0,12.0,13.0,14.0,62.3
2024-04-01 20:38:14,-15.1875,-8.6875,0.9375,0.0,-2.0,-0.0,0.0,0.0,0.0,0.0,0.0,0.0,0.0,-0.0,0.0,1.0,1.0,1.0,1.0,0.0,0.0,0.0,0.0,0.0
2024-04-01 20:38:14,-15.1875,-8.625,0.875,-0.4295968143323484,-2.0,-0.0,-1.0,0.0,0.0,0.0,0.0,0.0,0.0,-0.0,0.0,1.0,1.0,1.0,1.0,11.0,12.0,13.0,14.0,62.3
2024-04-01 20:38:14,-15.125,-8.625,0.8125,0.0,-2.0,-0.0,0.0,0.0,0.0,0.0,0.0,0.0,0.0,-0.0,0.0,1.0,1.0,1.0,1.0,0.0,0.0,0.0,0.0,0.0
2024-04-01 20:38:14,-15.125,-8.625,0.75,0.0,-2.0,-0.0,0.0,0.0,0.0,0.0,0.0,0.0,0.0,-0.0,0.0,1.0,1.0,1.0,1.0,0.0,0.0,0.0,0.0,0.0
2024-04-01 20:38:14,-15.125,-8.625,0.6875,-0.4295968143323484,-2.0,-0.0,-1.0,0.0,0.0,0.0,0.0,0.0,0.0,-0.0,0.0,1.0,1.0,1.0,1.0,11.0,12.0,13.0,14.0,62.838
2024-04-01 20:38:15,-15.125,-8.6875,0.625,-0.4295968143323484,-2.0,-0.0,-1.0,0.0,0.0,0.0,0.0,0.0,0.0,-0.0,0.0,1.0,1.0,1.0,1.0,11.0,12.0,13.0,14.0,62.3
2024-04-01 20:38:15,-15.125,-8.6875,0.5625,0.0,-2.0,-0.0,0.0,0.0,0.0,0.0,0.0,0.0,0.0,0.09009146341463414,0.09009146341463414,1.0,1.0,1.0,1.0,0.0,0.0,0.0,0.0,0.0
2024-04-01 20:38:15,-15.125,-8.75,0.5,0.0,-2.0,-0.0,0.0,0.0,0.0,0.0,0.0,0.0,0.0,0.5523780487804878,0.5523780487804878,1.0,1.0,1.0,1.0,0.0,0.0,0.0,0.0,0.0
2024-04-01 20:38:15,-15.125,-8.8125,0.4375,0.0,-2.0,-0.0,0.0,0.0,0.0,0.0,0.0,0.0,0.0,0.7717682926829268,0.7717682926829268,1.0,1.0,1.0,1.0,0.0,0.0,0.0,0.0,0.0
2024-04-01 20:38:15,-15.0625,-8.875,0.4375,-0.44566476549366607,-2.0,-0.0,-1.0,0.0,0.0,0.0,0.0,0.0,0.0,0.5210365853658536,0.5210365853658536,1.0,1.0,1.0,1.0,11.0,12.0,13.0,14.0,62.3
2024-04-01 20:38:15,-15.0625,-8.9375,0.375,0.0,-2.0,-0.0,0.0,0.0,0.0,0.0,0.0,0.0,0.0,-0.0,0.0,1.0,1.0,1.0,1.0,0.0,0.0,0.0,0.0,0.0
2024-04-01 20:38:15,-15.0625,-9.0,0.4375,-0.44566476549366607,-2.0,-0.0,-1.0,0.0,0.0,0.0,0.0,0.0,0.0,-0.0,0.0,1.0,1.0,1.0,1.0,11.0,12.0,13.0,14.0,62.3
2024-04-01 20:38:15,-15.0625,-9.0625,0.4375,-0.44566476549366607,-2.0,-0.0,-1.0,0.0,0.0,0.0,0.0,0.0,0.0,-0.0,0.0,1.0,1.0,1.0,1.0,11.0,12.0,13.0,14.0,62.3
2024-04-01 20:38:15,-15.0,-9.125,0.4375,0.0,-2.0,-0.0,0.0,0.0,0.0,0.0,0.0,0.0,0.0,-0.2546341463414634,-0.2546341463414634,1.0,1.0,1.0,1.0,0.0,0.0,0.0,0.0,0.0
2024-04-01 20:38:15,-15.0,-9.1875,0.4375,-0.44566476549366607,-2.0,-0.0,-1.0,0.0,0.0,0.0,0.0,0.0,0.0,-0.7874390243902439,-0.7874390243902439,1.0,1.0,1.0,1.0,11.0,12.0,13.0,14.0,62.3
2024-04-01 20:38:15,-15.0,-9.1875,0.5,-0.44566476549366607,-2.0,-0.0,-1.0,0.0,0.0,0.0,0.0,0.0,0.0,-0.8422865853658537,-0.8422865853658537,1.0,1.0,1.0,1.0,11.0,12.0,13.0,14.0,62.3
2024-04-01 20:38:15,-15.0,-9.1875,0.5,-0.44566476549366607,-2.0,-0.0,-1.0,0.0,0.0,0.0,0.0,0.0,0.0,-0.23112804878048782,-0.23112804878048782,1.0,1.0,1.0,1.0,11.0,12.0,13.0,14.0,62.3
2024-04-01 20:38:15,-15.0,-9.1875,0.5625,-0.44566476549366607,-2.0,-0.0,-1.0,0.0,0.0,0.0,0.0,0.0,0.0,-0.0,0.0,1.0,1.0,1.0,1.0,11.0,12.0,13.0,14.0,62.3
2024-04-01 20:38:15,-15.0,-9.1875,0.625,-0.44566476549366607,-2.0,-0.0,-1.0,0.0,0.0,0.0,0.0,0.0,0.0,-0.0,0.0,1.0,1.0,1.0,1.0,11.0,12.0,13.0,14.0,62.3
2024-04-01 20:38:15,-15.0,-9.1875,0.6875,-0.44566476549366607,-2.0,-0.0,-1.0,0.0,0.0,0.0,0.0,0.0,0.0,-0.0,0.0,1.0,1.0,1.0,1.0,11.0,12.0,13.0,14.0,62.3
2024-04-01 20:38:15,-15.0,-9.1875,0.75,0.0,-2.0,-0.0,0.0,0.0,0.0,0.0,0.0,0.0,0.0,0.17628048780487804,0.17628048780487804,1.0,1.0,1.0,1.0,0.0,0.0,0.0,0.0,0.0
2024-04-01 20:38:15,-15.0,-9.1875,0.8125,0.0,-2.0,-0.0,0.0,0.0,0.0,0.04307926829268292,-0.04307926829268292,-0.04307926829268292,0.04307926829268292,0.4583536585365854,0.4583536585365854,1.0,1.0,1.0,1.0,0.0,0.0,0.0,0.0,0.0
2024-04-01 20:38:16,-15.0,-9.1875,0.875,-0.44566476549366607,-2.0,-0.0,-1.0,0.0,0.0,0.04307926829268292,-0.04307926829268292,-0.04307926829268292,0.04307926829268292,0.4270121951219512,0.4270121951219512,1.0,1.0,1.0,1.0,11.0,12.0,13.0,14.0,62.3
2024-04-01 20:38:16,-15.0,-9.1875,0.9375,0.0,-2.0,-0.0,0.0,0.0,0.0,0.0,0.0,0.0,0.0,-0.0,0.0,1.0,1.0,1.0,1.0,0.0,0.0,0.0,0.0,0.0
2024-04-01 20:38:16,-15.0,-9.1875,1.0,0.0,-2.0,-0.0,0.0,0.0,0.0,0.0,0.0,0.0,0.0,-0.0,0.0,1.0,1.0,1.0,1.0,0.0,0.0,0.0,0.0,0.0
2024-04-01 20:38:16,-15.0,-9.1875,1.0,-0.43116543899338405,-2.0,-0.0,-1.0,0.0,0.0,0.0,0.0,0.0,0.0,-0.0,0.0,1.0,1.0,1.0,1.0,11.0,12.0,13.0,14.0,62.3
2024-04-01 20:38:16,-15.0,-9.125,1.0,0.0,-2.0,-0.0,0.0,0.0,0.0,0.0,0.0,0.0,0.0,-0.0,0.0,1.0,1.0,1.0,1.0,0.0,0.0,0.0,0.0,0.0
2024-04-01 20:38:16,-15.0,-9.0625,1.0625,-0.43116543899338405,-2.0,-0.0,-1.0,0.0,0.0,0.0,0.0,0.0,0.0,-0.0,0.0,1.0,1.0,1.0,1.0,11.0,12.0,13.0,14.0,62.3
2024-04-01 20:38:16,-15.0,-8.9375,1.0625,-0.43116543899338405,-2.0,-0.0,-1.0,0.0,0.0,0.0,0.0,0.0,0.0,-0.0,0.0,1.0,1.0,1.0,1.0,11.0,12.0,13.0,14.0,62.838
2024-04-01 20:38:16,-14.9375,-8.875,1.125,-0.43116543899338405,-2.0,-0.0,-1.0,0.0,0.0,0.0,0.0,0.0,0.0,-0.0,0.0,1.0,1.0,1.0,1.0,11.0,12.0,13.0,14.0,62.838
2024-04-01 20:38:16,-14.9375,-8.8125,1.125,-0.43116543899338405,-2.0,-0.0,-1.0,0.0,0.0,0.0,0.0,0.0,0.0,-0.0,0.0,1.0,1.0,1.0,1.0,11.0,12.0,13.0,14.0,62.838
2024-04-01 20:38:16,-14.9375,-8.6875,1.125,0.0,-3.0,-0.0,0.0,0.0,0.0,0.0,0.0,0.0,0.0,-0.0,0.0,1.0,1.0,1.0,1.0,0.0,0.0,0.0,0.0,0.0
2024-04-01 20:38:16,-14.9375,-8.5,1.1875,-0.43116543899338405,-3.0,-0.0,-1.0,0.0,0.0,0.0,0.0,0.0,0.0,-0.0,0.0,1.0,1.0,1.0,1.0,11.0,12.0,13.0,14.0,62.838
2024-04-01 20:38:16,-14.9375,-8.375,1.1875,0.0,-3.0,-0.0,0.0,0.0,0.0,0.0,0.0,0.0,0.0,-0.0,0.0,1.0,1.0,1.0,1.0,0.0,0.0,0.0,0.0,0.0
2024-04-01 20:38:16,-14.9375,-8.25,1.1875,0.0,-3.0,-0.0,0.0,0.0,0.0,0.0,0.0,0.0,0.0,-0.0,0.0,1.0,1.0,1.0,1.0,0.0,0.0,0.0,0.0,0.0
2024-04-01 20:38:16,-14.9375,-8.125,1.1875,-0.43116543899338405,-3.0,-0.0,-1.0,0.0,0.0,0.0,0.0,0.0,0.0,-0.0,0.0,1.0,1.0,1.0,1.0,11.0,12.0,13.0,14.0,62.3
2024-04-01 20:38:16,-14.9375,-8.0,1.1875,-0.43116543899338405,-3.0,-0.0,-1.0,0.0,0.0,0.0,0.0,0.0,0.0,-0.0,0.0,1.0,1.0,1.0,1.0,11.0,12.0,13.0,14.0,62.3
2024-04-01 20:38:16,-14.9375,-7.875,1.1875,0.0,-3.0,-0.0,0.0,0.0,0.0,0.0,0.0,0.0,0.0,-0.0,0.0,1.0,1.0,1.0,1.0,0.0,0.0,0.0,0.0,0.0
2024-04-01 20:38:17,-14.9375,-7.8125,1.1875,-0.43116543899338405,-3.0,-0.0,-1.0,0.0,0.0,0.0,0.0,0.0,0.0,-0.0,0.0,1.0,1.0,1.0,1.0,11.0,12.0,13.0,14.0,62.3
2024-04-01 20:38:17,-14.9375,-7.6875,1.1875,0.0,-3.0,-0.0,0.0,0.0,0.0,0.0,0.0,0.0,0.0,-0.0,0.0,1.0,1.0,1.0,1.0,0.0,0.0,0.0,0.0,0.0
2024-04-01 20:38:17,-14.9375,-7.625,1.1875,-0.4226271154901758,-3.0,-0.0,-1.0,0.0,0.0,0.0,0.0,0.0,0.0,-0.0,0.0,1.0,1.0,1.0,1.0,11.0,12.0,13.0,14.0,62.3
2024-04-01 20:38:17,-14.9375,-7.5625,1.1875,0.0,-3.0,-0.0,0.0,0.0,0.0,0.0,0.0,0.0,0.0,-0.8109451219512195,-0.8109451219512195,1.0,1.0,1.0,1.0,0.0,0.0,0.0,0.0,0.0
2024-04-01 20:38:17,-14.875,-7.5,1.1875,0.0,-3.0,-0.0,0.0,0.0,0.0,0.0,0.0,0.0,0.0,-0.9989939024390244,-0.9989939024390244,1.0,1.0,1.0,1.0,0.0,0.0,0.0,0.0,0.0
2024-04-01 20:38:17,-14.875,-7.4375,1.1875,-0.4226271154901758,-3.0,-0.0,-1.0,0.0,0.0,0.0,0.0,0.0,0.0,-0.9989939024390244,-0.9989939024390244,1.0,1.0,1.0,1.0,11.0,12.0,13.0,14.0,62.3
2024-04-01 20:38:17,-14.875,-7.375,1.1875,-0.4226271154901758,-3.0,-0.0,-1.0,0.0,0.0,0.0,0.0,0.0,0.0,-0.9989939024390244,-0.9989939024390244,1.0,1.0,1.0,1.0,11.0,12.0,13.0,14.0,62.3
2024-04-01 20:38:17,-14.9375,-7.3125,1.1875,0.0,-3.0,-0.0,0.0,0.0,0.0,0.0,0.0,0.0,0.0,-0.9989939024390244,-0.9989939024390244,1.0,1.0,1.0,1.0,0.0,0.0,0.0,0.0,0.0
2024-04-01 20:38:17,-14.9375,-7.25,1.1875,-0.4226271154901758,-3.0,-0.0,-1.0,0.0,0.0,0.0,0.0,0.0,0.0,-0.9989939024390244,-0.9989939024390244,1.0,1.0,1.0,1.0,11.0,12.0,13.0,14.0,62.3
2024-04-01 20:38:17,-15.0,-7.25,1.1875,0.0,-3.0,-0.0,0.0,0.0,0.0,0.0,0.0,0.0,0.0,-0.9989939024390244,-0.9989939024390244,1.0,1.0,1.0,1.0,0.0,0.0,0.0,0.0,0.0
2024-04-01 20:38:17,-15.0625,-7.25,1.1875,0.0,-3.0,-0.0,0.0,0.0,0.0,0.0,0.0,0.0,0.0,-0.9989939024390244,-0.9989939024390244,1.0,1.0,1.0,1.0,0.0,0.0,0.0,0.0,0.0
2024-04-01 20:38:17,-15.125,-7.25,1.1875,-0.4226271154901758,-3.0,-0.0,-1.0,0.0,0.0,0.0,0.0,0.0,0.0,-0.9989939024390244,-0.9989939024390244,1.0,1.0,1.0,1.0,11.0,12.0,13.0,14.0,62.838
2024-04-01 20:38:17,-15.1875,-7.25,1.1875,0.0,-3.0,-0.0,0.0,0.0,0.0,0.0,0.0,0.0,0.0,-0.9989939024390244,-0.9989939024390244,1.0,1.0,1.0,1.0,0.0,0.0,0.0,0.0,0.0
2024-04-01 20:38:17,-15.25,-7.3125,1.125,-0.4226271154901758,-3.0,-0.0,-1.0,0.0,0.0,0.0,0.0,0.0,0.0,-0.9989939024390244,-0.9989939024390244,1.0,1.0,1.0,1.0,11.0,12.0,13.0,14.0,62.3
2024-04-01 20:38:17,-15.3125,-7.375,1.125,0.0,-3.0,-0.0,0.0,0.0,0.0,0.0,0.0,0.0,0.0,-0.9989939024390244,-0.9989939024390244,1.0,1.0,1.0,1.0,0.0,0.0,0.0,0.0,0.0
2024-04-01 20:38:17,-15.4375,-7.5,1.125,0.0,-3.0,-0.0,0.0,0.0,0.0,0.0,0.0,0.0,0.0,-0.9989939024390244,-0.9989939024390244,1.0,1.0,1.0,1.0,0.0,0.0,0.0,0.0,0.0
2024-04-01 20:38:18,-15.5,-7.6875,1.125,0.0,-3.0,-0.0,0.0,0.0,0.0,0.0,0.0,0.0,0.0,-0.9989939024390244,-0.9989939024390244,1.0,1.0,1.0,1.0,0.0,0.0,0.0,0.0,0.0
2024-04-01 20:38:18,-15.625,-7.875,1.125,0.0,-3.0,-0.0,0.0,0.0,0.0,0.0,0.0,0.0,0.0,-0.9989939024390244,-0.9989939024390244,1.0,1.0,1.0,1.0,0.0,0.0,0.0,0.0,0.0
2024-04-01 20:38:18,-15.75,-8.0625,1.125,-0.457461038560926,-3.0,-0.0,-1.0,0.0,0.0,0.0,0.0,0.0,0.0,-0.9989939024390244,-0.9989939024390244,1.0,1.0,1.0,1.0,11.0,12.0,13.0,14.0,62.3
2024-04-01 20:38:18,-15.875,-8.3125,1.125,-0.457461038560926,-3.0,-0.0,-1.0,0.0,0.0,0.0,0.0,0.0,0.0,-0.9989939024390244,-0.9989939024390244,1.0,1.0,1.0,1.0,11.0,12.0,13.0,14.0,62.3
2024-04-01 20:38:18,-16.0,-8.5625,1.125,0.0,-3.0,-0.0,0.0,0.0,0.0,0.0,0.0,0.0,0.0,-0.9989939024390244,-0.9989939024390244,1.0,1.0,1.0,1.0,0.0,0.0,0.0,0.0,0.0
2024-04-01 20:38:18,-16.125,-8.8125,1.0625,-0.457461038560926,-3.0,-0.0,-1.0,0.0,0.0,0.0,0.0,0.0,0.0,-0.9989939024390244,-0.9989939024390244,1.0,1.0,1.0,1.0,11.0,12.0,13.0,14.0,62.3
2024-04-01 20:38:18,-16.1875,-9.0,1.0625,0.0,-3.0,-0.0,0.0,0.0,0.0,0.0,0.0,0.0,0.0,-0.9989939024390244,-0.9989939024390244,1.0,1.0,1.0,1.0,0.0,0.0,0.0,0.0,0.0
2024-04-01 20:38:18,-16.375,-9.4375,1.0625,0.0,-3.0,-0.0,0.0,0.0,0.0,0.0,0.0,0.0,0.0,-0.9989939024390244,-0.9989939024390244,1.0,1.0,1.0,1.0,0.0,0.0,0.0,0.0,0.0
2024-04-01 20:38:18,-16.5625,-9.8125,1.0625,0.0,-3.0,-0.0,0.0,0.0,0.0,0.0,0.0,0.0,0.0,-0.9989939024390244,-0.9989939024390244,1.0,1.0,1.0,1.0,0.0,0.0,0.0,0.0,0.0
2024-04-01 20:38:18,-16.6875,-10.125,1.0625,0.0,-3.0,-0.0,0.0,0.0,0.0,0.0,0.0,0.0,0.0,-0.9989939024390244,-0.9989939024390244,1.0,1.0,1.0,1.0,0.0,0.0,0.0,0.0,0.0
2024-04-01 20:38:18,-16.875,-10.4375,1.0,-0.457461038560926,-3.0,-0.0,-1.0,0.0,0.0,0.0,0.0,0.0,0.0,-0.9989939024390244,-0.9989939024390244,1.0,1.0,1.0,1.0,11.0,12.0,13.0,14.0,62.3
2024-04-01 20:38:18,-17.0,-10.75,1.0,-0.457461038560926,-3.0,-0.0,-1.0,0.0,0.0,0.0,0.0,0.0,0.0,-0.9989939024390244,-0.9989939024390244,1.0,1.0,1.0,1.0,11.0,12.0,13.0,14.0,62.3
2024-04-01 20:38:18,-17.125,-11.0625,1.0,0.0,-3.0,-0.0,0.0,0.0,0.0,0.0,0.0,0.0,0.0,-0.9989939024390244,-0.9989939024390244,1.0,1.0,1.0,1.0,0.0,0.0,0.0,0.0,0.0
2024-04-01 20:38:18,-17.25,-11.375,1.0,-0.457461038560926,-3.0,-0.0,-1.0,0.0,0.0,0.0,0.0,0.0,0.0,-0.9989939024390244,-0.9989939024390244,1.0,1.0,1.0,1.0,11.0,12.0,13.0,14.0,61.762
2024-04-01 20:38:18,-17.375,-11.6875,0.9375,0.0,-3.0,-0.0,0.0,0.0,0.0,0.0,0.0,0.0,0.0,-0.9989939024390244,-0.9989939024390244,1.0,1.0,1.0,1.0,0.0,0.0,0.0,0.0,0.0
2024-04-01 20:38:18,-17.5625,-12.0625,0.9375,-0.457461038560926,-3.0,-0.0,-1.0,0.0,0.0,0.0,0.0,0.0,0.0,-0.9989939024390244,-0.9989939024390244,1.0,1.0,1.0,1.0,11.0,12.0,13.0,14.0,62.3
2024-04-01 20:38:19,-17.6875,-12.375,0.9375,0.0,-3.0,-0.0,0.0,0.0,0.0,0.0,0.0,0.0,0.0,-0.9989939024390244,-0.9989939024390244,1.0,1.0,1.0,1.0,0.0,0.0,0.0,0.0,0.0
2024-04-01 20:38:19,-17.8125,-12.6875,0.875,0.0,-3.0,-0.0,0.0,0.0,0.0,0.0,0.0,0.0,0.0,-0.9989939024390244,-0.9989939024390244,1.0,1.0,1.0,1.0,0.0,0.0,0.0,0.0,0.0
2024-04-01 20:38:19,-18.0,-13.0625,0.875,0.0,-3.0,-0.0,0.0,0.0,0.0,0.0,0.0,0.0,0.0,-0.9989939024390244,-0.9989939024390244,1.0,1.0,1.0,1.0,0.0,0.0,0.0,0.0,0.0
2024-04-01 20:38:19,-18.125,-13.375,0.875,-0.4971763965784439,-3.0,-0.0,-1.0,0.0,0.0,-0.05875,0.05875,0.05875,-0.05875,-0.9989939024390244,-0.9989939024390244,1.0,1.0,1.0,1.0,11.0,12.0,13.0,14.0,62.3
2024-04-01 20:38:19,-18.25,-13.625,0.8125,0.0,-3.0,-0.0,0.0,0.0,0.0,-0.05875,0.05875,0.05875,-0.05875,-0.9989939024390244,-0.9989939024390244,1.0,1.0,1.0,1.0,0.0,0.0,0.0,0.0,0.0
2024-04-01 20:38:19,-18.5,-14.0625,0.8125,-0.4971763965784439,-3.0,-0.0,-1.0,0.0,0.0,-0.05875,0.05875,0.05875,-0.05875,-0.9989939024390244,-0.9989939024390244,1.0,1.0,1.0,1.0,11.0,12.0,13.0,14.0,62.3
2024-04-01 20:38:19,-18.625,-14.3125,0.8125,0.0,-3.0,-0.0,0.0,0.0,0.0,-0.05875,0.05875,0.05875,-0.05875,-0.9989939024390244,-0.9989939024390244,1.0,1.0,1.0,1.0,0.0,0.0,0.0,0.0,0.0
2024-04-01 20:38:19,-18.75,-14.5,0.75,0.0,-3.0,-0.0,0.0,0.0,0.0,0.0,0.0,0.0,0.0,-0.9989939024390244,-0.9989939024390244,1.0,1.0,1.0,1.0,0.0,0.0,0.0,0.0,0.0
2024-04-01 20:38:19,-18.875,-14.75,0.75,-0.4971763965784439,-3.0,-0.0,-1.0,0.0,0.0,0.0,0.0,0.0,0.0,-0.9989939024390244,-0.9989939024390244,1.0,1.0,1.0,1.0,11.0,12.0,13.0,14.0,62.3
2024-04-01 20:38:19,-19.0625,-15.0,0.75,-0.4971763965784439,-3.0,-0.0,-1.0,0.0,0.0,0.0,0.0,0.0,0.0,-0.9989939024390244,-0.9989939024390244,1.0,1.0,1.0,1.0,11.0,12.0,13.0,14.0,62.3
2024-04-01 20:38:19,-19.25,-15.25,0.6875,0.0,-3.0,-0.0,0.0,0.0,0.0,0.0,0.0,0.0,0.0,-0.9989939024390244,-0.9989939024390244,1.0,1.0,1.0,1.0,0.0,0.0,0.0,0.0,0.0
2024-04-01 20:38:19,-19.4375,-15.5,0.6875,-0.4971763965784439,-3.0,-0.0,-1.0,0.0,0.0,0.0,0.0,0.0,0.0,-0.9989939024390244,-0.9989939024390244,1.0,1.0,1.0,1.0,11.0,12.0,13.0,14.0,61.762
2024-04-01 20:38:19,-19.625,-15.6875,0.625,-0.4971763965784439,-3.0,-0.0,-1.0,0.0,0.0,0.0,0.0,0.0,0.0,-0.9989939024390244,-0.9989939024390244,1.0,1.0,1.0,1.0,11.0,12.0,13.0,14.0,61.762
2024-04-01 20:38:19,-19.75,-15.875,0.625,0.0,-3.0,-0.0,0.0,0.0,0.0,0.0,0.0,0.0,0.0,-0.9989939024390244,-0.9989939024390244,1.0,1.0,1.0,1.0,0.0,0.0,0.0,0.0,0.0
2024-04-01 20:38:19,-19.9375,-16.0,0.625,-0.4971763965784439,-3.0,-0.0,-1.0,0.0,0.0,0.0,0.0,0.0,0.0,-0.9989939024390244,-0.9989939024390244,1.0,1.0,1.0,1.0,11.0,12.0,13.0,14.0,61.762
2024-04-01 20:38:19,-20.0625,-16.125,0.5625,0.0,-3.0,-0.0,0.0,0.0,0.0,0.0,0.0,0.0,0.0,-0.9989939024390244,-0.9989939024390244,1.0,1.0,1.0,1.0,0.0,0.0,0.0,0.0,0.0
2024-04-01 20:38:20,-20.25,-16.1875,0.5625,0.0,-3.0,-0.0,0.0,0.0,0.0,0.0,0.0,0.0,0.0,-0.9989939024390244,-0.9989939024390244,1.0,1.0,1.0,1.0,0.0,0.0,0.0,0.0,0.0
2024-04-01 20:38:20,-20.375,-16.3125,0.5,0.0,-3.0,-0.0,0.0,0.0,0.0,0.0,0.0,0.0,0.0,-0.9989939024390244,-0.9989939024390244,1.0,1.0,1.0,1.0,0.0,0.0,0.0,0.0,0.0
2024-04-01 20:38:20,-20.5625,-16.375,0.5,0.0,-3.0,-0.0,0.0,0.0,0.0,0.0,0.0,0.0,0.0,-0.9989939024390244,-0.9989939024390244,1.0,1.0,1.0,1.0,0.0,0.0,0.0,0.0,0.0
2024-04-01 20:38:20,-20.6875,-16.4375,0.4375,-0.5365069235421661,-3.0,-0.0,-1.0,0.0,0.0,0.0,0.0,0.0,0.0,-0.9989939024390244,-0.9989939024390244,1.0,1.0,1.0,1.0,11.0,12.0,13.0,14.0,62.3
2024-04-01 20:38:20,-20.875,-16.5,0.4375,-0.5365069235421661,-3.0,-0.0,-1.0,0.0,0.0,0.0,0.0,0.0,0.0,-0.9989939024390244,-0.9989939024390244,1.0,1.0,1.0,1.0,11.0,12.0,13.0,14.0,62.3
2024-04-01 20:38:20,-21.0,-16.5625,0.375,0.0,-3.0,-0.0,0.0,0.0,0.0,0.0,0.0,0.0,0.0,-0.9989939024390244,-0.9989939024390244,1.0,1.0,1.0,1.0,0.0,0.0,0.0,0.0,0.0
2024-04-01 20:38:20,-21.1875,-16.5625,0.375,0.0,-3.0,-0.0,0.0,0.0,0.0,0.0,0.0,0.0,0.0,-0.9989939024390244,-0.9989939024390244,1.0,1.0,1.0,1.0,0.0,0.0,0.0,0.0,0.0
2024-04-01 20:38:20,-21.3125,-16.625,0.3125,0.0,-3.0,-0.0,0.0,0.0,0.0,0.0,0.0,0.0,0.0,-0.9989939024390244,-0.9989939024390244,1.0,1.0,1.0,1.0,0.0,0.0,0.0,0.0,0.0
2024-04-01 20:38:20,-21.5,-16.5625,0.3125,-0.5365069235421661,-3.0,-0.0,-1.0,0.0,0.0,0.0,0.0,0.0,0.0,-0.9989939024390244,-0.9989939024390244,1.0,1.0,1.0,1.0,11.0,12.0,13.0,14.0,62.3
2024-04-01 20:38:20,-21.6875,-16.5625,0.25,0.0,-3.0,-0.0,0.0,0.0,0.0,0.0,0.0,0.0,0.0,-0.9989939024390244,-0.9989939024390244,1.0,1.0,1.0,1.0,0.0,0.0,0.0,0.0,0.0
2024-04-01 20:38:20,-21.8125,-16.5625,0.25,-0.5365069235421661,-3.0,-0.0,-1.0,0.0,0.0,0.0,0.0,0.0,0.0,-0.9989939024390244,-0.9989939024390244,1.0,1.0,1.0,1.0,11.0,12.0,13.0,14.0,62.3
2024-04-01 20:38:20,-22.0625,-16.5625,0.1875,-0.5365069235421661,-3.0,-0.0,-1.0,0.0,0.0,0.0,0.0,0.0,0.0,-0.9989939024390244,-0.9989939024390244,1.0,1.0,1.0,1.0,11.0,12.0,13.0,14.0,62.3
2024-04-01 20:38:20,-22.1875,-16.5,0.1875,0.0,-3.0,-0.0,0.0,0.0,0.0,0.0,0.0,0.0,0.0,-0.9989939024390244,-0.9989939024390244,1.0,1.0,1.0,1.0,0.0,0.0,0.0,0.0,0.0
2024-04-01 20:38:20,-22.375,-16.4375,0.125,-0.5365069235421661,-3.0,-0.0,-1.0,0.0,0.0,0.0,0.0,0.0,0.0,-0.9989939024390244,-0.9989939024390244,1.0,1.0,1.0,1.0,11.0,12.0,13.0,14.0,62.3
2024-04-01 20:38:20,-22.5625,-16.375,0.125,-0.5365069235421661,-3.0,-0.0,-1.0,0.0,0.0,0.0,0.0,0.0,0.0,-0.9989939024390244,-0.9989939024390244,1.0,1.0,1.0,1.0,11.0,12.0,13.0,14.0,62.3
2024-04-01 20:38:20,-22.75,-16.3125,0.125,0.0,-3.0,-0.0,0.0,0.0,0.0,0.0,0.0,0.0,0.0,-0.9989939024390244,-0.9989939024390244,1.0,1.0,1.0,1.0,0.0,0.0,0.0,0.0,0.0
2024-04-01 20:38:21,-22.9375,-16.3125,0.125,0.0,-3.0,-0.0,0.0,0.0,0.0,0.0,0.0,0.0,0.0,-0.9989939024390244,-0.9989939024390244,1.0,1.0,1.0,1.0,0.0,0.0,0.0,0.0,0.0
2024-04-01 20:38:21,-23.125,-16.25,0.125,0.0,-3.0,-0.0,0.0,0.0,0.0,0.0,0.0,0.0,0.0,-0.9989939024390244,-0.9989939024390244,1.0,1.0,1.0,1.0,0.0,0.0,0.0,0.0,0.0
2024-04-01 20:38:21,-23.3125,-16.1875,0.125,-0.5365069235421661,-3.0,-0.0,-1.0,0.0,0.0,0.0,0.0,0.0,0.0,-0.9989939024390244,-0.9989939024390244,1.0,1.0,1.0,1.0,11.0,12.0,13.0,14.0,62.3
2024-04-01 20:38:21,-23.5625,-16.125,0.1875,0.0,-3.0,-0.0,0.0,0.0,0.0,0.0,0.0,0.0,0.0,-0.9989939024390244,-0.9989939024390244,1.0,1.0,1.0,1.0,0.0,0.0,0.0,0.0,0.0
2024-04-01 20:38:21,-23.6875,-16.125,0.1875,0.0,-3.0,-0.0,0.0,0.0,0.0,0.0,0.0,0.0,0.0,-0.9989939024390244,-0.9989939024390244,1.0,1.0,1.0,1.0,0.0,0.0,0.0,0.0,0.0
2024-04-01 20:38:21,-23.875,-16.0625,0.1875,0.0,-3.0,-0.0,0.0,0.0,0.0,0.0,0.0,0.0,0.0,-0.9989939024390244,-0.9989939024390244,1.0,1.0,1.0,1.0,0.0,0.0,0.0,0.0,0.0
2024-04-01 20:38:21,-24.0625,-16.0625,0.25,0.0,-3.0,-0.0,0.0,0.0,0.0,0.0,0.0,0.0,0.0,-0.9989939024390244,-0.9989939024390244,1.0,1.0,1.0,1.0,0.0,0.0,0.0,0.0,0.0
2024-04-01 20:38:21,-24.25,-16.0625,0.25,-0.5905144135127895,-3.0,-0.0,-1.0,0.0,0.0,0.0,0.0,0.0,0.0,-0.9989939024390244,-0.9989939024390244,1.0,1.0,1.0,1.0,11.0,12.0,13.0,14.0,62.3
2024-04-01 20:38:21,-24.5,-16.0625,0.25,-0.5905144135127895,-3.0,-0.0,-1.0,0.0,0.0,0.0,0.0,0.0,0.0,-0.9989939024390244,-0.9989939024390244,1.0,1.0,1.0,1.0,11.0,12.0,13.0,14.0,62.3
2024-04-01 20:38:21,-24.6875,-16.0,0.3125,0.0,-3.0,-0.0,0.0,0.0,0.0,0.0,0.0,0.0,0.0,-0.9989939024390244,-0.9989939024390244,1.0,1.0,1.0,1.0,0.0,0.0,0.0,0.0,0.0
2024-04-01 20:38:21,-24.875,-16.0,0.3125,-0.5905144135127895,-3.0,-0.0,-1.0,0.0,0.0,0.0,0.0,0.0,0.0,-0.9989939024390244,-0.9989939024390244,1.0,1.0,1.0,1.0,11.0,12.0,13.0,14.0,62.3
2024-04-01 20:38:21,-25.0625,-16.0,0.375,0.0,-3.0,-0.0,0.0,0.0,0.0,0.0,0.0,0.0,0.0,-0.9989939024390244,-0.9989939024390244,1.0,1.0,1.0,1.0,0.0,0.0,0.0,0.0,0.0
2024-04-01 20:38:21,-25.25,-16.0,0.375,0.0,-3.0,-0.0,0.0,0.0,0.0,0.0,0.0,0.0,0.0,-0.9989939024390244,-0.9989939024390244,1.0,1.0,1.0,1.0,0.0,0.0,0.0,0.0,0.0
2024-04-01 20:38:21,-25.5,-15.9375,0.375,-0.5905144135127895,-3.0,-0.0,-1.0,0.0,0.0,0.0,0.0,0.0,0.0,-0.9989939024390244,-0.9989939024390244,1.0,1.0,1.0,1.0,11.0,12.0,13.0,14.0,62.3
2024-04-01 20:38:21,-25.625,-15.9375,0.375,0.0,-3.0,-0.0,0.0,0.0,0.0,0.0,0.0,0.0,0.0,-0.9989939024390244,-0.9989939024390244,1.0,1.0,1.0,1.0,0.0,0.0,0.0,0.0,0.0
2024-04-01 20:38:21,-25.8125,-15.9375,0.375,-0.5905144135127895,-3.0,-0.0,-1.0,0.0,0.0,0.0,0.0,0.0,0.0,-0.9989939024390244,-0.9989939024390244,1.0,1.0,1.0,1.0,11.0,12.0,13.0,14.0,61.762
2024-04-01 20:38:22,-26.0,-15.9375,0.375,-0.5905144135127895,-3.0,-0.0,-1.0,0.0,0.0,0.0,0.0,0.0,0.0,-0.9989939024390244,-0.9989939024390244,1.0,1.0,1.0,1.0,11.0,12.0,13.0,14.0,62.3
2024-04-01 20:38:22,-26.1875,-15.9375,0.3125,-0.5905144135127895,-3.0,-0.0,-1.0,0.0,0.0,0.0,0.0,0.0,0.0,-0.9989939024390244,-0.9989939024390244,1.0,1.0,1.0,1.0,11.0,12.0,13.0,14.0,62.3
2024-04-01 20:38:22,-26.3125,-15.9375,0.3125,0.0,-3.0,-0.0,0.0,0.0,0.0,0.0,0.0,0.0,0.0,-0.9989939024390244,-0.9989939024390244,1.0,1.0,1.0,1.0,0.0,0.0,0.0,0.0,0.0
2024-04-01 20:38:22,-26.5,-15.9375,0.3125,0.0,-3.0,-0.0,0.0,0.0,0.0,0.0,0.0,0.0,0.0,-0.9989939024390244,-0.9989939024390244,1.0,1.0,1.0,1.0,0.0,0.0,0.0,0.0,0.0
2024-04-01 20:38:22,-26.6875,-15.9375,0.25,-0.5905144135127895,-3.0,-0.0,-1.0,0.0,0.0,0.0,0.0,0.0,0.0,-0.9989939024390244,-0.9989939024390244,1.0,1.0,1.0,1.0,11.0,12.0,13.0,14.0,62.3
2024-04-01 20:38:22,-26.875,-15.9375,0.25,-0.5905144135127895,-3.0,-0.0,-1.0,0.0,0.0,0.0,0.0,0.0,0.0,-0.9989939024390244,-0.9989939024390244,1.0,1.0,1.0,1.0,11.0,12.0,13.0,14.0,62.3
2024-04-01 20:38:22,-27.0,-15.9375,0.25,0.0,-3.0,-0.0,0.0,0.0,0.0,0.0,0.0,0.0,0.0,-0.9989939024390244,-0.9989939024390244,1.0,1.0,1.0,1.0,0.0,0.0,0.0,0.0,0.0
2024-04-01 20:38:22,-27.125,-15.875,0.1875,-0.6026039673755142,-3.0,-0.0,-1.0,0.0,0.0,0.0,0.0,0.0,0.0,-0.9989939024390244,-0.9989939024390244,1.0,1.0,1.0,1.0,11.0,12.0,13.0,14.0,61.762
2024-04-01 20:38:22,-27.3125,-15.875,0.1875,0.0,-3.0,-0.0,0.0,0.0,0.0,0.0,0.0,0.0,0.0,-0.9989939024390244,-0.9989939024390244,1.0,1.0,1.0,1.0,0.0,0.0,0.0,0.0,0.0
2024-04-01 20:38:22,-27.5,-15.875,0.1875,0.0,-3.0,-0.0,0.0,0.0,0.0,0.0,0.0,0.0,0.0,-0.9989939024390244,-0.9989939024390244,1.0,1.0,1.0,1.0,0.0,0.0,0.0,0.0,0.0
2024-04-01 20:38:22,-27.6875,-15.875,0.1875,-0.6026039673755142,-3.0,-0.0,-1.0,0.0,0.0,0.0,0.0,0.0,0.0,-0.9989939024390244,-0.9989939024390244,1.0,1.0,1.0,1.0,11.0,12.0,13.0,14.0,62.3
2024-04-01 20:38:22,-27.75,-15.875,0.1875,0.0,-3.0,-0.0,0.0,0.0,0.0,0.0,0.0,0.0,0.0,-0.9989939024390244,-0.9989939024390244,1.0,1.0,1.0,1.0,0.0,0.0,0.0,0.0,0.0
2024-04-01 20:38:22,-28.0,-15.875,0.1875,-0.6026039673755142,-3.0,-0.0,-1.0,0.0,0.0,0.0,0.0,0.0,0.0,-0.9989939024390244,-0.9989939024390244,1.0,1.0,1.0,1.0,11.0,12.0,13.0,14.0,61.762
2024-04-01 20:38:22,-28.125,-15.875,0.125,0.0,-3.0,-0.0,0.0,0.0,0.0,0.0,0.0,0.0,0.0,-0.9989939024390244,-0.9989939024390244,1.0,1.0,1.0,1.0,0.0,0.0,0.0,0.0,0.0
2024-04-01 20:38:22,-28.3125,-15.875,0.125,0.0,-3.0,-0.0,0.0,0.0,0.0,0.0,0.0,0.0,0.0,-0.9989939024390244,-0.9989939024390244,1.0,1.0,1.0,1.0,0.0,0.0,0.0,0.0,0.0
2024-04-01 20:38:22,-28.4375,-15.875,0.125,-0.6026039673755142,-3.0,-0.0,-1.0,0.0,0.0,0.0,0.0,0.0,0.0,-0.9989939024390244,-0.9989939024390244,1.0,1.0,1.0,1.0,11.0,12.0,13.0,14.0,62.3
2024-04-01 20:38:22,-28.5,-15.875,0.125,0.0,-3.0,-0.0,0.0,0.0,0.0,0.0,0.0,0.0,0.0,-0.9989939024390244,-0.9989939024390244,1.0,1.0,1.0,1.0,0.0,0.0,0.0,0.0,0.0
2024-04-01 20:38:23,-28.6875,-15.875,0.125,0.0,-3.0,-0.0,0.0,0.0,0.0,0.0,0.0,0.0,0.0,-0.9989939024390244,-0.9989939024390244,1.0,1.0,1.0,1.0,0.0,0.0,0.0,0.0,0.0
2024-04-01 20:38:23,-28.8125,-15.875,0.125,0.0,-3.0,-0.0,0.0,0.0,0.0,0.0,0.0,0.0,0.0,-0.9989939024390244,-0.9989939024390244,1.0,1.0,1.0,1.0,0.0,0.0,0.0,0.0,0.0
2024-04-01 20:38:23,-29.0,-15.875,0.125,0.0,-3.0,-0.0,0.0,0.0,0.0,0.0,0.0,0.0,0.0,-0.9989939024390244,-0.9989939024390244,1.0,1.0,1.0,1.0,0.0,0.0,0.0,0.0,0.0
2024-04-01 20:38:23,-29.1875,-15.875,0.0625,-0.6026039673755142,-3.0,-0.0,-1.0,0.0,0.0,0.0,0.0,0.0,0.0,-0.9989939024390244,-0.9989939024390244,1.0,1.0,1.0,1.0,11.0,12.0,13.0,14.0,62.3
2024-04-01 20:38:23,-29.3125,-15.875,0.0625,0.0,-3.0,-0.0,0.0,0.0,0.0,0.0,0.0,0.0,0.0,-0.9989939024390244,-0.9989939024390244,1.0,1.0,1.0,1.0,0.0,0.0,0.0,0.0,0.0
2024-04-01 20:38:23,-29.5,-15.8125,0.0625,-0.6026039673755142,-3.0,-0.0,-1.0,0.0,0.0,0.0,0.0,0.0,0.0,-0.9989939024390244,-0.9989939024390244,1.0,1.0,1.0,1.0,11.0,12.0,13.0,14.0,61.762
2024-04-01 20:38:23,-29.625,-15.8125,0.0625,0.0,-3.0,-0.0,0.0,0.0,0.0,0.0,0.0,0.0,0.0,-0.9989939024390244,-0.9989939024390244,1.0,1.0,1.0,1.0,0.0,0.0,0.0,0.0,0.0
2024-04-01 20:38:23,-29.8125,-15.8125,0.0625,0.0,-3.0,-0.0,0.0,0.0,0.0,0.0,0.0,0.0,0.0,-0.9989939024390244,-0.9989939024390244,1.0,1.0,1.0,1.0,0.0,0.0,0.0,0.0,0.0
2024-04-01 20:38:23,-29.9375,-15.875,0.0625,-0.5881445543026008,-3.0,-0.0,-1.0,0.0,0.0,0.0,0.0,0.0,0.0,-0.9989939024390244,-0.9989939024390244,1.0,1.0,1.0,1.0,11.0,12.0,13.0,14.0,62.3
2024-04-01 20:38:23,-30.125,-15.9375,0.0,0.0,-3.0,-0.0,0.0,0.0,0.0,0.0,0.0,0.0,0.0,-0.9989939024390244,-0.9989939024390244,1.0,1.0,1.0,1.0,0.0,0.0,0.0,0.0,0.0
2024-04-01 20:38:23,-30.25,-15.9375,0.0,-0.5881445543026008,-3.0,-0.0,-1.0,0.0,0.0,0.0,0.0,0.0,0.0,-0.9989939024390244,-0.9989939024390244,1.0,1.0,1.0,1.0,11.0,12.0,13.0,14.0,62.3
2024-04-01 20:38:23,-30.375,-15.875,0.0,0.0,-3.0,-0.0,0.0,0.0,0.0,0.0,0.0,0.0,0.0,-0.9989939024390244,-0.9989939024390244,1.0,1.0,1.0,1.0,0.0,0.0,0.0,0.0,0.0
2024-04-01 20:38:23,-30.5625,-15.875,0.0,0.0,-3.0,-0.0,0.0,0.0,0.0,0.0,0.0,0.0,0.0,-0.9989939024390244,-0.9989939024390244,1.0,1.0,1.0,1.0,0.0,0.0,0.0,0.0,0.0
2024-04-01 20:38:23,-30.6875,-15.8125,0.0,-0.5881445543026008,-3.0,-0.0,-1.0,0.0,0.0,0.0,0.0,0.0,0.0,-0.9989939024390244,-0.9989939024390244,1.0,1.0,1.0,1.0,11.0,12.0,13.0,14.0,62.3
2024-04-01 20:38:23,-30.8125,-15.8125,0.0,0.0,-3.0,-0.0,0.0,0.0,0.0,0.0,0.0,0.0,0.0,-0.9989939024390244,-0.9989939024390244,1.0,1.0,1.0,1.0,0.0,0.0,0.0,0.0,0.0
2024-04-01 20:38:23,-30.9375,-15.75,0.0,0.0,-3.0,-0.0,0.0,0.0,0.0,0.0,0.0,0.0,0.0,-0.9989939024390244,-0.9989939024390244,1.0,1.0,1.0,1.0,0.0,0.0,0.0,0.0,0.0
2024-04-01 20:38:24,-31.0625,-15.75,0.0625,-0.5881445543026008,-3.0,-0.0,-1.0,0.0,0.0,0.0,0.0,0.0,0.0,-0.9989939024390244,-0.9989939024390244,1.0,1.0,1.0,1.0,11.0,12.0,13.0,14.0,62.3
2024-04-01 20:38:24,-31.25,-15.6875,0.0625,0.0,-3.0,-0.0,0.0,0.0,0.0,0.0,0.0,0.0,0.0,-0.9989939024390244,-0.9989939024390244,1.0,1.0,1.0,1.0,0.0,0.0,0.0,0.0,0.0
2024-04-01 20:38:24,-31.375,-15.6875,0.0625,0.0,-3.0,-0.0,0.0,0.0,0.0,0.0,0.0,0.0,0.0,-0.9989939024390244,-0.9989939024390244,1.0,1.0,1.0,1.0,0.0,0.0,0.0,0.0,0.0
2024-04-01 20:38:24,-31.5,-15.625,0.0625,-0.5881445543026008,-3.0,-0.0,-1.0,0.0,0.0,0.0,0.0,0.0,0.0,-0.9989939024390244,-0.9989939024390244,1.0,1.0,1.0,1.0,11.0,12.0,13.0,14.0,62.3
2024-04-01 20:38:24,-31.625,-15.5625,0.0625,0.0,-3.0,-0.0,0.0,0.0,0.0,0.0,0.0,0.0,0.0,-0.9989939024390244,-0.9989939024390244,1.0,1.0,1.0,1.0,0.0,0.0,0.0,0.0,0.0
2024-04-01 20:38:24,-31.75,-15.5,0.0625,-0.5881445543026008,-3.0,-0.0,-1.0,0.0,0.0,0.0,0.0,0.0,0.0,-0.9989939024390244,-0.9989939024390244,1.0,1.0,1.0,1.0,11.0,12.0,13.0,14.0,61.762
2024-04-01 20:38:24,-31.875,-15.4375,0.0625,0.0,-3.0,-0.0,0.0,0.0,0.0,0.0,0.0,0.0,0.0,-0.9989939024390244,-0.9989939024390244,1.0,1.0,1.0,1.0,0.0,0.0,0.0,0.0,0.0
2024-04-01 20:38:24,-32.0,-15.4375,0.0625,0.0,-3.0,-0.0,0.0,0.0,0.0,0.0,0.0,0.0,0.0,-0.9989939024390244,-0.9989939024390244,1.0,1.0,1.0,1.0,0.0,0.0,0.0,0.0,0.0
2024-04-01 20:38:24,-32.125,-15.375,0.0625,-0.5881445543026008,-3.0,-0.0,-1.0,0.0,0.0,0.0,0.0,0.0,0.0,-0.9989939024390244,-0.9989939024390244,1.0,1.0,1.0,1.0,11.0,12.0,13.0,14.0,62.3
2024-04-01 20:38:24,327.75,-15.375,0.0625,0.0,-3.0,-0.0,0.0,0.0,0.0,0.0,0.0,0.0,0.0,-0.9989939024390244,-0.9989939024390244,1.0,1.0,1.0,1.0,0.0,0.0,0.0,0.0,0.0
2024-04-01 20:38:24,327.625,-15.3125,0.0,0.0,-3.0,-0.0,0.0,0.0,0.0,0.0,0.0,0.0,0.0,-0.9989939024390244,-0.9989939024390244,1.0,1.0,1.0,1.0,0.0,0.0,0.0,0.0,0.0
2024-04-01 20:38:24,327.5,-15.25,0.0,-0.5585476951989536,-3.0,-0.0,-1.0,0.0,0.0,0.0,0.0,0.0,0.0,-0.9989939024390244,-0.9989939024390244,1.0,1.0,1.0,1.0,11.0,12.0,13.0,14.0,62.3
2024-04-01 20:38:24,327.375,-15.1875,0.0,0.0,-3.0,-0.0,0.0,0.0,0.0,0.0,0.0,0.0,0.0,-0.9989939024390244,-0.9989939024390244,1.0,1.0,1.0,1.0,0.0,0.0,0.0,0.0,0.0
2024-04-01 20:38:24,327.25,-15.1875,0.0625,-0.5585476951989536,-3.0,-0.0,-1.0,0.0,0.0,0.0,0.0,0.0,0.0,-0.9989939024390244,-0.9989939024390244,1.0,1.0,1.0,1.0,11.0,12.0,13.0,14.0,62.3
2024-04-01 20:38:24,327.125,-15.125,0.0625,-0.5585476951989536,-3.0,-0.0,-1.0,0.0,0.0,0.0,0.0,0.0,0.0,-0.9989939024390244,-0.9989939024390244,1.0,1.0,1.0,1.0,11.0,12.0,13.0,14.0,62.3
2024-04-01 20:38:24,327.0,-15.0625,0.0625,0.0,-3.0,-0.0,0.0,0.0,0.0,0.0,0.0,0.0,0.0,-0.9989939024390244,-0.9989939024390244,1.0,1.0,1.0,1.0,0.0,0.0,0.0,0.0,0.0
2024-04-01 20:38:25,326.875,-15.0625,0.0625,-0.5585476951989536,-3.0,-0.0,-1.0,0.0,0.0,0.0,0.0,0.0,0.0,-0.9989939024390244,-0.9989939024390244,1.0,1.0,1.0,1.0,11.0,12.0,13.0,14.0,62.3
2024-04-01 20:38:25,326.75,-15.0,0.0,0.0,-3.0,-0.0,0.0,0.0,0.0,0.0,0.0,0.0,0.0,-0.9989939024390244,-0.9989939024390244,1.0,1.0,1.0,1.0,0.0,0.0,0.0,0.0,0.0
2024-04-01 20:38:25,326.625,-14.9375,0.0,0.0,-3.0,-0.0,0.0,0.0,0.0,0.0,0.0,0.0,0.0,-0.9989939024390244,-0.9989939024390244,1.0,1.0,1.0,1.0,0.0,0.0,0.0,0.0,0.0
2024-04-01 20:38:25,326.5,-14.875,0.0,0.0,-3.0,-0.0,0.0,0.0,0.0,0.0,0.0,0.0,0.0,-0.9989939024390244,-0.9989939024390244,1.0,1.0,1.0,1.0,0.0,0.0,0.0,0.0,0.0
2024-04-01 20:38:25,326.375,-14.75,0.0,0.0,-3.0,-0.0,0.0,0.0,0.0,0.0,0.0,0.0,0.0,-0.9989939024390244,-0.9989939024390244,1.0,1.0,1.0,1.0,0.0,0.0,0.0,0.0,0.0
2024-04-01 20:38:25,326.25,-14.6875,0.0,-0.5585476951989536,-3.0,-0.0,-1.0,0.0,0.0,0.0,0.0,0.0,0.0,-0.9989939024390244,-0.9989939024390244,1.0,1.0,1.0,1.0,11.0,12.0,13.0,14.0,62.3
2024-04-01 20:38:25,326.1875,-14.5625,0.0,-0.5585476951989536,-3.0,-0.0,-1.0,0.0,0.0,0.0,0.0,0.0,0.0,-0.9989939024390244,-0.9989939024390244,1.0,1.0,1.0,1.0,11.0,12.0,13.0,14.0,62.3
2024-04-01 20:38:25,326.0625,-14.5,0.0,0.0,-3.0,-0.0,0.0,0.0,0.0,0.0,0.0,0.0,0.0,-0.9989939024390244,-0.9989939024390244,1.0,1.0,1.0,1.0,0.0,0.0,0.0,0.0,0.0
2024-04-01 20:38:25,325.9375,-14.4375,0.0,0.0,-3.0,-0.0,0.0,0.0,0.0,0.0,0.0,0.0,0.0,-0.9989939024390244,-0.9989939024390244,1.0,1.0,1.0,1.0,0.0,0.0,0.0,0.0,0.0
2024-04-01 20:38:25,325.8125,-14.375,0.0,0.0,-3.0,-0.0,0.0,0.0,0.0,0.0,0.0,0.0,0.0,-0.9989939024390244,-0.9989939024390244,1.0,1.0,1.0,1.0,0.0,0.0,0.0,0.0,0.0
2024-04-01 20:38:25,325.6875,-14.25,0.0,-0.5310113987503076,-3.0,-0.0,-1.0,0.0,0.0,0.0,0.0,0.0,0.0,-0.9989939024390244,-0.9989939024390244,1.0,1.0,1.0,1.0,11.0,12.0,13.0,14.0,61.762
2024-04-01 20:38:25,325.5625,-14.1875,0.0,-0.5310113987503076,-3.0,-0.0,-1.0,0.0,0.0,0.0,0.0,0.0,0.0,-0.9989939024390244,-0.9989939024390244,1.0,1.0,1.0,1.0,11.0,12.0,13.0,14.0,62.3
2024-04-01 20:38:25,325.4375,-14.0625,0.0,-0.5310113987503076,-3.0,-0.0,-1.0,0.0,0.0,0.0,0.0,0.0,0.0,-0.9989939024390244,-0.9989939024390244,1.0,1.0,1.0,1.0,11.0,12.0,13.0,14.0,62.3
2024-04-01 20:38:25,325.1875,-13.9375,0.0,-0.5310113987503076,-3.0,-0.0,-1.0,0.0,0.0,0.0,0.0,0.0,0.0,-0.9989939024390244,-0.9989939024390244,1.0,1.0,1.0,1.0,11.0,12.0,13.0,14.0,62.3
2024-04-01 20:38:25,325.0625,-13.8125,0.0,-0.5310113987503076,-3.0,-0.0,-1.0,0.0,0.0,0.0,0.0,0.0,0.0,-0.9989939024390244,-0.9989939024390244,1.0,1.0,1.0,1.0,11.0,12.0,13.0,14.0,62.3
2024-04-01 20:38:25,325.0,-13.6875,0.0,0.0,-3.0,-0.0,0.0,0.0,0.0,0.0,0.0,0.0,0.0,-0.9989939024390244,-0.9989939024390244,1.0,1.0,1.0,1.0,0.0,0.0,0.0,0.0,0.0
2024-04-01 20:38:26,324.875,-13.625,0.0625,0.0,-3.0,-0.0,0.0,0.0,0.0,0.0,0.0,0.0,0.0,-0.9989939024390244,-0.9989939024390244,1.0,1.0,1.0,1.0,0.0,0.0,0.0,0.0,0.0
2024-04-01 20:38:26,324.75,-13.5,0.125,0.0,-3.0,-0.0,0.0,0.0,0.0,0.0,0.0,0.0,0.0,-0.9989939024390244,-0.9989939024390244,1.0,1.0,1.0,1.0,0.0,0.0,0.0,0.0,0.0
2024-04-01 20:38:26,324.5625,-13.375,0.1875,0.0,-3.0,-0.0,0.0,0.0,0.0,0.0,0.0,0.0,0.0,-0.9989939024390244,-0.9989939024390244,1.0,1.0,1.0,1.0,0.0,0.0,0.0,0.0,0.0
2024-04-01 20:38:26,324.4375,-13.25,0.3125,-0.5310113987503076,-3.0,-0.0,-1.0,0.0,0.0,0.0,0.0,0.0,0.0,-0.9989939024390244,-0.9989939024390244,1.0,1.0,1.0,1.0,11.0,12.0,13.0,14.0,61.224
2024-04-01 20:38:26,324.3125,-13.1875,0.375,-0.5310113987503076,-3.0,-0.0,-1.0,0.0,0.0,0.0,0.0,0.0,0.0,-0.9989939024390244,-0.9989939024390244,1.0,1.0,1.0,1.0,11.0,12.0,13.0,14.0,61.762
2024-04-01 20:38:26,324.1875,-13.125,0.4375,0.0,-3.0,-0.0,0.0,0.0,0.0,0.0,0.0,0.0,0.0,-0.9989939024390244,-0.9989939024390244,1.0,1.0,1.0,1.0,0.0,0.0,0.0,0.0,0.0
